     3.04           OBSERVATION DATA    M: Mixed            RINEX VERSION / TYPE
Higeo_Hi1105        Huawei CBG          20220209 110014 UTC PGM / RUN BY / DATE 
************************************************************COMMENT             
* If you have any problem,                                 *COMMENT             
*     please contact with LBS Technology Group, thanks.    *COMMENT             
*                                                          *COMMENT             
* Version Higeo2RinexV1.1 2020.07.21                       *COMMENT             
* Fuction:  Convert Higeo Log to Rinex file                *COMMENT             
*                                                          *COMMENT             
* Note that the verision support B1C B2A signal            *COMMENT             
*     BDS: C1D L1D D1D S1D indicate BDS B1C                *COMMENT             
*     BDS: C5D L5D D5D S5D indicate BDS B2A                *COMMENT             
*     Reference: RINEX V3.04                               *COMMENT             
*                                                          *COMMENT             
* Copyright(C) Huawei Technologies Co., Ltd. 2019 - 2020   *COMMENT             
*     All rights reserved.                                 *COMMENT             
************************************************************COMMENT             
                                                            MARKER NAME         
                                                            MARKER NUMBER       
                                                            MARKER TYPE         
                                                            OBSERVER / AGENCY   
                                                            REC # / TYPE / VERS 
                                                            ANT # / TYPE        
        0.0000        0.0000        0.0000                  APPROX POSITION XYZ 
        0.0000        0.0000        0.0000                  ANTENNA: DELTA H/E/N
G    8 C1C L1C D1C S1C C5I L5I D5I S5I                      SYS / # / OBS TYPES 
R    4 C1C L1C D1C S1C                                      SYS / # / OBS TYPES 
E    8 C1C L1C D1C S1C C5I L5I D5I S5I                      SYS / # / OBS TYPES 
J    8 C1C L1C D1C S1C C5I L5I D5I S5I                      SYS / # / OBS TYPES 
C   12 C2I L2I D2I S2I C1D L1D D1D S1D C5D L5D D5D S5D      SYS / # / OBS TYPES 
  2022     1    25     4     2   48.0000000     GPS         TIME OF FIRST OBS   
  2022     1    25     4    17   52.0000000     GPS         TIME OF LAST OBS    
G                                                           SYS / PHASE SHIFT   
R                                                           SYS / PHASE SHIFT   
E                                                           SYS / PHASE SHIFT   
J                                                           SYS / PHASE SHIFT   
C                                                           SYS / PHASE SHIFT   
  0                                                         GLONASS SLOT / FRQ #
 C1C    0.000 C1P    0.000 C2C    0.000 C2P    0.000        GLONASS COD/PHS/BIS 
                                                            END OF HEADER       
> 2022  1 25  4  2 48.0000000  0  1                     
G32  20732632.032        3813.504        1630.486          26.000                                                                  
> 2022  1 25  4  2 49.0000000  0  9                     
G 3  23527270.553       -7334.482       -1131.007          35.000                                                                  
G16  22478677.963      -13455.351       -3333.564          22.000                                                                  
G26  20256636.710       -4254.021       -1168.572          25.000                                                                  
G29  22561077.414         351.655           5.742          25.000                                                                  
G31  20649107.069         917.839         182.616          33.000                                                                  
G32  20732946.055       12381.059        1631.372          23.000                                                                  
J 2  38676949.136        2650.910         508.908          35.000                                                                  
C24  22410294.925       -4466.925        -871.887          38.000                                                                                                                                  
C33  23517359.939       -7690.645       -1567.567          37.000                                                                                                                                  
> 2022  1 25  4  2 50.0000000  0  9                     
G 3  23527055.528      -13279.616       -1131.213          34.000    23527056.323       -4403.399        -844.864          31.000  
G16  22478056.439      -30971.558       -3331.803          24.000                                                                  
G26  20256417.910      -10383.079       -1162.995          31.000                                                                  
G29  22561092.124         379.743           6.124          22.000                                                                  
G31  20649146.611        1881.186         185.291          31.000                                                                  
G32  20733260.121       20959.386        1634.686          28.000                                                                  
J 2  38677048.624        5329.065         509.569          32.000                                                                  
C24  22410127.656       -9006.096        -871.128          39.000                                                                                                                                  
C33  23517059.376      -15841.989       -1563.952          39.000                                                                                                                                  
> 2022  1 25  4  2 51.0000000  0 11                     
G 3  23526839.863      -19220.388       -1127.490          33.000    23526841.366       -7716.081        -844.432          29.000  
G16  22477428.757      -48476.452       -3330.350          24.000                                                                  
G26  20256197.217      -16497.442       -1163.861          34.000                                                                  
G29  22561104.741         418.236           7.977          21.000                                                                  
G31  20649185.905        2851.130         184.928          33.000                                                                  
G32  20733571.099       29558.206        1637.730          29.000                                                                  
R 2  19255301.241                                          35.000  
R12  19932901.995                                          33.000  
J 2  38677151.061        8015.150         512.287          33.000                                                                  
C24  22409960.640      -13539.884        -870.573          41.000                                                                    22409952.916       -3305.952        -645.666          27.000  
C33  23516758.761      -23984.581       -1563.676          38.000                                                                                                                                  
> 2022  1 25  4  2 52.0000000  0 12                     
G 3  23526625.037      -25151.072       -1129.631          34.000    23526626.574      -11026.093        -843.075          29.000  
G16  22476792.050      -65971.268       -3328.230          22.000                                                                  
G26  20255976.062      -22616.157       -1164.180          35.000                                                                  
G29  22561102.027         465.987           9.652          20.000                                                                  
G31  20649224.784        3820.426         185.272          33.000                                                                  
G32  20733881.083       38164.113        1636.850          29.000                                                                  
R 2  19255212.864                                          36.000  
R12  19933087.683                                          34.000  
E 7  26590925.909       -7588.850       -2669.034          34.000                                                                  
J 2  38677249.379       10696.926         510.940          33.000    38677241.720        3971.626         364.711          16.000  
C24  22409793.589      -18071.934        -869.681          40.000                                                                    22409787.025       -5874.947        -655.522          30.000  
C33  23516458.391      -32122.051       -1562.574          37.000                                                                                                                                  
> 2022  1 25  4  2 53.0000000  0 12                     
G 3  23526412.061      -31076.229       -1124.557          33.000    23526411.958      -14332.280        -843.735          18.000  
G16  22614171.583      -83463.461       -3329.944          20.000                                                                  
G26  20255755.631      -28726.451       -1161.652          30.000                                                                  
G29  22561104.331         520.947          11.600          19.000                                                                  
G31  20649260.793        4798.300         184.740          28.000                                                                  
G32  20734189.679       46760.889        1637.539          27.000                                                                  
R 2  19255123.580                                          36.000  
R12  19933278.248                                          34.000  
E 7  26590416.851      -21608.041       -2667.413          33.000                                                                  
J 2  38677348.579       13386.395         512.131          32.000    38677342.918        5422.441         374.244          17.000  
C24  22409626.189      -22596.293        -868.151          39.000                                                                    22409620.306       -8444.538        -654.497          26.000  
C33  23516157.496      -40254.493       -1560.461          35.000                                                                                                                                  
> 2022  1 25  4  2 54.0000000  0 12                     
G 3  23526200.866      -36995.805       -1127.250          31.000    23526197.299      -17640.937        -842.541          19.000  
G16  22613538.036     -100958.063       -3328.772          17.000                                                                  
G26  20255533.865      -34818.719       -1159.592          32.000                                                                  
G29  22561107.997         581.198          12.091          17.000                                                                  
G31  20649297.072        5775.738         187.219          32.000                                                                  
G32  20734500.762       55375.447        1641.262          30.000                                                                  
R 2  19255033.991                                          32.000  
R12  19933468.997                                          35.000  
E 7  26589909.861      -35619.638       -2665.805          31.000                                                                  
J 2  38677446.392       16088.494         515.095          28.000    38677440.434        6897.319         376.934          18.000  
C24  22409459.575      -27112.559        -866.381          36.000                                                                    22409453.953      -11009.697        -653.236          28.000  
C33  23515857.169      -48376.824       -1558.776          34.000                                                                                                                                  
> 2022  1 25  4  2 55.0000000  0 13                     
G 3  23525985.780      -42905.591       -1122.199          31.000    23525981.742      -20939.047        -839.154          23.000  
G26  20255312.465      -40911.843       -1158.473          29.000                                                                  
G29  22561110.501         648.578          12.385          17.000                                                                  
G31  20649333.761        6761.770         187.556          34.000                                                                  
G32  20734812.168       63998.107        1641.000          27.000                                                                  
R 2  19254940.615                                          30.000  
R12  19933661.219                                          37.000  
E 7  26589402.392      -49627.457       -2664.994          34.000                                                                  
J 2  38677545.531       18784.933         512.074          31.000    38677542.199        8386.344         382.034          19.000  
C14  22332345.404         -65.875         -19.399          33.000                                                                                                                                  
C24  22409293.449      -31626.799        -866.399          36.000                                                                    22409287.626      -13572.623        -652.683          29.000  
C33  23515557.785      -56492.452       -1558.521          34.000                                                                                                                                  
C35  24772260.065       -9078.394       -1441.135          28.000                                                                                                                                  
> 2022  1 25  4  2 56.0000000  0 14                     
G 3  23525772.792      -48803.696       -1122.836          34.000    23525768.169      -24232.401        -838.769          22.000  
G26  20255094.573      -46997.082       -1157.072          33.000                                                                  
G29  22561130.543         714.475          12.979          20.000                                                                  
G31  20649370.010        7752.202         190.063          34.000                                                                  
G32  20735126.636       72618.772        1638.166          28.000                                                                  
R 2  19254849.900                                          34.000  
R12  19933852.822                                          36.000  
E 2  23293823.230        5132.551         704.456          29.000                                                                  
E 7  26588895.053      -63632.483       -2664.698          33.000                                                                  
J 2  38677643.631       21477.667         512.403          30.000    38677639.741        9891.730         384.462          22.000  
C14  22332341.183        -181.299         -20.753          33.000                                                                                                                                  
C24  22409127.541      -36135.625        -865.209          39.000                                                                    22409121.483      -16133.887        -652.414          29.000  
C33  23515258.897      -64603.952       -1557.242          36.000                                                                                                                                  
C35  24771973.610      -16639.233       -1442.922          23.000                                                                                                                                  
> 2022  1 25  4  2 58.0000000  0 18                     
G 3  23525469.371      -57173.880       -1120.203          36.000    23525465.498      -28901.090        -835.743          25.000  
G16  22611345.398     -160795.106       -3326.547          20.000                                                                  
G26  20254781.607      -55646.809       -1155.422          29.000    20254779.026       -8941.161        -852.503          18.000  
G29  22561133.832         802.173          11.106          17.000                                                                  
G31  20649422.256        9177.588         190.170          33.000                                                                  
G32  20735574.501       84883.430        1645.503          28.000                                                                  
R 2  19254722.662                                          25.000  
R 3  22264502.361                                          21.000  
R12  19934121.625                                          35.000  
E 2  23294016.308       10357.464         699.143          26.000                                                                  
E 7  26588175.153      -83518.395       -2662.423          34.000                                                                  
E30  24575723.564      -26211.540       -1579.328          27.000                                                                  
J 2  38677782.009       25318.264         510.300          19.000    38677780.309       12044.605         387.555          20.000  
C 6  35884135.728       -3280.141        -543.789          29.000                                                                                                                                  
C 9  36662549.098       -4391.616        -729.686          33.000                                                                                                                                  
C14  22332336.306        -314.303         -15.529          28.000                                                                                                                                  
C24  22408892.591      -42531.174        -863.643          38.000                                                                    22408886.036      -19764.956        -651.271          29.000  
C33  23514835.459      -76106.968       -1555.948          38.000                                                                                                                                  
> 2022  1 25  4  2 59.0000000  0 20                     
G 3  23525254.886      -63069.034       -1123.541          34.000    23525252.279      -32188.776        -837.429          25.000  
G16  22610707.305     -178257.787       -3321.064          17.000                                                                  
G26  20254559.981      -61724.035       -1156.836          32.000    20254559.223      -12311.892        -860.494          20.000  
G29  22561136.197         865.211          13.411          20.000                                                                  
G31  20649457.767       10170.198         189.374          29.000                                                                  
G32  20735889.781       93523.351        1642.738          28.000                                                                  
R 2  19254631.816                                          36.000  
R12  19934312.801                                          30.000  
E 2  23294156.529       14021.991         697.475          29.000                                                                  
E 7  26587667.613      -97518.000       -2663.674          33.000                                                                  
E 8  23303141.636       -3449.859        -757.439          33.000                                                                  
E30  24575422.400      -34519.131       -1580.398          32.000                                                                  
J 2  38677879.193       28020.733         515.764          30.000    38677879.692       13555.842         386.105          21.000  
C 6  35884034.562       -6109.898        -542.808          30.000                                                                                                                                  
C 9  36662404.263       -8197.995        -729.093          27.000                                                                                                                                  
C14  22332332.859        -402.590         -16.137          37.000                                                                                                                                  
C24  22408726.788      -47034.873        -864.472          40.000                                                                    22408719.979      -22322.604        -651.664          29.000  
C26  22314225.163        5711.596        1048.788          31.000                                                                                                                                  
C33  23514536.650      -84211.776       -1555.883          35.000                                                                                                                                  
C35  24771318.820      -34616.938       -1414.817          15.000                                                                                                                                  
> 2022  1 25  4  3  0.0000000  0 20                     
G 3  23525041.508      -68956.610       -1119.147          30.000    23525039.241      -35472.478        -836.361          25.000  
G16  22610084.114     -195722.947       -3324.152          19.000                                                                  
G26  20254340.954      -67793.836       -1151.648          26.000    20254340.319      -15689.152        -861.080          19.000  
G29  22561144.747         942.078          -0.008          16.000                                                                  
G31  20649494.796       11172.294         189.561          31.000                                                                  
G32  20736201.606      102154.736        1642.348          23.000                                                                  
R 2  19254543.448                                          35.000  
R12  19934502.904                                          33.000  
E 2  23294293.505       17689.644         697.943          30.000                                                                  
E 7  26587161.505     -111516.759       -2663.875          34.000                                                                  
E 8  23302998.710       -7428.476        -756.577          30.000                                                                  
E30  24575121.742      -42822.654       -1579.914          26.000                                                                  
J 2  38677978.768       30726.219         515.893          32.000    38677977.723       15071.464         386.699          18.000  
C 6  35883931.023       -8953.748        -544.603          29.000                                                                                                                                  
C 9  36662262.270      -11997.426        -729.263          30.000                                                                                                                                  
C14  22332329.430        -490.067         -15.337          36.000                                                                                                                                  
C24  22408560.505      -51537.384        -862.664          36.000                                                                    22408554.010      -24878.824        -650.936          28.000  
C26  22314426.224       11172.129        1051.429          31.000                                                                                                                                  
C33  23514239.150      -92311.625       -1556.194          35.000                                                                    23514259.163       -4453.878       -1171.720          25.000  
C35  24771016.544      -42112.342       -1445.740          27.000                                                                                                                                  
> 2022  1 25  4  3  1.0000000  0 21                     
G 3  23524826.934      -74847.886       -1118.904          31.000    23524826.508      -38751.656        -833.825          22.000  
G16  22609455.976     -213171.901       -3319.165          17.000                                                                  
G26  20254123.018      -73857.383       -1156.810          31.000    20254118.841      -19075.147        -863.443          20.000  
G29  22561147.819        1024.199          -0.008          14.000                                                                  
G31  20649531.325       12166.667         189.130          29.000                                                                  
G32  20736513.160      110789.764        1641.977          27.000                                                                  
R 2  19254453.579                                          35.000  
R12  19934696.008                                          34.000  
E 2  23294429.634       21359.013         698.277          32.000                                                                  
E 7  26586655.850     -125515.103       -2663.592          34.000                                                                  
E 8  23302854.955       -2301.419        -757.017          30.000                                                                  
E30  24574821.992      -51124.760       -1580.294          24.000                                                                  
J 2  38678076.101       33437.144         514.139          29.000    38678076.373       16587.088         385.917          16.000  
C 6  35883827.029      -11787.941        -545.832          30.000                                                                                                                                  
C 9  36662118.962      -15803.712        -730.693          32.000                                                                                                                                  
C14  22332326.717        -573.000         -14.902          36.000                                                                                                                                  
C21  24877075.507       36344.198        3218.630          20.000                                                                                                                                  
C24  22408395.129      -56036.942        -865.466          36.000                                                                    22408388.068      -27435.337        -651.496          28.000  
C26  22314628.647       16642.650        1049.385          30.000                                                                                                                                  
C33  23513941.170     -100405.558       -1553.429          35.000                                                                    23513960.939       -9052.695       -1171.944          25.000  
C35  24770734.928      -49651.567       -1448.424          31.000                                                                                                                                  
> 2022  1 25  4  3  2.0000000  0 20                     
G 3  23524612.074      -80741.424       -1121.743          30.000    23524613.550      -42032.450        -835.222          26.000  
G26  20253902.387      -79932.919       -1154.101          31.000    20253898.811      -22464.288        -862.370          19.000  
G29  22561150.907        1108.661          -0.008          18.000                                                                  
G31  20649568.790       13168.477         190.561          29.000                                                                  
G32  20736826.930      119433.484        1642.560          20.000                                                                  
R 2  19254364.365                                          35.000  
R12  19934889.016                                          32.000  
E 2  23294564.873       25030.287         698.715          30.000                                                                  
E 7  26586149.802     -139511.057       -2663.299          34.000                                                                  
E 8  23302712.151       -6274.959        -755.794          33.000                                                                  
E30  24574520.532      -59424.733       -1579.298          29.000                                                                  
J 2  38678175.004       36143.318         515.258          32.000    38678171.420       18100.458         386.815          18.000  
C 6  35883723.132      -14626.127        -543.712          30.000                                                                                                                                  
C 9  36661979.029      -19613.228        -731.008          29.000                                                                                                                                  
C14  22332323.366        -653.117         -15.041          34.000                                                                                                                                  
C21  24877693.550       53099.494        3215.876          18.000                                                                                                                                  
C24  22408229.038      -60537.557        -863.732          39.000                                                                    22408222.186      -29990.456        -650.380          30.000  
C26  22314829.918       22101.434        1048.691          27.000                                                                                                                                  
C33  23513643.051     -108496.263       -1554.834          36.000                                                                    23513662.697      -13648.962       -1170.727          26.000  
C35  24770456.542      -57195.522       -1447.769          29.000                                                                                                                                  
> 2022  1 25  4  3  3.0000000  0 20                     
G 3  23524402.397      -86618.652       -1116.964          32.000    23524400.854      -45310.125        -834.471          22.000  
G26  20253683.709      -85997.994       -1155.508          30.000    20253678.729      -25851.898        -862.375          19.000  
G29  22561181.271        1210.138          19.657          23.000                                                                  
G31  20649605.471       14170.094         190.544          27.000                                                                  
G32  20737139.966      128076.629        1645.604          18.000                                                                  
R 2  19254275.003                                          36.000  
R12  19935079.092                                          31.000  
E 2  23294699.510       28705.150         699.488          31.000                                                                  
E 7  26585642.596     -153505.196       -2662.961          33.000                                                                  
E 8  23302568.518      -10244.675        -754.993          32.000                                                                  
E30  24574220.442      -67720.564       -1578.474          28.000                                                                  
J 2  38678273.680       38850.645         514.838          29.000    38678269.459       19615.297         384.167          19.000  
C 6  35883619.105      -17470.084        -546.056          29.000                                                                                                                                  
C 9  36661838.112      -23415.757        -730.929          28.000                                                                                                                                  
C14  22332319.850        -727.904         -15.464          35.000                                                                                                                                  
C21  24878311.375       69852.859        3217.235          18.000                                                                                                                                  
C24  22408063.304      -65032.704        -863.607          38.000                                                                    22408056.505      -32543.838        -650.032          27.000  
C26  22315032.454       27571.494        1050.813          27.000                                                                                                                                  
C33  23513344.364     -116586.461       -1554.169          36.000                                                                    23513364.569      -18242.629       -1170.174          23.000  
C35  24770178.138      -64720.473       -1443.070          28.000                                                                                                                                  
> 2022  1 25  4  3  4.0000000  0 23                     
G 3  23524190.240      -92484.360       -1117.330          32.000    23524188.139      -48586.013        -833.674          24.000  
G16  22607563.125     -265511.345       -3320.378          19.000                                                                  
G26  20253463.086      -92064.109       -1151.072          32.000    20253459.615      -29227.617        -859.608          19.000  
G29  22561189.184        1312.603          19.511          24.000                                                                  
G31  20649641.985       15183.058         194.348          28.000                                                                  
G32  20737453.492      136732.946        1647.647          21.000                                                                  
R 2  19254186.783                                          35.000  
R 3  22260268.896                                          23.000  
R12  19935272.239                                          33.000  
R22  23549893.801                                          19.000  
E 2  23294833.798       32382.259         699.944          30.000                                                                  
E 7  26585136.112     -167497.528       -2662.503          33.000                                                                  
E 8  23302424.188      -14211.468        -754.399          33.000                                                                  
E30  24573919.907      -76014.473       -1577.922          29.000                                                                  
J 2  38678370.978       41559.106         513.960          32.000    38678363.467       21125.316         384.516          18.000  
C 6  35883514.964      -20307.820        -544.809          30.000                                                                                                                                  
C 9  36661698.425      -27216.657        -730.533          30.000                                                                                                                                  
C14  22332316.535        -803.333         -13.701          35.000                                                                                                                                  
C21  24878929.514       86605.573        3217.802          17.000                                                                                                                                  
C24  22407897.536      -69527.663        -861.622          38.000                                                                    22407890.789      -35096.648        -649.976          27.000  
C26  22315234.670       33039.398        1050.258          25.000                                                                                                                                  
C33  23513046.280     -124674.346       -1552.130          36.000                                                                                                                                  
C35  24769900.712      -72248.139       -1447.880          29.000                                                                                                                                  
> 2022  1 25  4  3  5.0000000  0 22                     
G 3  23523975.634      -98354.490       -1117.005          33.000    23523975.844      -51859.446        -833.771          26.000  
G16  22606927.169     -282977.104       -3322.902          18.000                                                                  
G26  20253245.351      -98117.757       -1152.886          31.000    20253239.847      -32606.816        -860.127          20.000  
G29  22561190.886        1420.633          22.488          21.000                                                                  
G31  20649679.355       16194.448         191.612          28.000                                                                  
G32  20737759.305      145394.459        1649.328          25.000                                                                  
R 2  19254100.404                                          35.000  
R12  19935466.608                                          35.000  
R22  23549309.355                                          18.000  
E 2  23294967.415       36062.064         700.441          30.000                                                                  
E 7  26584628.459     -181487.973       -2662.149          33.000                                                                  
E 8  23302280.764      -18174.732        -754.123          31.000                                                                  
E30  24573618.926      -84305.310       -1577.677          26.000                                                                  
J 2  38678468.485       44268.903         515.716          30.000    38678461.838       22636.233         385.789          17.000  
C 6  35883411.092      -23137.907        -542.018          28.000                                                                                                                                  
C 9  36661558.973      -31021.719        -730.103          30.000                                                                                                                                  
C14  22332313.439        -871.528         -12.526          34.000                                                                                                                                  
C21  24879546.719      103367.072        3219.466          17.000                                                                                                                                  
C24  22407732.099      -74019.572        -862.485          37.000                                                                    22407725.125      -37647.627        -649.741          29.000  
C26  22315437.163       38509.823        1051.086          29.000                                                                                                                                  
C33  23512748.064     -132756.055       -1551.817          37.000                                                                    23512770.005        -693.076       -1169.830          27.000  
C35  24769622.576      -79782.013       -1445.482          28.000                                                                                                                                  
> 2022  1 25  4  3  6.0000000  0 25                     
G 3  23523764.035     -104221.688       -1114.816          32.000    23523763.347      -55129.975        -834.812          22.000  
G16  22606295.244     -300444.127       -3323.186          19.000                                                                  
G26  20253025.164     -104166.048       -1152.746          32.000    20253020.271      -35990.178        -863.365          22.000  
G29  22561194.821        1541.043          23.482          17.000                                                                  
G31  20649715.647       17205.337         191.605          33.000                                                                  
G32  20738078.058      154060.475        1649.052          26.000                                                                  
R 1  21240451.737                                          17.000  
R 2  19254013.040                                          35.000  
R 3  22258856.372                                          20.000  
R12  19935661.431                                          33.000  
R21  23348617.926                                          17.000  
R22  23548708.247                                          17.000  
E 2  23295100.890       39744.843         700.673          31.000                                                                  
E 7  26584120.902     -195476.140       -2661.552          30.000                                                                  
E 8  23302136.695      -22134.111        -753.757          33.000                                                                  
E30  24573317.588      -92592.289       -1577.153          26.000                                                                  
J 2  38678566.115       46980.210         516.064          31.000    38678561.841       24144.904         383.539          22.000  
C 6  35883307.021      -25960.358        -544.608          30.000                                                                                                                                  
C 9  36661417.460      -34821.924        -730.368          30.000                                                                                                                                  
C14  22332310.438        -930.932         -12.559          33.000                                                                                                                                  
C21  24880165.181      120134.209        3219.760          20.000                                                                                                                                  
C24  22407567.177      -78509.005        -862.484          37.000                                                                    22407559.618      -40197.308        -649.568          27.000  
C26  22315639.838       43980.560        1051.181          33.000                                                                                                                                  
C33  23512449.866     -140833.455       -1551.350          36.000                                                                                                                                  
C35  24769345.427      -87297.880       -1443.664          28.000                                                                                                                                  
> 2022  1 25  4  3  7.0000000  0 24                     
G 3  23523553.573     -110084.229       -1115.416          34.000    23523550.747      -58399.078        -832.708          25.000  
G16  22605659.542     -317902.047       -3324.040          19.000                                                                  
G26  20252806.722     -110213.452       -1150.891          32.000    20252801.419      -39361.892        -860.339          23.000  
G29  22561199.203        1661.210          24.515          17.000                                                                  
G31  20649752.764       18222.190         194.039          30.000                                                                  
G32  20738387.483      162715.567        1646.436          27.000                                                                  
R 1  21241164.273                                          17.000  
R 2  19253926.548                                          35.000  
R12  19935856.734                                          35.000  
R21  23348376.495                                          15.000  
R22  23548107.864                                          17.000  
E 2  23295235.545       43428.837         701.264          32.000                                                                  
E 7  26583613.519     -209464.033       -2661.730          31.000    26583614.088      -12097.873       -1987.401          26.000  
E 8  23301993.874      -26091.911        -752.965          34.000                                                                  
E30  24573017.158     -100879.072       -1576.707          30.000                                                                  
J 2  38678664.006       49691.503         516.279          30.000    38678660.046       25640.502         383.586          19.000  
C 6  35883203.395      -28784.861        -542.419          29.000                                                                                                                                  
C 9  36661276.403      -38619.543        -729.220          28.000                                                                                                                                  
C14  22332307.864        -990.012         -10.826          37.000                                                                                                                                  
C21  24880783.486      136899.445        3219.595          18.000                                                                                                                                  
C24  22407401.958      -82997.686        -861.884          38.000                                                                    22407394.138      -42746.280        -648.167          29.000  
C26  22315844.617       49456.561        1051.647          33.000                                                                                                                                  
C33  23512152.410     -148908.665       -1550.683          36.000                                                                    23512171.698       -2158.217       -1164.931          26.000  
C35  24769068.003      -94825.650       -1446.776          26.000                                                                                                                                  
> 2022  1 25  4  3  8.0000000  0 26                     
G 3  23523340.631     -115938.345       -1113.949          35.000    23523338.896      -61665.173        -831.255          23.000  
G16  22605037.372     -335359.424       -3321.647          15.000                                                                  
G26  20252587.329     -116258.063       -1149.202          31.000    20252582.820      -42732.878        -858.545          23.000  
G29  22561202.213        1785.176          -0.008          18.000                                                                  
G31  20649789.619       19235.914         192.507          27.000                                                                  
G32  20738700.983      171382.293        1650.993          27.000                                                                  
R 1  21241870.745                                          17.000  
R 2  19253838.398                                          35.000  
R 3  22257457.833                                          23.000  
R12  19936050.589                                          30.000  
R21  23348122.786                                          17.000  
R22  23547507.559                                          15.000  
E 2  23295369.091       47115.119         701.917          24.000                                                                  
E 7  26583106.486     -223448.973       -2661.026          32.000    26583107.761      -19897.018       -1988.667          23.000  
E 8  23301850.171      -30046.565        -752.031          33.000                                                                  
E30  24572718.028     -109163.270       -1576.033          30.000                                                                  
J 2  38678762.918       52403.590         517.178          24.000    38678759.996       27148.747         386.350          20.000  
C 6  35883100.004      -31611.789        -542.396          27.000                                                                                                                                  
C 9  36661136.959      -42425.639        -730.858          28.000                                                                                                                                  
C10  37920556.987      -32890.127        -964.295          17.000                                                                                                                                  
C14  22332305.831       -1045.234          -9.826          37.000                                                                                                                                  
C21  24881401.808      153665.540        3218.874          18.000                                                                                                                                  
C24  22407236.574      -87483.807        -860.818          39.000                                                                    22407228.649      -45294.526        -649.086          26.000  
C26  22316049.761       54934.755        1053.087          30.000                                                                                                                                  
C33  23511855.651     -156979.294       -1548.882          35.000                                                                                                                                  
C35  24768791.238     -102347.683       -1443.096          30.000                                                                                                                                  
> 2022  1 25  4  3  9.0000000  0 26                     
G 3  23523129.680     -121792.384       -1113.215          35.000    23523126.750      -64933.497        -831.264          21.000  
G16  22604418.299     -352806.159       -3320.918          12.000                                                                  
G26  20252368.478     -122298.269       -1150.661          34.000    20252365.347      -46085.933        -852.368          20.000  
G29  22561219.488        1909.440          22.916          20.000                                                                  
G31  20649824.842       20252.902         192.433          31.000                                                                  
G32  20739015.879      180059.084        1650.734          26.000                                                                  
R 1  21242596.918                                          19.000  
R 2  19253751.060                                          29.000  
R 3  22256755.838                                          19.000  
R12  19936205.398                                          29.000  
R21  23347869.740                                          17.000  
R22  23546908.022                                          15.000  
E 2  23295502.411       50804.781         701.880          26.000                                                                  
E 7  26582600.578     -237434.415       -2661.259          32.000    26582601.897      -27690.147       -1984.369          21.000  
E 8  23301707.001      -33999.378        -752.568          31.000                                                                  
E30  24572419.045     -117445.490       -1576.455          30.000                                                                  
J 2  38678860.888       55121.530         518.217          26.000    38678858.271       28662.334         383.528          19.000  
C 6  35882996.317      -34436.079        -541.274          26.000                                                                                                                                  
C 9  36660997.498      -46223.178        -729.228          25.000                                                                                                                                  
C10  37920385.804      -37910.976        -965.721          20.000                                                                                                                                  
C14  22332303.964       -1098.558         -10.958          34.000                                                                                                                                  
C21  24882020.000      170425.085        3218.005          17.000                                                                                                                                  
C24  22407071.342      -91969.895        -861.749          39.000                                                                    22407063.051      -47842.699        -649.776          25.000  
C26  22316252.707       60413.336        1051.015          30.000                                                                                                                                  
C33  23511557.986     -165048.106       -1548.815          37.000                                                                                                                                  
C35  24768514.472     -109854.292       -1443.657          24.000                                                                                                                                  
> 2022  1 25  4  3 10.0000000  0 24                     
G 3  23522916.129     -127667.504       -1118.147          34.000    23522913.836      -68208.103        -835.402          20.000  
G26  20252150.271     -128359.920       -1153.446          33.000    20252146.835      -49446.708        -861.836          20.000  
G29  22561221.679        2031.559          23.022          17.000                                                                  
G31  20649860.257       21247.105         187.852          27.000                                                                  
G32  20739327.634      188730.670        1647.885          27.000                                                                  
R 1  21243304.228                                          17.000  
R 2  19253663.905                                          34.000  
R12  19936406.617                                          28.000  
R21  23347601.164                                          17.000  
R22  23546307.407                                          17.000  
E 2  23295634.745       54474.927         697.630          21.000                                                                  
E 7  26582093.728     -251439.845       -2666.369          30.000    26582094.244      -35502.034       -1990.889          21.000  
E 8  23301563.107      -37970.675        -756.860          32.000                                                                  
E30  24572117.829     -125747.373       -1581.061          30.000                                                                  
J 2  38678959.861       57822.767         510.584          26.000    38678955.246       30162.562         378.929          19.000  
C 6  35882890.656      -37279.538        -549.023          26.000                                                                                                                                  
C 9  36660858.516      -50045.110        -735.575          31.000                                                                                                                                  
C10  37920199.671      -42959.420        -971.794          17.000                                                                                                                                  
C14  22332301.704       -1170.395         -13.927          34.000                                                                                                                                  
C21  24882637.641      187176.232        3215.831          17.000                                                                                                                                  
C24  22406904.195      -96477.186        -865.947          39.000                                                                    22406896.855      -50401.910        -652.336          25.000  
C26  22316455.034       65887.587        1051.792          19.000                                                                                                                                  
C33  23511259.691     -173137.172       -1553.613          35.000                                                                                                                                  
C35  24768236.734     -117377.296       -1446.107          29.000                                                                                                                                  
> 2022  1 25  4  3 11.0000000  0 25                     
G 3  23522704.171     -133532.652       -1114.614          34.000    23522701.590      -71483.780        -832.804          20.000  
G26  20251930.708     -134413.368       -1150.004          32.000    20251926.818      -52823.170        -859.171          20.000  
G29  22561226.059        2150.244          22.009          17.000                                                                  
G31  20649898.155       22236.988         188.615          28.000                                                                  
