$GPGGA,053222.000,3115.563261,N,12137.065362,E,1,19,0.8,56.1,M,,M,,*75
$GPRMC,053222.000,A,3115.563261,N,12137.065362,E,1.4,237.64326634,200122,,E,A*1A
$GPGGA,053223.000,3115.562758,N,12137.065457,E,1,19,0.8,63.0,M,,M,,*7C
$GPRMC,053223.000,A,3115.562758,N,12137.065457,E,0.4,230.90072207900002,200122,,E,A*14
$GPGGA,053224.000,3115.562274,N,12137.066084,E,1,19,0.8,67.9,M,,M,,*74
$GPRMC,053224.000,A,3115.562274,N,12137.066084,E,0.7,221.48215065,200122,,E,A*19
$GPGGA,053225.000,3115.561888,N,12137.066416,E,1,19,0.8,71.1,M,,M,,*7F
$GPRMC,053225.000,A,3115.561888,N,12137.066416,E,0.2,182.545577662,200122,,E,A*28
$GPGGA,053226.000,3115.561582,N,12137.066716,E,1,19,0.8,72.2,M,,M,,*78
$GPRMC,053226.000,A,3115.561582,N,12137.066716,E,0.4,92.500023575,200122,,E,A*19
$GPGGA,053227.000,3115.561187,N,12137.067041,E,1,19,0.8,73.8,M,,M,,*77
$GPRMC,053227.000,A,3115.561187,N,12137.067041,E,0.3,258.646316849,200122,,E,A*28
$GPGGA,053228.000,3115.560816,N,12137.067213,E,1,19,0.8,74.5,M,,M,,*77
$GPRMC,053228.000,A,3115.560816,N,12137.067213,E,0.3,92.160754415,200122,,E,A*12
$GPGGA,053229.000,3115.560564,N,12137.067300,E,1,19,0.8,75.5,M,,M,,*7C
$GPRMC,053229.000,A,3115.560564,N,12137.067300,E,0.0,134.35924820399998,200122,,E,A*1F
$GPGGA,053230.000,3115.560286,N,12137.067344,E,1,19,0.8,77.6,M,,M,,*7E
$GPRMC,053230.000,A,3115.560286,N,12137.067344,E,0.1,143.54892633,200122,,E,A*11
$GPGGA,053231.000,3115.560243,N,12137.067263,E,1,19,0.8,77.7,M,,M,,*73
$GPRMC,053231.000,A,3115.560243,N,12137.067263,E,0.1,56.723123455,200122,,E,A*1E
$GPGGA,053232.000,3115.560657,N,12137.067791,E,1,19,0.8,75.9,M,,M,,*75
$GPRMC,053232.000,A,3115.560657,N,12137.067791,E,0.4,61.799190331999995,200122,,E,A*15
$GPGGA,053233.000,3115.560906,N,12137.067773,E,1,19,0.8,76.2,M,,M,,*7B
$GPRMC,053233.000,A,3115.560906,N,12137.067773,E,0.5,158.772584884,200122,,E,A*24
$GPGGA,053234.000,3115.561285,N,12137.068148,E,1,19,0.8,75.3,M,,M,,*7E
$GPRMC,053234.000,A,3115.561285,N,12137.068148,E,0.5,323.568303856,200122,,E,A*22
$GPGGA,053235.000,3115.562539,N,12137.066630,E,1,19,0.8,95.8,M,,M,,*7F
$GPRMC,053235.000,A,3115.562539,N,12137.066630,E,0.4,353.305991623,200122,,E,A*20
$GPGGA,053236.000,3115.562605,N,12137.066651,E,1,19,0.8,96.0,M,,M,,*7C
$GPRMC,053236.000,A,3115.562605,N,12137.066651,E,0.3,164.88758501799998,200122,,E,A*18
$GPGGA,053237.000,3115.562654,N,12137.066420,E,1,19,0.8,99.3,M,,M,,*71
$GPRMC,053237.000,A,3115.562654,N,12137.066420,E,0.2,203.861573782,200122,,E,A*28
$GPGGA,053238.000,3115.562498,N,12137.065846,E,1,19,0.8,107.9,M,,M,,*4F
$GPRMC,053238.000,A,3115.562498,N,12137.065846,E,0.1,219.558168301,200122,,E,A*24
$GPGGA,053239.000,3115.561500,N,12137.065705,E,1,19,0.8,113.3,M,,M,,*4A
$GPRMC,053239.000,A,3115.561500,N,12137.065705,E,0.1,202.325368597,200122,,E,A*23
$GPGGA,053240.000,3115.560530,N,12137.066429,E,1,19,0.8,113.0,M,,M,,*4B
$GPRMC,053240.000,A,3115.560530,N,12137.066429,E,0.1,201.15482442400003,200122,,E,A*1F
$GPGGA,053241.000,3115.560208,N,12137.066515,E,1,19,0.8,114.0,M,,M,,*4F
$GPRMC,053241.000,A,3115.560208,N,12137.066515,E,0.1,219.635062572,200122,,E,A*2E
$GPGGA,053242.000,3115.560676,N,12137.066764,E,1,19,0.8,115.7,M,,M,,*43
$GPRMC,053242.000,A,3115.560676,N,12137.066764,E,0.2,202.94113747900002,200122,,E,A*18
$GPGGA,053243.000,3115.560658,N,12137.067008,E,1,19,0.8,117.9,M,,M,,*4E
$GPRMC,053243.000,A,3115.560658,N,12137.067008,E,0.1,225.262073004,200122,,E,A*28
$GPGGA,053244.000,3115.560743,N,12137.067338,E,1,19,0.8,118.6,M,,M,,*42
$GPRMC,053244.000,A,3115.560743,N,12137.067338,E,0.4,232.322357669,200122,,E,A*2A
$GPGGA,053245.000,3115.560785,N,12137.067479,E,1,19,0.8,118.5,M,,M,,*48
$GPRMC,053245.000,A,3115.560785,N,12137.067479,E,0.4,145.393569201,200122,,E,A*2B
$GPGGA,053246.000,3115.573359,N,12137.059589,E,1,19,0.8,88.2,M,,M,,*70
$GPRMC,053246.000,A,3115.573359,N,12137.059589,E,0.5,155.389414564,200122,,E,A*28
$GPGGA,053247.000,3115.574503,N,12137.060022,E,1,19,0.8,84.6,M,,M,,*79
$GPRMC,053247.000,A,3115.574503,N,12137.060022,E,0.9,189.192731501,200122,,E,A*2B
$GPGGA,053248.000,3115.578913,N,12137.059872,E,1,19,0.8,77.1,M,,M,,*7B
$GPRMC,053248.000,A,3115.578913,N,12137.059872,E,1.1,166.88529243,200122,,E,A*1A
$GPGGA,053249.000,3115.578832,N,12137.059833,E,1,19,0.8,77.0,M,,M,,*7C
$GPRMC,053249.000,A,3115.578832,N,12137.059833,E,0.5,54.494900571,200122,,E,A*11
$GPGGA,053250.000,3115.578677,N,12137.059722,E,1,19,0.8,77.2,M,,M,,*76
$GPRMC,053250.000,A,3115.578677,N,12137.059722,E,0.7,57.545191373,200122,,E,A*11
$GPGGA,053251.000,3115.578567,N,12137.059499,E,1,19,0.8,77.1,M,,M,,*75
$GPRMC,053251.000,A,3115.578567,N,12137.059499,E,0.3,49.294158833999994,200122,,E,A*16
$GPGGA,053252.000,3115.578576,N,12137.059564,E,1,19,0.8,77.1,M,,M,,*75
$GPRMC,053252.000,A,3115.578576,N,12137.059564,E,0.3,53.172760347,200122,,E,A*1E
$GPGGA,053253.000,3115.578512,N,12137.059487,E,1,19,0.8,77.9,M,,M,,*72
$GPRMC,053253.000,A,3115.578512,N,12137.059487,E,0.3,210.974164037,200122,,E,A*2C
$GPGGA,053254.000,3115.578832,N,12137.059800,E,1,19,0.8,77.8,M,,M,,*78
$GPRMC,053254.000,A,3115.578832,N,12137.059800,E,0.8,298.782339371,200122,,E,A*20
$GPGGA,053255.000,3115.578928,N,12137.059699,E,1,19,0.8,78.0,M,,M,,*7A
$GPRMC,053255.000,A,3115.578928,N,12137.059699,E,0.6,280.162232608,200122,,E,A*2B
$GPGGA,053256.000,3115.578790,N,12137.059839,E,1,19,0.8,78.3,M,,M,,*73
$GPRMC,053256.000,A,3115.578790,N,12137.059839,E,0.4,298.09713478599997,200122,,E,A*17
$GPGGA,053257.000,3115.578776,N,12137.059702,E,1,19,0.8,78.3,M,,M,,*7D
$GPRMC,053257.000,A,3115.578776,N,12137.059702,E,0.1,306.784070002,200122,,E,A*21
$GPGGA,053258.000,3115.578674,N,12137.059503,E,1,19,0.8,77.6,M,,M,,*78
$GPRMC,053258.000,A,3115.578674,N,12137.059503,E,0.3,1.8736500440000001,200122,,E,A*18
$GPGGA,053259.000,3115.578629,N,12137.059318,E,1,19,0.8,76.7,M,,M,,*7D
$GPRMC,053259.000,A,3115.578629,N,12137.059318,E,0.4,330.86289133400004,200122,,E,A*19
$GPGGA,053300.000,3115.578574,N,12137.059981,E,1,19,0.8,74.8,M,,M,,*7C
$GPRMC,053300.000,A,3115.578574,N,12137.059981,E,0.4,54.734551421000006,200122,,E,A*18
$GPGGA,053301.000,3115.578329,N,12137.060861,E,1,19,0.8,72.1,M,,M,,*79
$GPRMC,053301.000,A,3115.578329,N,12137.060861,E,1.5,98.386062105,200122,,E,A*1F
$GPGGA,053302.000,3115.578284,N,12137.061261,E,1,19,0.8,71.1,M,,M,,*74
$GPRMC,053302.000,A,3115.578284,N,12137.061261,E,0.6,107.15741846,200122,,E,A*15
$GPGGA,053303.000,3115.578169,N,12137.061393,E,1,19,0.8,70.0,M,,M,,*79
$GPRMC,053303.000,A,3115.578169,N,12137.061393,E,0.6,104.05243491700001,200122,,E,A*1D
$GPGGA,053304.000,3115.578016,N,12137.061592,E,1,19,0.8,70.0,M,,M,,*70
$GPRMC,053304.000,A,3115.578016,N,12137.061592,E,0.7,104.67730844100001,200122,,E,A*12
$GPGGA,053305.000,3115.577797,N,12137.061409,E,1,19,0.8,69.2,M,,M,,*79
$GPRMC,053305.000,A,3115.577797,N,12137.061409,E,0.5,153.857143568,200122,,E,A*2B
$GPGGA,053306.000,3115.579814,N,12137.060769,E,1,19,0.8,43.1,M,,M,,*7F
$GPRMC,053306.000,A,3115.579814,N,12137.060769,E,0.3,169.168378809,200122,,E,A*2C
$GPGGA,053307.000,3115.580095,N,12137.060415,E,1,19,0.8,36.9,M,,M,,*7B
$GPRMC,053307.000,A,3115.580095,N,12137.060415,E,0.5,100.467589599,200122,,E,A*2D
$GPGGA,053308.000,3115.580045,N,12137.060609,E,1,19,0.8,33.7,M,,M,,*7D
$GPRMC,053308.000,A,3115.580045,N,12137.060609,E,0.3,151.163890664,200122,,E,A*27
$GPGGA,053309.000,3115.580272,N,12137.060455,E,1,19,0.8,33.3,M,,M,,*75
$GPRMC,053309.000,A,3115.580272,N,12137.060455,E,0.3,350.51523093699996,200122,,E,A*13
$GPGGA,053310.000,3115.580919,N,12137.060086,E,1,19,0.8,30.5,M,,M,,*74
$GPRMC,053310.000,A,3115.580919,N,12137.060086,E,0.7,298.281795782,200122,,E,A*21
$GPGGA,053311.000,3115.580563,N,12137.060539,E,1,19,0.8,29.3,M,,M,,*7B
$GPRMC,053311.000,A,3115.580563,N,12137.060539,E,0.4,138.628867805,200122,,E,A*2F
$GPGGA,053312.000,3115.580676,N,12137.060373,E,1,19,0.8,27.9,M,,M,,*73
$GPRMC,053312.000,A,3115.580676,N,12137.060373,E,0.3,150.899343774,200122,,E,A*2A
$GPGGA,053313.000,3115.580765,N,12137.060241,E,1,19,0.8,27.4,M,,M,,*7C
$GPRMC,053313.000,A,3115.580765,N,12137.060241,E,0.2,206.758762477,200122,,E,A*2C
$GPGGA,053314.000,3115.580800,N,12137.060052,E,1,19,0.8,26.7,M,,M,,*75
$GPRMC,053314.000,A,3115.580800,N,12137.060052,E,0.1,121.17935985700001,200122,,E,A*14
$GPGGA,053315.000,3115.580958,N,12137.059919,E,1,19,0.8,26.2,M,,M,,*71
$GPRMC,053315.000,A,3115.580958,N,12137.059919,E,0.4,326.555118295,200122,,E,A*2D
$GPGGA,053316.000,3115.581024,N,12137.059746,E,1,19,0.8,25.8,M,,M,,*7C
$GPRMC,053316.000,A,3115.581024,N,12137.059746,E,0.3,298.096806936,200122,,E,A*24
$GPGGA,053317.000,3115.581283,N,12137.059949,E,1,19,0.8,23.7,M,,M,,*7A
$GPRMC,053317.000,A,3115.581283,N,12137.059949,E,0.4,221.45980227099997,200122,,E,A*13
$GPGGA,053318.000,3115.581336,N,12137.059939,E,1,19,0.8,23.3,M,,M,,*79
$GPRMC,053318.000,A,3115.581336,N,12137.059939,E,0.3,320.171077007,200122,,E,A*23
$GPGGA,053319.000,3115.581609,N,12137.059992,E,1,19,0.8,23.3,M,,M,,*70
$GPRMC,053319.000,A,3115.581609,N,12137.059992,E,0.4,10.621209807,200122,,E,A*1C
$GPGGA,053320.000,3115.581706,N,12137.059961,E,1,19,0.8,23.2,M,,M,,*79
$GPRMC,053320.000,A,3115.581706,N,12137.059961,E,0.4,89.62758748600001,200122,,E,A*27
$GPGGA,053321.000,3115.581884,N,12137.059826,E,1,19,0.8,23.5,M,,M,,*78
$GPRMC,053321.000,A,3115.581884,N,12137.059826,E,0.4,27.653971196999997,200122,,E,A*18
$GPGGA,053322.000,3115.581878,N,12137.059897,E,1,19,0.8,22.4,M,,M,,*72
$GPRMC,053322.000,A,3115.581878,N,12137.059897,E,0.4,333.248867684,200122,,E,A*26
$GPGGA,053323.000,3115.581658,N,12137.059820,E,1,19,0.8,22.1,M,,M,,*76
$GPRMC,053323.000,A,3115.581658,N,12137.059820,E,0.3,283.012579865,200122,,E,A*24
$GPGGA,053324.000,3115.581688,N,12137.059721,E,1,19,0.8,22.3,M,,M,,*70
$GPRMC,053324.000,A,3115.581688,N,12137.059721,E,0.3,279.537680103,200122,,E,A*2B
$GPGGA,053325.000,3115.581619,N,12137.059858,E,1,19,0.8,22.2,M,,M,,*79
$GPRMC,053325.000,A,3115.581619,N,12137.059858,E,0.0,243.09050619099997,200122,,E,A*11
$GPGGA,053326.000,3115.581927,N,12137.059533,E,1,19,0.8,23.4,M,,M,,*7F
$GPRMC,053326.000,A,3115.581927,N,12137.059533,E,0.6,237.516935159,200122,,E,A*20
$GPGGA,053327.000,3115.582055,N,12137.059488,E,1,19,0.8,23.7,M,,M,,*73
$GPRMC,053327.000,A,3115.582055,N,12137.059488,E,0.5,355.11937954800004,200122,,E,A*10
$GPGGA,053328.000,3115.582293,N,12137.059394,E,1,19,0.8,24.9,M,,M,,*77
$GPRMC,053328.000,A,3115.582293,N,12137.059394,E,0.5,6.388240147,200122,,E,A*26
$GPGGA,053329.000,3115.582460,N,12137.059404,E,1,19,0.8,25.2,M,,M,,*78
$GPRMC,053329.000,A,3115.582460,N,12137.059404,E,0.5,348.583571455,200122,,E,A*24
$GPGGA,053330.000,3115.582773,N,12137.059574,E,1,19,0.8,24.7,M,,M,,*73
$GPRMC,053330.000,A,3115.582773,N,12137.059574,E,0.6,13.114320237000001,200122,,E,A*1E
$GPGGA,053331.000,3115.582907,N,12137.059394,E,1,19,0.8,25.3,M,,M,,*72
$GPRMC,053331.000,A,3115.582907,N,12137.059394,E,0.4,40.748137253,200122,,E,A*16
$GPGGA,053332.000,3115.582988,N,12137.059216,E,1,19,0.8,25.7,M,,M,,*79
$GPRMC,053332.000,A,3115.582988,N,12137.059216,E,0.3,258.546541444,200122,,E,A*2C
$GPGGA,053333.000,3115.582895,N,12137.059447,E,1,19,0.8,24.5,M,,M,,*74
$GPRMC,053333.000,A,3115.582895,N,12137.059447,E,0.3,278.116399683,200122,,E,A*2B
$GPGGA,053334.000,3115.582997,N,12137.059452,E,1,19,0.8,24.5,M,,M,,*74
$GPRMC,053334.000,A,3115.582997,N,12137.059452,E,0.3,315.226238556,200122,,E,A*20
$GPGGA,053335.000,3115.582884,N,12137.059473,E,1,19,0.8,24.1,M,,M,,*71
$GPRMC,053335.000,A,3115.582884,N,12137.059473,E,0.1,332.452768146,200122,,E,A*26
$GPGGA,053336.000,3115.582715,N,12137.059304,E,1,19,0.8,24.2,M,,M,,*71
$GPRMC,053336.000,A,3115.582715,N,12137.059304,E,0.2,316.307949288,200122,,E,A*2B
$GPGGA,053337.000,3115.582754,N,12137.059115,E,1,19,0.8,24.4,M,,M,,*71
$GPRMC,053337.000,A,3115.582754,N,12137.059115,E,0.3,314.84311958,200122,,E,A*17
$GPGGA,053338.000,3115.582877,N,12137.059171,E,1,19,0.8,24.7,M,,M,,*71
$GPRMC,053338.000,A,3115.582877,N,12137.059171,E,0.1,328.615950316,200122,,E,A*28
$GPGGA,053339.000,3115.582084,N,12137.059585,E,1,19,0.8,26.0,M,,M,,*7E
$GPRMC,053339.000,A,3115.582084,N,12137.059585,E,0.3,164.816346144,200122,,E,A*2F
$GPGGA,053340.000,3115.581942,N,12137.059496,E,1,19,0.8,26.1,M,,M,,*72
$GPRMC,053340.000,A,3115.581942,N,12137.059496,E,0.4,153.909968252,200122,,E,A*2C
$GPGGA,053341.000,3115.581389,N,12137.059822,E,1,19,0.8,27.3,M,,M,,*7E
$GPRMC,053341.000,A,3115.581389,N,12137.059822,E,0.7,170.678847841,200122,,E,A*2C
$GPGGA,053342.000,3115.581254,N,12137.060074,E,1,19,0.8,26.7,M,,M,,*78
$GPRMC,053342.000,A,3115.581254,N,12137.060074,E,0.5,135.38518361,200122,,E,A*10
$GPGGA,053343.000,3115.581152,N,12137.060475,E,1,19,0.8,26.5,M,,M,,*7B
$GPRMC,053343.000,A,3115.581152,N,12137.060475,E,0.5,124.002440999,200122,,E,A*29
$GPGGA,053344.000,3115.580973,N,12137.060752,E,1,19,0.8,27.9,M,,M,,*7D
$GPRMC,053344.000,A,3115.580973,N,12137.060752,E,0.6,122.67280805799999,200122,,E,A*14
$GPGGA,053345.000,3115.580316,N,12137.061195,E,1,19,0.8,28.9,M,,M,,*76
$GPRMC,053345.000,A,3115.580316,N,12137.061195,E,1.0,168.265468771,200122,,E,A*2B
$GPGGA,053346.000,3115.579600,N,12137.061884,E,1,19,0.8,29.1,M,,M,,*71
$GPRMC,053346.000,A,3115.579600,N,12137.061884,E,1.7,109.793775888,200122,,E,A*2F
$GPGGA,053347.000,3115.579136,N,12137.061668,E,1,19,0.8,29.0,M,,M,,*7F
$GPRMC,053347.000,A,3115.579136,N,12137.061668,E,1.8,215.54504962599998,200122,,E,A*11
$GPGGA,053348.000,3115.579331,N,12137.061310,E,1,19,0.8,28.5,M,,M,,*7B
$GPRMC,053348.000,A,3115.579331,N,12137.061310,E,0.7,252.112066039,200122,,E,A*24
$GPGGA,053349.000,3115.579459,N,12137.060933,E,1,19,0.8,28.8,M,,M,,*74
$GPRMC,053349.000,A,3115.579459,N,12137.060933,E,0.5,280.73943824099996,200122,,E,A*11
$GPGGA,053350.000,3115.579481,N,12137.060784,E,1,19,0.8,28.9,M,,M,,*7A
$GPRMC,053350.000,A,3115.579481,N,12137.060784,E,0.5,330.617441653,200122,,E,A*27
$GPGGA,053351.000,3115.579500,N,12137.060589,E,1,19,0.8,28.7,M,,M,,*72
$GPRMC,053351.000,A,3115.579500,N,12137.060589,E,0.5,330.025182282,200122,,E,A*24
$GPGGA,053352.000,3115.579571,N,12137.060597,E,1,19,0.8,28.8,M,,M,,*77
$GPRMC,053352.000,A,3115.579571,N,12137.060597,E,0.3,113.410005925,200122,,E,A*21
$GPGGA,053353.000,3115.579509,N,12137.060516,E,1,19,0.8,28.9,M,,M,,*71
$GPRMC,053353.000,A,3115.579509,N,12137.060516,E,0.3,115.348481936,200122,,E,A*20
$GPGGA,053354.000,3115.579420,N,12137.060504,E,1,19,0.8,28.4,M,,M,,*72
$GPRMC,053354.000,A,3115.579420,N,12137.060504,E,0.3,137.95038412600002,200122,,E,A*14
$GPGGA,053355.000,3115.579353,N,12137.060430,E,1,19,0.8,28.5,M,,M,,*77
$GPRMC,053355.000,A,3115.579353,N,12137.060430,E,0.3,149.639761253,200122,,E,A*25
$GPGGA,053356.000,3115.579228,N,12137.060497,E,1,19,0.8,28.9,M,,M,,*78
$GPRMC,053356.000,A,3115.579228,N,12137.060497,E,0.3,181.72264914099998,200122,,E,A*1B
$GPGGA,053357.000,3115.579332,N,12137.060193,E,1,19,0.8,29.0,M,,M,,*7A
$GPRMC,053357.000,A,3115.579332,N,12137.060193,E,0.3,50.52632156,200122,,E,A*2F
$GPGGA,053358.000,3115.579528,N,12137.061011,E,1,19,0.8,27.7,M,,M,,*7B
$GPRMC,053358.000,A,3115.579528,N,12137.061011,E,0.0,317.387447038,200122,,E,A*26
$GPGGA,053359.000,3115.579678,N,12137.061544,E,1,19,0.8,26.4,M,,M,,*7B
$GPRMC,053359.000,A,3115.579678,N,12137.061544,E,0.2,25.837600186,200122,,E,A*11
$GPGGA,053400.000,3115.580537,N,12137.062558,E,1,19,0.8,24.0,M,,M,,*76
$GPRMC,053400.000,A,3115.580537,N,12137.062558,E,0.2,228.976739729,200122,,E,A*29
$GPGGA,053401.000,3115.580550,N,12137.062478,E,1,19,0.8,24.0,M,,M,,*75
$GPRMC,053401.000,A,3115.580550,N,12137.062478,E,0.1,176.050723384,200122,,E,A*24
$GPGGA,053402.000,3115.580893,N,12137.062143,E,1,19,0.8,24.4,M,,M,,*7D
$GPRMC,053402.000,A,3115.580893,N,12137.062143,E,0.2,209.228408646,200122,,E,A*2C
$GPGGA,053403.000,3115.580886,N,12137.062128,E,1,19,0.8,24.4,M,,M,,*75
$GPRMC,053403.000,A,3115.580886,N,12137.062128,E,0.1,210.084463585,200122,,E,A*2A
$GPGGA,053404.000,3115.580876,N,12137.062116,E,1,19,0.8,24.5,M,,M,,*71
$GPRMC,053404.000,A,3115.580876,N,12137.062116,E,0.0,91.129416329,200122,,E,A*11
$GPGGA,053405.000,3115.580878,N,12137.062102,E,1,19,0.8,24.6,M,,M,,*78
$GPRMC,053405.000,A,3115.580878,N,12137.062102,E,0.0,150.802040898,200122,,E,A*21
$GPGGA,053406.000,3115.580876,N,12137.062099,E,1,19,0.8,24.6,M,,M,,*76
$GPRMC,053406.000,A,3115.580876,N,12137.062099,E,0.0,326.774941105,200122,,E,A*27
$GPGGA,053407.000,3115.580860,N,12137.062199,E,1,19,0.8,24.5,M,,M,,*72
$GPRMC,053407.000,A,3115.580860,N,12137.062199,E,0.1,348.90251397199995,200122,,E,A*13
$GPGGA,053408.000,3115.580852,N,12137.062205,E,1,19,0.8,24.4,M,,M,,*7B
$GPRMC,053408.000,A,3115.580852,N,12137.062205,E,0.1,283.764009966,200122,,E,A*2E
$GPGGA,053409.000,3115.580882,N,12137.061931,E,1,19,0.8,24.6,M,,M,,*7A
$GPRMC,053409.000,A,3115.580882,N,12137.061931,E,0.1,248.64823118400002,200122,,E,A*1A
$GPGGA,053410.000,3115.580893,N,12137.061706,E,1,19,0.8,24.7,M,,M,,*79
$GPRMC,053410.000,A,3115.580893,N,12137.061706,E,0.2,24.192190521,200122,,E,A*12
$GPGGA,053411.000,3115.580884,N,12137.061362,E,1,19,0.8,24.3,M,,M,,*7C
$GPRMC,053411.000,A,3115.580884,N,12137.061362,E,0.3,335.667082527,200122,,E,A*28
$GPGGA,053412.000,3115.580848,N,12137.060859,E,1,19,0.8,23.8,M,,M,,*71
$GPRMC,053412.000,A,3115.580848,N,12137.060859,E,0.4,340.213775586,200122,,E,A*2F
$GPGGA,053413.000,3115.581649,N,12137.060124,E,1,19,0.8,23.9,M,,M,,*7C
$GPRMC,053413.000,A,3115.581649,N,12137.060124,E,0.8,309.625182843,200122,,E,A*29
$GPGGA,053414.000,3115.581792,N,12137.059493,E,1,19,0.8,24.2,M,,M,,*73
$GPRMC,053414.000,A,3115.581792,N,12137.059493,E,1.0,274.177620788,200122,,E,A*2F
$GPGGA,053415.000,3115.580571,N,12137.056938,E,1,19,0.8,29.3,M,,M,,*73
$GPRMC,053415.000,A,3115.580571,N,12137.056938,E,1.3,245.173713912,200122,,E,A*2A
$GPGGA,053416.000,3115.579329,N,12137.056287,E,1,19,0.8,31.1,M,,M,,*79
$GPRMC,053416.000,A,3115.579329,N,12137.056287,E,1.7,242.061770407,200122,,E,A*26
$GPGGA,053417.000,3115.578293,N,12137.055468,E,1,19,0.8,33.5,M,,M,,*7B
$GPRMC,053417.000,A,3115.578293,N,12137.055468,E,2.1,242.131984752,200122,,E,A*25
$GPGGA,053418.000,3115.577641,N,12137.055094,E,1,19,0.8,34.2,M,,M,,*77
$GPRMC,053418.000,A,3115.577641,N,12137.055094,E,2.0,243.445539428,200122,,E,A*2B
$GPGGA,053419.000,3115.577211,N,12137.054817,E,1,19,0.8,34.4,M,,M,,*73
$GPRMC,053419.000,A,3115.577211,N,12137.054817,E,1.8,241.237639772,200122,,E,A*2C
$GPGGA,053420.000,3115.576975,N,12137.053976,E,1,19,0.8,35.1,M,,M,,*74
$GPRMC,053420.000,A,3115.576975,N,12137.053976,E,2.1,242.707605782,200122,,E,A*20
$GPGGA,053421.000,3115.576587,N,12137.053365,E,1,19,0.8,35.4,M,,M,,*79
$GPRMC,053421.000,A,3115.576587,N,12137.053365,E,2.2,243.530370379,200122,,E,A*2B
$GPGGA,053422.000,3115.575889,N,12137.052748,E,1,19,0.8,36.0,M,,M,,*77
$GPRMC,053422.000,A,3115.575889,N,12137.052748,E,2.4,236.981257077,200122,,E,A*29
$GPGGA,053423.000,3115.575259,N,12137.052161,E,1,19,0.8,35.9,M,,M,,*76
$GPRMC,053423.000,A,3115.575259,N,12137.052161,E,2.6,237.671133512,200122,,E,A*26
$GPGGA,053424.000,3115.574700,N,12137.051626,E,1,19,0.8,35.7,M,,M,,*70
$GPRMC,053424.000,A,3115.574700,N,12137.051626,E,2.6,242.694027365,200122,,E,A*25
$GPGGA,053425.000,3115.573934,N,12137.051019,E,1,19,0.8,35.8,M,,M,,*7A
$GPRMC,053425.000,A,3115.573934,N,12137.051019,E,2.7,228.731317369,200122,,E,A*2F
$GPGGA,053426.000,3115.573312,N,12137.050045,E,1,19,0.8,36.2,M,,M,,*76
$GPRMC,053426.000,A,3115.573312,N,12137.050045,E,3.1,-130.73601393,200122,,E,A*3C
$GPGGA,053427.000,3115.572618,N,12137.049219,E,1,19,0.8,36.5,M,,M,,*7D
$GPRMC,053427.000,A,3115.572618,N,12137.049219,E,3.4,-127.775668791,200122,,E,A*0B
$GPGGA,053428.000,3115.572151,N,12137.048261,E,1,19,0.8,36.5,M,,M,,*76
$GPRMC,053428.000,A,3115.572151,N,12137.048261,E,3.5,-125.470986815,200122,,E,A*09
$GPGGA,053429.000,3115.571859,N,12137.046773,E,1,19,0.8,36.4,M,,M,,*7C
$GPRMC,053429.000,A,3115.571859,N,12137.046773,E,4.1,-117.80130273,200122,,E,A*34
$GPGGA,053430.000,3115.572385,N,12137.045597,E,1,19,0.8,35.9,M,,M,,*78
$GPRMC,053430.000,A,3115.572385,N,12137.045597,E,3.6,-112.826057047,200122,,E,A*0A
$GPGGA,053431.000,3115.572155,N,12137.044648,E,1,19,0.8,35.3,M,,M,,*7C
$GPRMC,053431.000,A,3115.572155,N,12137.044648,E,3.7,-115.828018679,200122,,E,A*0C
$GPGGA,053432.000,3115.571612,N,12137.043877,E,1,19,0.8,35.2,M,,M,,*7C
$GPRMC,053432.000,A,3115.571612,N,12137.043877,E,3.5,-114.777795124,200122,,E,A*06
$GPGGA,053433.000,3115.571317,N,12137.042779,E,1,19,0.8,34.7,M,,M,,*79
$GPRMC,053433.000,A,3115.571317,N,12137.042779,E,3.5,-111.54631408,200122,,E,A*30
$GPGGA,053434.000,3115.571230,N,12137.042261,E,1,19,0.8,34.2,M,,M,,*73
$GPRMC,053434.000,A,3115.571230,N,12137.042261,E,3.4,-113.601944455,200122,,E,A*0F
$GPGGA,053435.000,3115.570802,N,12137.041413,E,1,19,0.8,34.0,M,,M,,*7A
$GPRMC,053435.000,A,3115.570802,N,12137.041413,E,3.3,-114.253856114,200122,,E,A*05
$GPGGA,053436.000,3115.570375,N,12137.040645,E,1,19,0.8,34.0,M,,M,,*72
$GPRMC,053436.000,A,3115.570375,N,12137.040645,E,3.2,-115.563240991,200122,,E,A*01
$GPGGA,053437.000,3115.570024,N,12137.039793,E,1,19,0.8,34.0,M,,M,,*70
$GPRMC,053437.000,A,3115.570024,N,12137.039793,E,3.1,-115.649859194,200122,,E,A*04
$GPGGA,053438.000,3115.569466,N,12137.039005,E,1,19,0.8,34.0,M,,M,,*7D
$GPRMC,053438.000,A,3115.569466,N,12137.039005,E,3.2,-120.068760661,200122,,E,A*01
$GPGGA,053439.000,3115.568492,N,12137.039253,E,1,19,0.8,34.5,M,,M,,*72
$GPRMC,053439.000,A,3115.568492,N,12137.039253,E,2.9,241.559696856,200122,,E,A*2D
$GPGGA,053440.000,3115.568397,N,12137.038377,E,1,19,0.8,34.4,M,,M,,*79
$GPRMC,053440.000,A,3115.568397,N,12137.038377,E,2.8,214.666291138,200122,,E,A*2B
$GPGGA,053441.000,3115.567642,N,12137.038180,E,1,19,0.8,35.6,M,,M,,*73
$GPRMC,053441.000,A,3115.567642,N,12137.038180,E,2.9,-128.739898976,200122,,E,A*08
$GPGGA,053442.000,3115.567606,N,12137.037104,E,1,19,0.8,35.4,M,,M,,*71
$GPRMC,053442.000,A,3115.567606,N,12137.037104,E,3.0,-115.636035194,200122,,E,A*0B
$GPGGA,053443.000,3115.568040,N,12137.037483,E,1,19,0.8,32.4,M,,M,,*76
$GPRMC,053443.000,A,3115.568040,N,12137.037483,E,3.1,-132.751540155,200122,,E,A*05
$GPGGA,053444.000,3115.568377,N,12137.037581,E,1,19,0.8,29.8,M,,M,,*73
$GPRMC,053444.000,A,3115.568377,N,12137.037581,E,2.7,233.528377845,200122,,E,A*28
$GPGGA,053445.000,3115.568493,N,12137.037693,E,1,19,0.8,28.6,M,,M,,*70
$GPRMC,053445.000,A,3115.568493,N,12137.037693,E,1.9,236.655566333,200122,,E,A*29
$GPGGA,053446.000,3115.568068,N,12137.036976,E,1,19,0.8,28.3,M,,M,,*73
$GPRMC,053446.000,A,3115.568068,N,12137.036976,E,3.1,-125.94101603700001,200122,,E,A*37
$GPGGA,053447.000,3115.568142,N,12137.036649,E,1,19,0.8,27.0,M,,M,,*74
$GPRMC,053447.000,A,3115.568142,N,12137.036649,E,2.4,243.664078163,200122,,E,A*27
$GPGGA,053448.000,3115.568368,N,12137.035782,E,1,19,0.8,24.3,M,,M,,*74
$GPRMC,053448.000,A,3115.568368,N,12137.035782,E,2.8,234.318903949,200122,,E,A*20
$GPGGA,053449.000,3115.568406,N,12137.035187,E,1,19,0.8,22.2,M,,M,,*7E
$GPRMC,053449.000,A,3115.568406,N,12137.035187,E,1.8,205.98442392200002,200122,,E,A*13
$GPGGA,053450.000,3115.568274,N,12137.034917,E,1,19,0.8,21.5,M,,M,,*71
$GPRMC,053450.000,A,3115.568274,N,12137.034917,E,2.3,215.27771601900002,200122,,E,A*12
$GPGGA,053451.000,3115.567963,N,12137.034273,E,1,19,0.8,21.5,M,,M,,*7B
$GPRMC,053451.000,A,3115.567963,N,12137.034273,E,2.3,219.80790734099998,200122,,E,A*12
$GPGGA,053452.000,3115.567069,N,12137.034117,E,1,19,0.8,21.6,M,,M,,*79
$GPRMC,053452.000,A,3115.567069,N,12137.034117,E,2.5,205.42093330900002,200122,,E,A*11
$GPGGA,053453.000,3115.566229,N,12137.033866,E,1,19,0.8,21.4,M,,M,,*75
$GPRMC,053453.000,A,3115.566229,N,12137.033866,E,3.4,-154.459512587,200122,,E,A*06
$GPGGA,053454.000,3115.565365,N,12137.033726,E,1,19,0.8,21.3,M,,M,,*74
$GPRMC,053454.000,A,3115.565365,N,12137.033726,E,4.2,-161.516436859,200122,,E,A*04
$GPGGA,053455.000,3115.564453,N,12137.033636,E,1,19,0.8,21.2,M,,M,,*77
$GPRMC,053455.000,A,3115.564453,N,12137.033636,E,3.5,-161.740853925,200122,,E,A*02
$GPGGA,053456.000,3115.563603,N,12137.033385,E,1,19,0.8,21.2,M,,M,,*79
$GPRMC,053456.000,A,3115.563603,N,12137.033385,E,3.5,-161.85702897,200122,,E,A*31
$GPGGA,053457.000,3115.562833,N,12137.033828,E,1,19,0.8,21.4,M,,M,,*7E
$GPRMC,053457.000,A,3115.562833,N,12137.033828,E,3.2,-166.783145755,200122,,E,A*05
$GPGGA,053458.000,3115.562026,N,12137.034119,E,1,19,0.8,21.3,M,,M,,*76
$GPRMC,053458.000,A,3115.562026,N,12137.034119,E,3.2,-171.089538432,200122,,E,A*0D
$GPGGA,053459.000,3115.561008,N,12137.032984,E,1,19,0.8,21.3,M,,M,,*72
$GPRMC,053459.000,A,3115.561008,N,12137.032984,E,3.5,-162.556336685,200122,,E,A*0D
$GPGGA,053500.000,3115.560081,N,12137.032064,E,1,19,0.8,21.2,M,,M,,*79
$GPRMC,053500.000,A,3115.560081,N,12137.032064,E,3.6,-157.376734629,200122,,E,A*06
$GPGGA,053501.000,3115.559150,N,12137.032337,E,1,19,0.8,21.1,M,,M,,*79
$GPRMC,053501.000,A,3115.559150,N,12137.032337,E,3.4,-164.82945272799998,200122,,E,A*32
$GPGGA,053502.000,3115.558749,N,12137.032569,E,1,19,0.8,21.1,M,,M,,*78
$GPRMC,053502.000,A,3115.558749,N,12137.032569,E,3.0,-170.000213265,200122,,E,A*09
$GPGGA,053503.000,3115.558218,N,12137.032154,E,1,19,0.8,20.7,M,,M,,*75
$GPRMC,053503.000,A,3115.558218,N,12137.032154,E,3.0,-166.035344358,200122,,E,A*0E
$GPGGA,053504.000,3115.557615,N,12137.031759,E,1,19,0.8,20.7,M,,M,,*7C
$GPRMC,053504.000,A,3115.557615,N,12137.031759,E,2.9,223.50291678099998,200122,,E,A*15
$GPGGA,053505.000,3115.557352,N,12137.031570,E,1,19,0.8,20.4,M,,M,,*71
$GPRMC,053505.000,A,3115.557352,N,12137.031570,E,2.5,201.68103586400002,200122,,E,A*18
$GPGGA,053506.000,3115.556935,N,12137.030634,E,1,19,0.8,20.2,M,,M,,*7C
$GPRMC,053506.000,A,3115.556935,N,12137.030634,E,2.6,201.546699702,200122,,E,A*25
$GPGGA,053507.000,3115.556752,N,12137.029678,E,1,19,0.8,20.0,M,,M,,*70
$GPRMC,053507.000,A,3115.556752,N,12137.029678,E,2.6,221.78430456200002,200122,,E,A*12
$GPGGA,053508.000,3115.557170,N,12137.028157,E,1,19,0.8,19.6,M,,M,,*7F
$GPRMC,053508.000,A,3115.557170,N,12137.028157,E,2.5,232.188076148,200122,,E,A*22
$GPGGA,053509.000,3115.557391,N,12137.026530,E,1,19,0.8,19.2,M,,M,,*7C
$GPRMC,053509.000,A,3115.557391,N,12137.026530,E,2.6,217.41781921700002,200122,,E,A*18
$GPGGA,053510.000,3115.557591,N,12137.025077,E,1,19,0.8,18.7,M,,M,,*73
$GPRMC,053510.000,A,3115.557591,N,12137.025077,E,2.7,200.92552131099998,200122,,E,A*12
$GPGGA,053511.000,3115.557845,N,12137.023936,E,1,19,0.8,18.4,M,,M,,*7F
$GPRMC,053511.000,A,3115.557845,N,12137.023936,E,2.6,202.36796165799998,200122,,E,A*1C
$GPGGA,053512.000,3115.557706,N,12137.023200,E,1,19,0.8,18.2,M,,M,,*7C
$GPRMC,053512.000,A,3115.557706,N,12137.023200,E,2.5,222.70961762099998,200122,,E,A*1A
$GPGGA,053513.000,3115.557891,N,12137.022437,E,1,19,0.8,17.8,M,,M,,*7A
$GPRMC,053513.000,A,3115.557891,N,12137.022437,E,2.3,211.82076599400003,200122,,E,A*14
$GPGGA,053514.000,3115.558055,N,12137.021772,E,1,19,0.8,17.7,M,,M,,*7C
$GPRMC,053514.000,A,3115.558055,N,12137.021772,E,2.1,215.24922046900002,200122,,E,A*14
$GPGGA,053515.000,3115.557907,N,12137.021237,E,1,19,0.8,17.4,M,,M,,*7B
$GPRMC,053515.000,A,3115.557907,N,12137.021237,E,2.0,228.13983664,200122,,E,A*1D
$GPGGA,053516.000,3115.557878,N,12137.020317,E,1,19,0.8,17.1,M,,M,,*76
$GPRMC,053516.000,A,3115.557878,N,12137.020317,E,2.0,236.792880457,200122,,E,A*24
$GPGGA,053517.000,3115.557823,N,12137.019221,E,1,19,0.8,16.8,M,,M,,*7F
$GPRMC,053517.000,A,3115.557823,N,12137.019221,E,2.2,241.663625015,200122,,E,A*2B
$GPGGA,053518.000,3115.557279,N,12137.018793,E,1,19,0.8,16.7,M,,M,,*77
$GPRMC,053518.000,A,3115.557279,N,12137.018793,E,2.2,230.01184125,200122,,E,A*16
$GPGGA,053519.000,3115.556962,N,12137.018191,E,1,19,0.8,16.5,M,,M,,*70
$GPRMC,053519.000,A,3115.556962,N,12137.018191,E,2.2,235.276906293,200122,,E,A*28
$GPGGA,053520.000,3115.556540,N,12137.017624,E,1,19,0.8,16.3,M,,M,,*76
$GPRMC,053520.000,A,3115.556540,N,12137.017624,E,2.2,258.704236854,200122,,E,A*2A
$GPGGA,053521.000,3115.556502,N,12137.016855,E,1,19,0.8,16.3,M,,M,,*78
$GPRMC,053521.000,A,3115.556502,N,12137.016855,E,2.2,242.92783840400003,200122,,E,A*1E
$GPGGA,053522.000,3115.556205,N,12137.016143,E,1,19,0.8,16.3,M,,M,,*75
$GPRMC,053522.000,A,3115.556205,N,12137.016143,E,2.2,252.820356664,200122,,E,A*20
$GPGGA,053523.000,3115.555916,N,12137.015568,E,1,19,0.8,16.2,M,,M,,*71
$GPRMC,053523.000,A,3115.555916,N,12137.015568,E,2.2,252.66389068900003,200122,,E,A*1D
$GPGGA,053524.000,3115.555434,N,12137.015374,E,1,19,0.8,16.4,M,,M,,*76
$GPRMC,053524.000,A,3115.555434,N,12137.015374,E,2.1,205.935451465,200122,,E,A*23
$GPGGA,053525.000,3115.555098,N,12137.015015,E,1,19,0.8,16.4,M,,M,,*71
$GPRMC,053525.000,A,3115.555098,N,12137.015015,E,2.0,219.724824919,200122,,E,A*2E
$GPGGA,053526.000,3115.554240,N,12137.014808,E,1,19,0.8,16.1,M,,M,,*74
$GPRMC,053526.000,A,3115.554240,N,12137.014808,E,2.1,217.147480326,200122,,E,A*26
$GPGGA,053527.000,3115.553495,N,12137.014552,E,1,19,0.8,16.0,M,,M,,*7F
$GPRMC,053527.000,A,3115.553495,N,12137.014552,E,2.1,195.67422592900002,200122,,E,A*1C
$GPGGA,053528.000,3115.552771,N,12137.014146,E,1,19,0.8,15.9,M,,M,,*73
$GPRMC,053528.000,A,3115.552771,N,12137.014146,E,2.2,197.913749361,200122,,E,A*2E
$GPGGA,053529.000,3115.552032,N,12137.014159,E,1,19,0.8,15.5,M,,M,,*70
$GPRMC,053529.000,A,3115.552032,N,12137.014159,E,2.1,225.57631635099997,200122,,E,A*1C
$GPGGA,053530.000,3115.551168,N,12137.013867,E,1,19,0.8,15.3,M,,M,,*70
$GPRMC,053530.000,A,3115.551168,N,12137.013867,E,2.2,221.981464805,200122,,E,A*27
$GPGGA,053531.000,3115.550559,N,12137.013639,E,1,19,0.8,15.2,M,,M,,*72
$GPRMC,053531.000,A,3115.550559,N,12137.013639,E,2.2,208.05655307599997,200122,,E,A*11
$GPGGA,053532.000,3115.549796,N,12137.013675,E,1,19,0.8,15.2,M,,M,,*70
$GPRMC,053532.000,A,3115.549796,N,12137.013675,E,2.2,212.36693524700001,200122,,E,A*11
$GPGGA,053533.000,3115.549186,N,12137.013240,E,1,19,0.8,14.9,M,,M,,*7E
$GPRMC,053533.000,A,3115.549186,N,12137.013240,E,2.3,223.443890286,200122,,E,A*24
$GPGGA,053534.000,3115.548548,N,12137.012788,E,1,19,0.8,15.0,M,,M,,*76
$GPRMC,053534.000,A,3115.548548,N,12137.012788,E,2.4,222.489494282,200122,,E,A*28
$GPGGA,053535.000,3115.547927,N,12137.012390,E,1,19,0.8,15.0,M,,M,,*70
$GPRMC,053535.000,A,3115.547927,N,12137.012390,E,2.4,223.80798035400002,200122,,E,A*15
$GPGGA,053536.000,3115.547232,N,12137.011991,E,1,19,0.8,14.7,M,,M,,*72
$GPRMC,053536.000,A,3115.547232,N,12137.011991,E,2.5,217.03154469400002,200122,,E,A*17
$GPGGA,053537.000,3115.546440,N,12137.011571,E,1,19,0.8,14.4,M,,M,,*70
$GPRMC,053537.000,A,3115.546440,N,12137.011571,E,2.6,218.28003498700002,200122,,E,A*1D
$GPGGA,053538.000,3115.545550,N,12137.011379,E,1,19,0.8,14.4,M,,M,,*72
$GPRMC,053538.000,A,3115.545550,N,12137.011379,E,2.6,202.51263872599998,200122,,E,A*1E
$GPGGA,053539.000,3115.544587,N,12137.011262,E,1,19,0.8,14.4,M,,M,,*73
$GPRMC,053539.000,A,3115.544587,N,12137.011262,E,2.7,198.961486732,200122,,E,A*2F
$GPGGA,053540.000,3115.543780,N,12137.011062,E,1,19,0.8,14.4,M,,M,,*7D
$GPRMC,053540.000,A,3115.543780,N,12137.011062,E,2.7,197.09815646299998,200122,,E,A*17
$GPGGA,053541.000,3115.543074,N,12137.010613,E,1,19,0.8,14.4,M,,M,,*71
$GPRMC,053541.000,A,3115.543074,N,12137.010613,E,2.8,215.90863426,200122,,E,A*12
$GPGGA,053542.000,3115.542297,N,12137.010309,E,1,19,0.8,14.3,M,,M,,*75
$GPRMC,053542.000,A,3115.542297,N,12137.010309,E,2.8,234.840703087,200122,,E,A*21
$GPGGA,053543.000,3115.541659,N,12137.009642,E,1,19,0.8,14.2,M,,M,,*72
$GPRMC,053543.000,A,3115.541659,N,12137.009642,E,2.8,238.606869439,200122,,E,A*25
$GPGGA,053544.000,3115.540879,N,12137.009163,E,1,19,0.8,14.2,M,,M,,*7C
$GPRMC,053544.000,A,3115.540879,N,12137.009163,E,2.9,223.21772905900002,200122,,E,A*1F
$GPGGA,053545.000,3115.540387,N,12137.008431,E,1,19,0.8,14.1,M,,M,,*77
$GPRMC,053545.000,A,3115.540387,N,12137.008431,E,2.9,218.917086738,200122,,E,A*24
$GPGGA,053546.000,3115.539725,N,12137.007953,E,1,19,0.8,14.1,M,,M,,*70
$GPRMC,053546.000,A,3115.539725,N,12137.007953,E,2.8,229.671369976,200122,,E,A*29
$GPGGA,053547.000,3115.539224,N,12137.007348,E,1,19,0.8,14.0,M,,M,,*74
$GPRMC,053547.000,A,3115.539224,N,12137.007348,E,2.8,221.365286112,200122,,E,A*2E
$GPGGA,053548.000,3115.538768,N,12137.006674,E,1,19,0.8,13.9,M,,M,,*72
$GPRMC,053548.000,A,3115.538768,N,12137.006674,E,2.8,233.393659192,200122,,E,A*22
$GPGGA,053549.000,3115.538012,N,12137.005706,E,1,19,0.8,13.9,M,,M,,*7E
$GPRMC,053549.000,A,3115.538012,N,12137.005706,E,2.9,-144.46742792,200122,,E,A*37
$GPGGA,053550.000,3115.537602,N,12137.004723,E,1,19,0.8,13.6,M,,M,,*77
$GPRMC,053550.000,A,3115.537602,N,12137.004723,E,3.0,-141.887244279,200122,,E,A*0A
$GPGGA,053551.000,3115.537213,N,12137.003676,E,1,19,0.8,13.4,M,,M,,*76
$GPRMC,053551.000,A,3115.537213,N,12137.003676,E,3.0,-138.61549855799998,200122,,E,A*36
$GPGGA,053552.000,3115.536885,N,12137.002674,E,1,19,0.8,13.4,M,,M,,*72
$GPRMC,053552.000,A,3115.536885,N,12137.002674,E,3.0,-135.82126263700002,200122,,E,A*3A
$GPGGA,053553.000,3115.536487,N,12137.001980,E,1,19,0.8,13.4,M,,M,,*7A
$GPRMC,053553.000,A,3115.536487,N,12137.001980,E,3.0,-135.363620351,200122,,E,A*0A
$GPGGA,053554.000,3115.535995,N,12137.001060,E,1,19,0.8,13.3,M,,M,,*70
$GPRMC,053554.000,A,3115.535995,N,12137.001060,E,3.0,-134.037777651,200122,,E,A*02
$GPGGA,053555.000,3115.535487,N,12137.000280,E,1,19,0.8,13.2,M,,M,,*73
$GPRMC,053555.000,A,3115.535487,N,12137.000280,E,3.0,-133.19206987799998,200122,,E,A*33
$GPGGA,053556.000,3115.534713,N,12136.999503,E,1,19,0.8,13.2,M,,M,,*7B
$GPRMC,053556.000,A,3115.534713,N,12136.999503,E,3.2,-134.546276563,200122,,E,A*0F
$GPGGA,053557.000,3115.534103,N,12136.998806,E,1,19,0.8,13.2,M,,M,,*74
$GPRMC,053557.000,A,3115.534103,N,12136.998806,E,3.1,-135.275328592,200122,,E,A*01
$GPGGA,053558.000,3115.533559,N,12136.998085,E,1,19,0.8,13.2,M,,M,,*74
$GPRMC,053558.000,A,3115.533559,N,12136.998085,E,3.1,-135.226387576,200122,,E,A*08
$GPGGA,053559.000,3115.532858,N,12136.997154,E,1,19,0.8,13.1,M,,M,,*79
$GPRMC,053559.000,A,3115.532858,N,12136.997154,E,3.2,-134.557493643,200122,,E,A*02
$GPGGA,053600.000,3115.532204,N,12136.996525,E,1,19,0.8,13.1,M,,M,,*76
$GPRMC,053600.000,A,3115.532204,N,12136.996525,E,3.2,-135.011608305,200122,,E,A*0C
$GPGGA,053601.000,3115.531668,N,12136.996008,E,1,19,0.8,13.1,M,,M,,*70
$GPRMC,053601.000,A,3115.531668,N,12136.996008,E,3.1,-135.52270010799998,200122,,E,A*3D
$GPGGA,053602.000,3115.531062,N,12136.995303,E,1,19,0.8,13.1,M,,M,,*74
$GPRMC,053602.000,A,3115.531062,N,12136.995303,E,3.1,-135.120650679,200122,,E,A*0D
$GPGGA,053603.000,3115.530777,N,12136.994795,E,1,19,0.8,13.0,M,,M,,*7C
$GPRMC,053603.000,A,3115.530777,N,12136.994795,E,2.8,206.128103783,200122,,E,A*2F
$GPGGA,053604.000,3115.530270,N,12136.994291,E,1,19,0.8,12.9,M,,M,,*70
$GPRMC,053604.000,A,3115.530270,N,12136.994291,E,2.7,197.349425465,200122,,E,A*20
$GPGGA,053605.000,3115.529698,N,12136.994049,E,1,19,0.8,12.7,M,,M,,*72
$GPRMC,053605.000,A,3115.529698,N,12136.994049,E,2.6,193.332058412,200122,,E,A*2B
$GPGGA,053606.000,3115.529284,N,12136.993882,E,1,19,0.8,12.5,M,,M,,*72
$GPRMC,053606.000,A,3115.529284,N,12136.993882,E,2.4,195.95246051799998,200122,,E,A*12
$GPGGA,053607.000,3115.529282,N,12136.992983,E,1,19,0.8,12.9,M,,M,,*78
$GPRMC,053607.000,A,3115.529282,N,12136.992983,E,2.4,190.20448743400001,200122,,E,A*19
$GPGGA,053608.000,3115.528746,N,12136.992519,E,1,19,0.8,12.9,M,,M,,*74
$GPRMC,053608.000,A,3115.528746,N,12136.992519,E,2.4,186.34368198,200122,,E,A*17
$GPGGA,053609.000,3115.527753,N,12136.993225,E,1,19,0.8,13.1,M,,M,,*7E
$GPRMC,053609.000,A,3115.527753,N,12136.993225,E,2.2,183.06569657400001,200122,,E,A*10
$GPGGA,053610.000,3115.527162,N,12136.993532,E,1,19,0.8,13.2,M,,M,,*70
$GPRMC,053610.000,A,3115.527162,N,12136.993532,E,2.0,168.842551461,200122,,E,A*2B
$GPGGA,053611.000,3115.526271,N,12136.993812,E,1,19,0.8,13.3,M,,M,,*7F
$GPRMC,053611.000,A,3115.526271,N,12136.993812,E,2.1,171.797906048,200122,,E,A*2A
$GPGGA,053612.000,3115.525282,N,12136.994384,E,1,19,0.8,13.2,M,,M,,*71
$GPRMC,053612.000,A,3115.525282,N,12136.994384,E,2.1,173.89148199599998,200122,,E,A*1D
$GPGGA,053613.000,3115.524367,N,12136.995000,E,1,19,0.8,13.3,M,,M,,*74
$GPRMC,053613.000,A,3115.524367,N,12136.995000,E,2.2,174.952046462,200122,,E,A*21
$GPGGA,053614.000,3115.523765,N,12136.995045,E,1,19,0.8,13.4,M,,M,,*74
$GPRMC,053614.000,A,3115.523765,N,12136.995045,E,2.2,163.128292191,200122,,E,A*27
$GPGGA,053615.000,3115.523147,N,12136.995348,E,1,19,0.8,13.1,M,,M,,*78
$GPRMC,053615.000,A,3115.523147,N,12136.995348,E,2.2,167.493124631,200122,,E,A*2C
$GPGGA,053616.000,3115.522348,N,12136.995620,E,1,19,0.8,13.0,M,,M,,*7D
$GPRMC,053616.000,A,3115.522348,N,12136.995620,E,2.3,166.465864168,200122,,E,A*27
$GPGGA,053617.000,3115.521674,N,12136.995717,E,1,19,0.8,12.8,M,,M,,*79
$GPRMC,053617.000,A,3115.521674,N,12136.995717,E,2.3,164.54420408299998,200122,,E,A*1B
$GPGGA,053618.000,3115.520750,N,12136.996297,E,1,19,0.8,12.9,M,,M,,*7F
$GPRMC,053618.000,A,3115.520750,N,12136.996297,E,2.5,145.84167059700002,200122,,E,A*1D
$GPGGA,053619.000,3115.519955,N,12136.995833,E,1,19,0.8,12.2,M,,M,,*73
$GPRMC,053619.000,A,3115.519955,N,12136.995833,E,2.5,161.279059433,200122,,E,A*2D
$GPGGA,053620.000,3115.519245,N,12136.996301,E,1,19,0.8,11.9,M,,M,,*72
$GPRMC,053620.000,A,3115.519245,N,12136.996301,E,2.5,147.571784854,200122,,E,A*25
$GPGGA,053621.000,3115.518774,N,12136.996871,E,1,19,0.8,11.6,M,,M,,*76
$GPRMC,053621.000,A,3115.518774,N,12136.996871,E,2.5,142.83422898700002,200122,,E,A*19
$GPGGA,053622.000,3115.518174,N,12136.997322,E,1,19,0.8,11.3,M,,M,,*7A
$GPRMC,053622.000,A,3115.518174,N,12136.997322,E,2.6,132.599477264,200122,,E,A*26
$GPGGA,053623.000,3115.517511,N,12136.997628,E,1,19,0.8,11.3,M,,M,,*7C
$GPRMC,053623.000,A,3115.517511,N,12136.997628,E,2.5,134.824015261,200122,,E,A*2B
$GPGGA,053624.000,3115.516540,N,12136.998728,E,1,19,0.8,11.1,M,,M,,*72
$GPRMC,053624.000,A,3115.516540,N,12136.998728,E,2.9,134.066192104,200122,,E,A*2B
$GPGGA,053625.000,3115.515874,N,12136.999303,E,1,19,0.8,11.1,M,,M,,*76
$GPRMC,053625.000,A,3115.515874,N,12136.999303,E,3.0,146.910728592,200122,,E,A*26
$GPGGA,053626.000,3115.514959,N,12137.000225,E,1,19,0.8,10.8,M,,M,,*7F
$GPRMC,053626.000,A,3115.514959,N,12137.000225,E,3.2,144.097952757,200122,,E,A*29
$GPGGA,053627.000,3115.514043,N,12137.001035,E,1,19,0.8,10.4,M,,M,,*72
$GPRMC,053627.000,A,3115.514043,N,12137.001035,E,3.3,143.452846763,200122,,E,A*20
$GPGGA,053628.000,3115.513140,N,12137.002175,E,1,19,0.8,10.1,M,,M,,*7B
$GPRMC,053628.000,A,3115.513140,N,12137.002175,E,3.7,138.107300963,200122,,E,A*26
$GPGGA,053629.000,3115.512445,N,12137.003011,E,1,19,0.8,10.1,M,,M,,*79
$GPRMC,053629.000,A,3115.512445,N,12137.003011,E,3.7,137.039144856,200122,,E,A*22
$GPGGA,053630.000,3115.511933,N,12137.003766,E,1,19,0.8,9.7,M,,M,,*47
$GPRMC,053630.000,A,3115.511933,N,12137.003766,E,3.6,136.77895678299998,200122,,E,A*15
$GPGGA,053631.000,3115.511205,N,12137.004854,E,1,19,0.8,9.3,M,,M,,*45
$GPRMC,053631.000,A,3115.511205,N,12137.004854,E,3.8,133.863215016,200122,,E,A*23
$GPGGA,053632.000,3115.510464,N,12137.005632,E,1,19,0.8,9.3,M,,M,,*49
$GPRMC,053632.000,A,3115.510464,N,12137.005632,E,3.7,135.085419335,200122,,E,A*2E
$GPGGA,053633.000,3115.509824,N,12137.006483,E,1,19,0.8,9.3,M,,M,,*43
$GPRMC,053633.000,A,3115.509824,N,12137.006483,E,3.7,134.64087191,200122,,E,A*15
$GPGGA,053634.000,3115.509216,N,12137.006609,E,1,19,0.8,9.3,M,,M,,*4F
$GPRMC,053634.000,A,3115.509216,N,12137.006609,E,3.3,140.238519776,200122,,E,A*28
$GPGGA,053635.000,3115.510208,N,12137.007546,E,1,19,0.8,10.2,M,,M,,*79
$GPRMC,053635.000,A,3115.510208,N,12137.007546,E,3.0,133.95351283899998,200122,,E,A*10
$GPGGA,053636.000,3115.510371,N,12137.007837,E,1,19,0.8,9.7,M,,M,,*43
$GPRMC,053636.000,A,3115.510371,N,12137.007837,E,2.6,133.419345861,200122,,E,A*23
$GPGGA,053637.000,3115.510125,N,12137.008131,E,1,19,0.8,9.6,M,,M,,*40
$GPRMC,053637.000,A,3115.510125,N,12137.008131,E,2.4,130.64210895,200122,,E,A*14
$GPGGA,053638.000,3115.510189,N,12137.008441,E,1,19,0.8,9.4,M,,M,,*49
$GPRMC,053638.000,A,3115.510189,N,12137.008441,E,2.2,130.774232131,200122,,E,A*28
$GPGGA,053639.000,3115.510402,N,12137.007838,E,1,19,0.8,9.8,M,,M,,*4F
$GPRMC,053639.000,A,3115.510402,N,12137.007838,E,1.7,126.205081409,200122,,E,A*24
$GPGGA,053640.000,3115.509995,N,12137.007997,E,1,19,0.8,9.7,M,,M,,*41
$GPRMC,053640.000,A,3115.509995,N,12137.007997,E,1.6,117.54904596899999,200122,,E,A*12
$GPGGA,053641.000,3115.509805,N,12137.007930,E,1,19,0.8,9.6,M,,M,,*44
$GPRMC,053641.000,A,3115.509805,N,12137.007930,E,1.5,138.737180947,200122,,E,A*2F
$GPGGA,053642.000,3115.509562,N,12137.008377,E,1,19,0.8,9.6,M,,M,,*4D
$GPRMC,053642.000,A,3115.509562,N,12137.008377,E,1.6,128.688975353,200122,,E,A*2C
$GPGGA,053643.000,3115.509397,N,12137.008640,E,1,19,0.8,9.6,M,,M,,*41
$GPRMC,053643.000,A,3115.509397,N,12137.008640,E,1.5,136.000337775,200122,,E,A*26
$GPGGA,053644.000,3115.509121,N,12137.009429,E,1,19,0.8,9.7,M,,M,,*44
$GPRMC,053644.000,A,3115.509121,N,12137.009429,E,1.7,142.09700568,200122,,E,A*14
$GPGGA,053645.000,3115.508839,N,12137.010115,E,1,19,0.8,9.8,M,,M,,*49
$GPRMC,053645.000,A,3115.508839,N,12137.010115,E,1.8,129.412101149,200122,,E,A*2A
$GPGGA,053646.000,3115.508359,N,12137.011513,E,1,19,0.8,9.6,M,,M,,*4A
$GPRMC,053646.000,A,3115.508359,N,12137.011513,E,2.2,141.46513121200002,200122,,E,A*1C
$GPGGA,053647.000,3115.507965,N,12137.012886,E,1,19,0.8,9.5,M,,M,,*40
$GPRMC,053647.000,A,3115.507965,N,12137.012886,E,2.5,156.735740488,200122,,E,A*25
$GPGGA,053648.000,3115.507406,N,12137.013366,E,1,19,0.8,9.4,M,,M,,*42
$GPRMC,053648.000,A,3115.507406,N,12137.013366,E,2.5,145.35465078200002,200122,,E,A*1C
$GPGGA,053649.000,3115.506669,N,12137.013887,E,1,19,0.8,9.0,M,,M,,*49
$GPRMC,053649.000,A,3115.506669,N,12137.013887,E,2.6,141.63251183,200122,,E,A*13
$GPGGA,053650.000,3115.506027,N,12137.014479,E,1,19,0.8,9.0,M,,M,,*47
$GPRMC,053650.000,A,3115.506027,N,12137.014479,E,2.6,141.774101653,200122,,E,A*20
$GPGGA,053651.000,3115.506891,N,12137.016061,E,1,19,0.8,10.2,M,,M,,*76
$GPRMC,053651.000,A,3115.506891,N,12137.016061,E,2.6,145.246419603,200122,,E,A*22
$GPGGA,053652.000,3115.506335,N,12137.016487,E,1,19,0.8,10.2,M,,M,,*7C
$GPRMC,053652.000,A,3115.506335,N,12137.016487,E,2.4,145.215779375,200122,,E,A*2D
$GPGGA,053653.000,3115.505697,N,12137.016901,E,1,19,0.8,10.2,M,,M,,*70
$GPRMC,053653.000,A,3115.505697,N,12137.016901,E,2.4,142.999232699,200122,,E,A*24
$GPGGA,053654.000,3115.505154,N,12137.017808,E,1,19,0.8,10.1,M,,M,,*75
$GPRMC,053654.000,A,3115.505154,N,12137.017808,E,2.5,127.401102188,200122,,E,A*2B
$GPGGA,053655.000,3115.504612,N,12137.018267,E,1,19,0.8,10.1,M,,M,,*7C
$GPRMC,053655.000,A,3115.504612,N,12137.018267,E,2.5,144.614094343,200122,,E,A*2A
$GPGGA,053656.000,3115.503955,N,12137.018820,E,1,19,0.8,9.9,M,,M,,*4D
$GPRMC,053656.000,A,3115.503955,N,12137.018820,E,2.6,137.137058851,200122,,E,A*22
$GPGGA,053657.000,3115.503272,N,12137.019221,E,1,19,0.8,9.5,M,,M,,*44
$GPRMC,053657.000,A,3115.503272,N,12137.019221,E,2.6,134.72579714,200122,,E,A*1C
$GPGGA,053658.000,3115.502841,N,12137.020028,E,1,19,0.8,9.4,M,,M,,*40
$GPRMC,053658.000,A,3115.502841,N,12137.020028,E,2.7,152.408760956,200122,,E,A*23
$GPGGA,053659.000,3115.502392,N,12137.020170,E,1,19,0.8,9.2,M,,M,,*4E
$GPRMC,053659.000,A,3115.502392,N,12137.020170,E,2.5,156.575504248,200122,,E,A*22
$GPGGA,053700.000,3115.501919,N,12137.020449,E,1,19,0.8,9.1,M,,M,,*45
$GPRMC,053700.000,A,3115.501919,N,12137.020449,E,2.4,151.146473681,200122,,E,A*28
$GPGGA,053701.000,3115.501697,N,12137.020934,E,1,19,0.8,9.1,M,,M,,*4A
$GPRMC,053701.000,A,3115.501697,N,12137.020934,E,2.3,137.2254415,200122,,E,A*2D
$GPGGA,053702.000,3115.501146,N,12137.021176,E,1,19,0.8,9.1,M,,M,,*4D
$GPRMC,053702.000,A,3115.501146,N,12137.021176,E,2.3,134.320165861,200122,,E,A*24
$GPGGA,053703.000,3115.500276,N,12137.021505,E,1,19,0.8,8.7,M,,M,,*4A
$GPRMC,053703.000,A,3115.500276,N,12137.021505,E,2.3,144.29639492,200122,,E,A*17
$GPGGA,053704.000,3115.499846,N,12137.021875,E,1,19,0.8,8.5,M,,M,,*4D
$GPRMC,053704.000,A,3115.499846,N,12137.021875,E,2.1,148.513271801,200122,,E,A*2E
$GPGGA,053705.000,3115.499154,N,12137.022400,E,1,19,0.8,8.4,M,,M,,*4A
$GPRMC,053705.000,A,3115.499154,N,12137.022400,E,2.1,157.34552612299998,200122,,E,A*16
$GPGGA,053706.000,3115.498208,N,12137.022828,E,1,19,0.8,8.2,M,,M,,*42
$GPRMC,053706.000,A,3115.498208,N,12137.022828,E,2.2,151.306887506,200122,,E,A*26
$GPGGA,053707.000,3115.497385,N,12137.023231,E,1,19,0.8,8.0,M,,M,,*49
$GPRMC,053707.000,A,3115.497385,N,12137.023231,E,2.3,158.798894773,200122,,E,A*26
$GPGGA,053708.000,3115.496409,N,12137.023331,E,1,19,0.8,7.8,M,,M,,*42
$GPRMC,053708.000,A,3115.496409,N,12137.023331,E,2.4,155.580482278,200122,,E,A*2E
$GPGGA,053709.000,3115.495548,N,12137.023348,E,1,19,0.8,7.9,M,,M,,*4B
$GPRMC,053709.000,A,3115.495548,N,12137.023348,E,2.4,156.579465758,200122,,E,A*2D
$GPGGA,053710.000,3115.494981,N,12137.023630,E,1,19,0.8,7.9,M,,M,,*41
$GPRMC,053710.000,A,3115.494981,N,12137.023630,E,2.4,171.561567839,200122,,E,A*20
$GPGGA,053711.000,3115.494127,N,12137.023870,E,1,19,0.8,7.9,M,,M,,*4E
$GPRMC,053711.000,A,3115.494127,N,12137.023870,E,2.5,166.891726468,200122,,E,A*25
$GPGGA,053712.000,3115.493251,N,12137.024081,E,1,19,0.8,8.0,M,,M,,*4F
$GPRMC,053712.000,A,3115.493251,N,12137.024081,E,2.6,160.450817024,200122,,E,A*27
$GPGGA,053713.000,3115.492537,N,12137.024232,E,1,19,0.8,7.9,M,,M,,*44
$GPRMC,053713.000,A,3115.492537,N,12137.024232,E,2.6,154.501052829,200122,,E,A*24
$GPGGA,053714.000,3115.491985,N,12137.024524,E,1,19,0.8,7.8,M,,M,,*44
$GPRMC,053714.000,A,3115.491985,N,12137.024524,E,2.6,152.653705203,200122,,E,A*20
$GPGGA,053715.000,3115.491068,N,12137.024796,E,1,19,0.8,7.6,M,,M,,*4A
$GPRMC,053715.000,A,3115.491068,N,12137.024796,E,2.7,147.417736766,200122,,E,A*21
$GPGGA,053716.000,3115.490464,N,12137.025264,E,1,19,0.8,7.7,M,,M,,*48
$GPRMC,053716.000,A,3115.490464,N,12137.025264,E,2.7,159.242788773,200122,,E,A*2A
$GPGGA,053717.000,3115.489832,N,12137.026101,E,1,19,0.8,7.8,M,,M,,*42
$GPRMC,053717.000,A,3115.489832,N,12137.026101,E,2.8,163.952518449,200122,,E,A*22
$GPGGA,053718.000,3115.489103,N,12137.026963,E,1,19,0.8,7.5,M,,M,,*47
$GPRMC,053718.000,A,3115.489103,N,12137.026963,E,3.0,152.985968061,200122,,E,A*2E
$GPGGA,053719.000,3115.488505,N,12137.027819,E,1,19,0.8,7.6,M,,M,,*4B
$GPRMC,053719.000,A,3115.488505,N,12137.027819,E,3.0,150.348604547,200122,,E,A*2C
$GPGGA,053720.000,3115.487652,N,12137.028600,E,1,19,0.8,7.8,M,,M,,*48
$GPRMC,053720.000,A,3115.487652,N,12137.028600,E,3.3,151.304640133,200122,,E,A*2C
$GPGGA,053721.000,3115.487190,N,12137.029263,E,1,19,0.8,7.9,M,,M,,*41
$GPRMC,053721.000,A,3115.487190,N,12137.029263,E,3.2,149.374799415,200122,,E,A*2F
$GPGGA,053722.000,3115.486420,N,12137.030012,E,1,19,0.8,7.6,M,,M,,*4E
$GPRMC,053722.000,A,3115.486420,N,12137.030012,E,3.5,147.21552474799998,200122,,E,A*18
$GPGGA,053723.000,3115.485928,N,12137.030383,E,1,19,0.8,7.5,M,,M,,*41
$GPRMC,053723.000,A,3115.485928,N,12137.030383,E,3.3,147.809187565,200122,,E,A*22
$GPGGA,053724.000,3115.485533,N,12137.030431,E,1,19,0.8,7.3,M,,M,,*48
$GPRMC,053724.000,A,3115.485533,N,12137.030431,E,3.0,151.356420318,200122,,E,A*2C
$GPGGA,053725.000,3115.485025,N,12137.030680,E,1,19,0.8,7.2,M,,M,,*42
$GPRMC,053725.000,A,3115.485025,N,12137.030680,E,2.9,143.54145410299998,200122,,E,A*1E
$GPGGA,053726.000,3115.484635,N,12137.031159,E,1,19,0.8,7.1,M,,M,,*46
$GPRMC,053726.000,A,3115.484635,N,12137.031159,E,2.7,146.825969169,200122,,E,A*2B
$GPGGA,053727.000,3115.484160,N,12137.031718,E,1,19,0.8,6.9,M,,M,,*4A
$GPRMC,053727.000,A,3115.484160,N,12137.031718,E,2.7,140.243592846,200122,,E,A*2E
$GPGGA,053728.000,3115.483599,N,12137.032526,E,1,19,0.8,6.6,M,,M,,*43
$GPRMC,053728.000,A,3115.483599,N,12137.032526,E,2.7,144.077077544,200122,,E,A*28
$GPGGA,053729.000,3115.483028,N,12137.033260,E,1,19,0.8,6.5,M,,M,,*4A
$GPRMC,053729.000,A,3115.483028,N,12137.033260,E,2.8,129.38184341,200122,,E,A*13
$GPGGA,053730.000,3115.482638,N,12137.033797,E,1,19,0.8,6.4,M,,M,,*48
$GPRMC,053730.000,A,3115.482638,N,12137.033797,E,2.7,140.69301929899999,200122,,E,A*1E
$GPGGA,053731.000,3115.481909,N,12137.034121,E,1,19,0.8,6.1,M,,M,,*4E
$GPRMC,053731.000,A,3115.481909,N,12137.034121,E,2.7,137.429527554,200122,,E,A*28
$GPGGA,053732.000,3115.481481,N,12137.034628,E,1,19,0.8,5.9,M,,M,,*45
$GPRMC,053732.000,A,3115.481481,N,12137.034628,E,2.6,126.362339687,200122,,E,A*25
$GPGGA,053733.000,3115.480877,N,12137.035277,E,1,19,0.8,5.6,M,,M,,*40
$GPRMC,053733.000,A,3115.480877,N,12137.035277,E,2.7,129.60764946700002,200122,,E,A*1B
$GPGGA,053734.000,3115.480550,N,12137.035645,E,1,19,0.8,5.5,M,,M,,*49
$GPRMC,053734.000,A,3115.480550,N,12137.035645,E,2.6,128.450847635,200122,,E,A*26
$GPGGA,053735.000,3115.480071,N,12137.036103,E,1,19,0.8,5.3,M,,M,,*4E
$GPRMC,053735.000,A,3115.480071,N,12137.036103,E,2.5,130.807303907,200122,,E,A*26
$GPGGA,053736.000,3115.479663,N,12137.036387,E,1,19,0.8,5.3,M,,M,,*40
$GPRMC,053736.000,A,3115.479663,N,12137.036387,E,2.4,115.9462601,200122,,E,A*21
$GPGGA,053737.000,3115.479259,N,12137.036697,E,1,19,0.8,5.2,M,,M,,*49
$GPRMC,053737.000,A,3115.479259,N,12137.036697,E,2.3,126.81936131,200122,,E,A*16
$GPGGA,053738.000,3115.478582,N,12137.037764,E,1,19,0.8,5.0,M,,M,,*48
$GPRMC,053738.000,A,3115.478582,N,12137.037764,E,2.6,134.02827089299998,200122,,E,A*11
$GPGGA,053739.000,3115.478289,N,12137.038594,E,1,19,0.8,4.8,M,,M,,*4E
$GPRMC,053739.000,A,3115.478289,N,12137.038594,E,2.5,132.66394059,200122,,E,A*1D
$GPGGA,053740.000,3115.477858,N,12137.039240,E,1,19,0.8,4.6,M,,M,,*48
$GPRMC,053740.000,A,3115.477858,N,12137.039240,E,2.5,132.135789376,200122,,E,A*24
$GPGGA,053741.000,3115.477263,N,12137.040154,E,1,19,0.8,4.3,M,,M,,*46
$GPRMC,053741.000,A,3115.477263,N,12137.040154,E,2.5,143.62198203399998,200122,,E,A*14
$GPGGA,053742.000,3115.476802,N,12137.040618,E,1,19,0.8,4.3,M,,M,,*46
$GPRMC,053742.000,A,3115.476802,N,12137.040618,E,2.5,139.787664053,200122,,E,A*2D
$GPGGA,053743.000,3115.476512,N,12137.041057,E,1,19,0.8,4.2,M,,M,,*46
$GPRMC,053743.000,A,3115.476512,N,12137.041057,E,2.4,139.115354865,200122,,E,A*2B
$GPGGA,053744.000,3115.476367,N,12137.041200,E,1,19,0.8,5.0,M,,M,,*46
$GPRMC,053744.000,A,3115.476367,N,12137.041200,E,2.2,132.267407123,200122,,E,A*29
$GPGGA,053745.000,3115.476079,N,12137.041563,E,1,19,0.8,5.5,M,,M,,*4C
$GPRMC,053745.000,A,3115.476079,N,12137.041563,E,2.1,130.614487664,200122,,E,A*2B
$GPGGA,053746.000,3115.475904,N,12137.042087,E,1,19,0.8,5.6,M,,M,,*40
$GPRMC,053746.000,A,3115.475904,N,12137.042087,E,2.1,133.716909886,200122,,E,A*2D
$GPGGA,053747.000,3115.475567,N,12137.042397,E,1,19,0.8,5.7,M,,M,,*4B
$GPRMC,053747.000,A,3115.475567,N,12137.042397,E,2.0,134.106681465,200122,,E,A*28
$GPGGA,053748.000,3115.474885,N,12137.042652,E,1,19,0.8,6.4,M,,M,,*48
$GPRMC,053748.000,A,3115.474885,N,12137.042652,E,2.0,132.27280297299998,200122,,E,A*1B
$GPGGA,053749.000,3115.474677,N,12137.043571,E,1,19,0.8,7.2,M,,M,,*4E
$GPRMC,053749.000,A,3115.474677,N,12137.043571,E,2.2,140.612477707,200122,,E,A*25
$GPGGA,053750.000,3115.474623,N,12137.044699,E,1,19,0.8,7.9,M,,M,,*4E
$GPRMC,053750.000,A,3115.474623,N,12137.044699,E,2.2,156.402782422,200122,,E,A*27
$GPGGA,053751.000,3115.474818,N,12137.046346,E,1,19,0.8,8.8,M,,M,,*42
$GPRMC,053751.000,A,3115.474818,N,12137.046346,E,2.5,168.340901382,200122,,E,A*26
$GPGGA,053752.000,3115.474188,N,12137.046291,E,1,19,0.8,9.2,M,,M,,*41
$GPRMC,053752.000,A,3115.474188,N,12137.046291,E,2.2,184.69002486,200122,,E,A*1A
$GPGGA,053753.000,3115.473587,N,12137.046819,E,1,19,0.8,9.5,M,,M,,*41
$GPRMC,053753.000,A,3115.473587,N,12137.046819,E,2.2,169.257758666,200122,,E,A*25
$GPGGA,053754.000,3115.473206,N,12137.047179,E,1,19,0.8,9.5,M,,M,,*46
$GPRMC,053754.000,A,3115.473206,N,12137.047179,E,2.2,124.0602244,200122,,E,A*21
$GPGGA,053755.000,3115.472650,N,12137.047130,E,1,19,0.8,9.8,M,,M,,*41
$GPRMC,053755.000,A,3115.472650,N,12137.047130,E,2.0,51.143849215,200122,,E,A*19
$GPGGA,053756.000,3115.472971,N,12137.047108,E,1,19,0.8,10.2,M,,M,,*77
$GPRMC,053756.000,A,3115.472971,N,12137.047108,E,1.5,14.464010029,200122,,E,A*13
$GPGGA,053757.000,3115.473580,N,12137.046128,E,1,19,0.8,10.7,M,,M,,*73
$GPRMC,053757.000,A,3115.473580,N,12137.046128,E,0.5,352.80946418599996,200122,,E,A*13
$GPGGA,053758.000,3115.474117,N,12137.045260,E,1,19,0.8,11.3,M,,M,,*78
$GPRMC,053758.000,A,3115.474117,N,12137.045260,E,0.6,344.052669794,200122,,E,A*20
$GPGGA,053759.000,3115.474821,N,12137.044605,E,1,19,0.8,11.7,M,,M,,*77
$GPRMC,053759.000,A,3115.474821,N,12137.044605,E,1.3,338.672147231,200122,,E,A*21
$GPGGA,053800.000,3115.475326,N,12137.043416,E,1,19,0.8,11.9,M,,M,,*70
$GPRMC,053800.000,A,3115.475326,N,12137.043416,E,2.1,331.21393574,200122,,E,A*1D
$GPGGA,053801.000,3115.475394,N,12137.041305,E,1,19,0.8,12.2,M,,M,,*77
$GPRMC,053801.000,A,3115.475394,N,12137.041305,E,3.1,-76.22025188,200122,,E,A*04
$GPGGA,053802.000,3115.475554,N,12137.039944,E,1,19,0.8,12.4,M,,M,,*78
$GPRMC,053802.000,A,3115.475554,N,12137.039944,E,3.4,-78.418197418,200122,,E,A*3F
$GPGGA,053803.000,3115.475273,N,12137.038312,E,1,19,0.8,12.9,M,,M,,*7E
$GPRMC,053803.000,A,3115.475273,N,12137.038312,E,3.6,-84.55412307600001,200122,,E,A*0E
$GPGGA,053804.000,3115.475006,N,12137.036832,E,1,19,0.8,13.2,M,,M,,*74
$GPRMC,053804.000,A,3115.475006,N,12137.036832,E,3.8,-88.34270460399999,200122,,E,A*02
$GPGGA,053805.000,3115.474754,N,12137.035407,E,1,19,0.8,13.7,M,,M,,*78
$GPRMC,053805.000,A,3115.474754,N,12137.035407,E,3.9,-90.275668435,200122,,E,A*33
$GPGGA,053806.000,3115.474616,N,12137.034733,E,1,19,0.8,14.1,M,,M,,*78
$GPRMC,053806.000,A,3115.474616,N,12137.034733,E,3.5,-91.21988196299999,200122,,E,A*0A
$GPGGA,053807.000,3115.474566,N,12137.033985,E,1,19,0.8,14.3,M,,M,,*7B
$GPRMC,053807.000,A,3115.474566,N,12137.033985,E,3.3,-91.06489894799999,200122,,E,A*0A
$GPGGA,053808.000,3115.474746,N,12137.033282,E,1,19,0.8,14.2,M,,M,,*79
$GPRMC,053808.000,A,3115.474746,N,12137.033282,E,3.0,-89.317874803,200122,,E,A*3E
$GPGGA,053809.000,3115.474543,N,12137.032405,E,1,19,0.8,14.4,M,,M,,*71
$GPRMC,053809.000,A,3115.474543,N,12137.032405,E,3.0,-90.999844024,200122,,E,A*3A
$GPGGA,053810.000,3115.474782,N,12137.031871,E,1,19,0.8,14.5,M,,M,,*7B
$GPRMC,053810.000,A,3115.474782,N,12137.031871,E,2.8,306.53638001900003,200122,,E,A*1E
$GPGGA,053811.000,3115.474881,N,12137.031204,E,1,19,0.8,14.3,M,,M,,*78
$GPRMC,053811.000,A,3115.474881,N,12137.031204,E,2.7,307.395945675,200122,,E,A*26
$GPGGA,053812.000,3115.474800,N,12137.030322,E,1,19,0.8,14.5,M,,M,,*70
$GPRMC,053812.000,A,3115.474800,N,12137.030322,E,2.7,308.436128857,200122,,E,A*24
$GPGGA,053813.000,3115.475020,N,12137.029688,E,1,19,0.8,14.9,M,,M,,*7B
$GPRMC,053813.000,A,3115.475020,N,12137.029688,E,2.6,309.92142181099996,200122,,E,A*11
$GPGGA,053814.000,3115.475358,N,12137.029059,E,1,19,0.8,15.1,M,,M,,*73
$GPRMC,053814.000,A,3115.475358,N,12137.029059,E,2.6,308.335014735,200122,,E,A*22
$GPGGA,053815.000,3115.475818,N,12137.028211,E,1,19,0.8,15.2,M,,M,,*71
$GPRMC,053815.000,A,3115.475818,N,12137.028211,E,2.6,309.135130424,200122,,E,A*24
$GPGGA,053816.000,3115.476174,N,12137.027439,E,1,19,0.8,15.3,M,,M,,*70
$GPRMC,053816.000,A,3115.476174,N,12137.027439,E,2.6,309.740749645,200122,,E,A*2D
$GPGGA,053817.000,3115.476672,N,12137.026698,E,1,19,0.8,15.4,M,,M,,*7F
$GPRMC,053817.000,A,3115.476672,N,12137.026698,E,2.7,312.513861122,200122,,E,A*29
$GPGGA,053818.000,3115.477129,N,12137.025945,E,1,19,0.8,15.3,M,,M,,*73
$GPRMC,053818.000,A,3115.477129,N,12137.025945,E,2.6,311.446821636,200122,,E,A*27
$GPGGA,053819.000,3115.477587,N,12137.025450,E,1,19,0.8,15.1,M,,M,,*79
$GPRMC,053819.000,A,3115.477587,N,12137.025450,E,2.6,309.79869697,200122,,E,A*19
$GPGGA,053820.000,3115.478023,N,12137.024993,E,1,19,0.8,15.1,M,,M,,*74
$GPRMC,053820.000,A,3115.478023,N,12137.024993,E,2.4,312.252702006,200122,,E,A*2B
$GPGGA,053821.000,3115.478308,N,12137.023776,E,1,19,0.8,15.0,M,,M,,*7C
$GPRMC,053821.000,A,3115.478308,N,12137.023776,E,2.6,311.588015309,200122,,E,A*2E
$GPGGA,053822.000,3115.478532,N,12137.023125,E,1,19,0.8,15.0,M,,M,,*70
$GPRMC,053822.000,A,3115.478532,N,12137.023125,E,2.5,313.755015791,200122,,E,A*24
$GPGGA,053823.000,3115.479274,N,12137.022326,E,1,19,0.8,15.1,M,,M,,*74
$GPRMC,053823.000,A,3115.479274,N,12137.022326,E,2.5,313.240538616,200122,,E,A*24
$GPGGA,053824.000,3115.480041,N,12137.022142,E,1,19,0.8,15.2,M,,M,,*72
$GPRMC,053824.000,A,3115.480041,N,12137.022142,E,2.4,314.832928938,200122,,E,A*26
$GPGGA,053825.000,3115.480872,N,12137.021944,E,1,19,0.8,15.5,M,,M,,*71
$GPRMC,053825.000,A,3115.480872,N,12137.021944,E,2.3,316.917092886,200122,,E,A*2D
$GPGGA,053826.000,3115.481490,N,12137.021591,E,1,19,0.8,15.8,M,,M,,*7A
$GPRMC,053826.000,A,3115.481490,N,12137.021591,E,2.3,317.2742025,200122,,E,A*2C
$GPGGA,053827.000,3115.481919,N,12137.021114,E,1,19,0.8,15.8,M,,M,,*7E
$GPRMC,053827.000,A,3115.481919,N,12137.021114,E,2.3,317.435722816,200122,,E,A*26
$GPGGA,053828.000,3115.482214,N,12137.020493,E,1,19,0.8,15.5,M,,M,,*72
$GPRMC,053828.000,A,3115.482214,N,12137.020493,E,2.2,318.587347365,200122,,E,A*29
$GPGGA,053829.000,3115.482759,N,12137.019805,E,1,19,0.8,15.6,M,,M,,*75
$GPRMC,053829.000,A,3115.482759,N,12137.019805,E,2.3,319.089612162,200122,,E,A*26
$GPGGA,053830.000,3115.483228,N,12137.019196,E,1,19,0.8,15.7,M,,M,,*7D
$GPRMC,053830.000,A,3115.483228,N,12137.019196,E,2.3,324.853526907,200122,,E,A*21
$GPGGA,053831.000,3115.483672,N,12137.018487,E,1,19,0.8,15.8,M,,M,,*7C
$GPRMC,053831.000,A,3115.483672,N,12137.018487,E,2.4,328.024292002,200122,,E,A*28
$GPGGA,053832.000,3115.484094,N,12137.018020,E,1,19,0.8,15.8,M,,M,,*7F
$GPRMC,053832.000,A,3115.484094,N,12137.018020,E,2.3,329.677033876,200122,,E,A*2F
$GPGGA,053833.000,3115.484558,N,12137.017526,E,1,19,0.8,15.7,M,,M,,*78
$GPRMC,053833.000,A,3115.484558,N,12137.017526,E,2.2,333.489426949,200122,,E,A*23
$GPGGA,053834.000,3115.485074,N,12137.016890,E,1,19,0.8,15.5,M,,M,,*76
$GPRMC,053834.000,A,3115.485074,N,12137.016890,E,2.2,331.505666784,200122,,E,A*21
$GPGGA,053835.000,3115.485586,N,12137.016169,E,1,19,0.8,15.7,M,,M,,*72
$GPRMC,053835.000,A,3115.485586,N,12137.016169,E,2.3,331.573722789,200122,,E,A*2B
$GPGGA,053836.000,3115.485975,N,12137.015259,E,1,19,0.8,15.5,M,,M,,*70
$GPRMC,053836.000,A,3115.485975,N,12137.015259,E,2.4,325.984032511,200122,,E,A*28
$GPGGA,053837.000,3115.486422,N,12137.014399,E,1,19,0.8,15.6,M,,M,,*72
$GPRMC,053837.000,A,3115.486422,N,12137.014399,E,2.5,323.558768912,200122,,E,A*24
$GPGGA,053838.000,3115.487054,N,12137.014128,E,1,19,0.8,15.7,M,,M,,*70
$GPRMC,053838.000,A,3115.487054,N,12137.014128,E,2.5,322.71127903,200122,,E,A*15
$GPGGA,053839.000,3115.488250,N,12137.014360,E,1,19,0.8,15.7,M,,M,,*76
$GPRMC,053839.000,A,3115.488250,N,12137.014360,E,2.4,325.645883502,200122,,E,A*2E
$GPGGA,053840.000,3115.488987,N,12137.013795,E,1,19,0.8,15.8,M,,M,,*7F
$GPRMC,053840.000,A,3115.488987,N,12137.013795,E,2.5,319.573052957,200122,,E,A*28
$GPGGA,053841.000,3115.489340,N,12137.012970,E,1,19,0.8,15.6,M,,M,,*74
$GPRMC,053841.000,A,3115.489340,N,12137.012970,E,2.5,323.344109724,200122,,E,A*23
$GPGGA,053842.000,3115.489813,N,12137.012068,E,1,19,0.8,15.9,M,,M,,*75
$GPRMC,053842.000,A,3115.489813,N,12137.012068,E,2.5,329.972589825,200122,,E,A*2A
$GPGGA,053843.000,3115.489699,N,12137.011290,E,1,19,0.8,16.7,M,,M,,*73
$GPRMC,053843.000,A,3115.489699,N,12137.011290,E,2.2,326.317427709,200122,,E,A*24
$GPGGA,053844.000,3115.489747,N,12137.010110,E,1,19,0.8,17.2,M,,M,,*78
$GPRMC,053844.000,A,3115.489747,N,12137.010110,E,2.3,328.629036958,200122,,E,A*22
$GPGGA,053845.000,3115.489996,N,12137.009032,E,1,19,0.8,17.6,M,,M,,*76
$GPRMC,053845.000,A,3115.489996,N,12137.009032,E,2.5,335.50905926900003,200122,,E,A*10
$GPGGA,053846.000,3115.492035,N,12137.009686,E,1,19,0.8,18.2,M,,M,,*7D
