     3.03           OBSERVATION DATA    M: Mixed            RINEX VERSION / TYPE
rinex ON            NSL                 20190610 144916 UTC PGM / RUN BY / DATE
                                                            MARKER NAME
                                                            MARKER TYPE
rinex ON User                                               OBSERVER / AGENCY
 -2417158.7717  5385932.6722  2406534.1039                  APPROX POSITION XYZ
XXXXXXXX            Xiaomi              MI 8                REC # / TYPE / VERS
XXXXXXXX            MI 8                                    ANT # / TYPE
        0.0000        0.0000        0.0000                  APPROX POSITION XYZ
        0.0000        0.0000        0.0000                  ANTENNA: DELTA H/E/N
G    8 C1C L1C D1C S1C C5X L5X D5X S5X                      SYS / # / OBS TYPES
R    4 C1C L1C D1C S1C                                      SYS / # / OBS TYPES
E    8 C1C L1C D1C S1C C5X L5X D5X S5X                      SYS / # / OBS TYPES
C    4 C2I L2I D2I S2I                                      SYS / # / OBS TYPES
J    8 C1C L1C D1C S1C C5X L5X D5X S5X                      SYS / # / OBS TYPES
S    4 C1C L1C D1C S1C                                      SYS / # / OBS TYPES
  2019    06    10    06    49   39.0004536     GPS         TIME OF FIRST OBS
                                                            END OF HEADER
> 2019 06 10 06 49 39.0004536  0 17
G03  21867583.787       33019.173       -1183.686          39.904    21867585.885      119431.332        -883.969          40.916
G06  21842045.367      -40215.459        1435.034          31.159    21842041.769     -146121.194        1071.415          31.568
G17  22200181.934      -24744.777         889.537          24.458                                                            
G19  22602873.656      -40746.630        1462.031          31.535                                                            
G28  20308968.793      -17790.172         652.987          31.808                                                            
J01  37248143.247        6538.244        -231.641          29.287    37248142.947       36691.345        -173.059          31.240
J02  35998471.876        8080.815        -286.814          31.915    35998467.979       47493.032        -213.476          17.994
J04  39340774.349      -18033.404         648.833          36.407    39340777.646     -100659.863         484.376          36.757
C01  36761221.536        1398.616         -72.671          17.443                                                            
C07  35979297.750       17721.190        -674.135          22.317                                                            
C08  36547040.211       19587.162        -698.557          28.611                                                            
C10  36028417.845        2983.114        -106.311          26.513                                                            
C13  37148875.968       11630.937        -437.864          22.191                                                            
C21  23878833.528      -59516.161        2544.727          32.678                                                            
C22  23560045.020      -13747.514         528.729          32.351                                                            
C24  23099854.004       18302.533       -1010.840          24.644                                                            
C26  24079808.096       48258.286       -2912.469          21.136                                                            
> 2019 06 10 06 49 40.0004536  0 19
G03  21867806.233       34203.251       -1184.079          42.336    21867811.929      120315.509        -884.177          40.972
G06  21841784.847      -41650.280        1434.821          32.109    21841767.459     -147192.749        1071.555          30.882
G17  22200013.151      -25634.769         889.992          25.608                                                            
G19  22602601.445      -42209.229        1462.600          31.667                                                            
G28  20308847.977      -18442.790         652.618          32.907                                                            
J01  37248188.815        6769.477        -231.234          29.254    37248188.815       36864.127        -172.782          30.534
J02  35998528.837        8367.119        -286.304          31.743    35998522.841       47711.026        -216.539          17.425
J04  39340651.434      -18682.584         649.181          39.585    39340654.432     -101144.651         484.788          36.682
C01  36761247.318        1471.186         -72.131          21.477                                                            
C07  35979442.850       18393.855        -675.174          23.702                                                            
C08  36547173.618       20285.379        -698.217          30.412                                                            
C10  36028430.437        3093.559        -105.883          25.339                                                            
C13  37148946.420       12067.126        -425.927          27.232                                                            
C21  23878342.467      -62061.331        2545.170          30.221                                                            
C22  23559940.093      -14275.748         528.234          30.378                                                            
C24  23100039.875       19312.956       -1010.171          22.731                                                            
C26  24080362.712       51166.891       -2911.105          20.574                                                            
E13  24115170.715        2316.201        -744.389          20.801                                                            
E21  24206062.991       -1819.903         735.575          38.172    24206063.591      177758.054         556.087           9.296
> 2019 06 10 06 49 41.0004536  0 20
G03  21868034.675       35387.451       -1184.199          44.132    21868036.773      121199.846        -884.336          41.938
G06  21841509.038      -43085.050        1434.770          33.685    21841493.449     -148264.067        1071.318          30.893
G17  22199817.086      -26524.850         890.084          22.977                                                            
G19  22602327.135      -43671.882        1462.652          31.240                                                            
G28  20308725.962      -19095.505         652.714          34.371                                                            
J01  37248235.583        7000.517        -231.040          30.583    37248231.686       37036.618        -172.491          30.680
J02  35998579.502        8653.548        -286.429          31.590    35998583.699       47935.141        -219.673          16.977
J04  39340528.219      -19332.266         649.681          39.767    39340530.318     -101629.784         485.133          38.740
C01  36761248.517        1544.396         -72.886          23.198                                                            
C07  35979576.857       19066.513        -672.658          26.821                                                            
C08  36547305.827       20983.344        -697.964          31.456                                                            
C10  36028452.921        3199.666        -105.950          28.749                                                            
C13  37149027.064       12494.625        -427.499          29.987                                                            
C21  23877850.508      -64606.441        2545.109          29.878                                                            
C22  23559836.365      -14804.279         528.531          29.515                                                            
C24  23100195.168       20323.767       -1011.341          20.779                                                            
C26  24080943.110       54082.559       -2923.181          22.279                                                            
E13  24115337.999        3054.784        -741.844          20.567    24115323.309     -171284.015        -546.351          11.021
E21  24205920.890       -2563.836         743.934          39.527    24205910.397      177228.401         556.087          28.872
E27  23938259.588        5777.672       -1965.480          31.762                                                            
> 2019 06 10 06 49 42.0004536  0 21
G03  21868260.119       36571.994       -1184.544          45.169    21868261.018      122084.374        -884.529          40.892
G06  21841235.927      -44519.692        1434.642          32.685    21841220.038     -149335.529        1071.462          28.953
G17  22199613.527      -27410.467         892.163          21.720                                                            
G19  22602040.833      -45134.916        1463.034          31.325                                                            
G28  20308598.850      -19747.988         652.484          37.361                                                            
J01  37248276.055        7231.246        -230.729          28.466    37248277.254       37209.155        -172.538          29.591
J02  35998634.964        8939.575        -286.027          30.971    35998638.561       48146.808        -221.389          13.803
J04  39340408.002      -19982.383         650.117          39.380    39340406.803     -102115.278         485.494          39.805
C01  36761289.289        1615.385         -71.612          20.751                                                            
C07  35979702.470       19738.868        -673.131          25.713                                                            
C08  36547440.733       21680.909        -697.565          30.366                                                            
C10  36028475.106        3305.407        -105.741          29.987                                                            
C13  37149109.806       12921.568        -426.943          34.039                                                            
C21  23877366.343      -67151.826        2545.385          30.511                                                            
C22  23559739.232      -15332.580         528.301          31.061                                                            
C24  23100377.441       21338.863       -1010.493          22.527                                                            
C26  24081502.223       57002.982       -2922.969          22.395                                                            
E13  24115463.912        3795.337        -740.552          24.951    24115478.602     -170740.950        -553.568          21.246
E21  24205777.589       -3307.867         744.030          40.437    24205778.488      176661.335         554.227          37.243
E26  24494488.219       -2571.586         765.870          29.055                                                            
E27  23938637.026        7743.062       -1965.390          32.420    23938638.825     -491990.317       -1465.804          18.850
> 2019 06 10 06 49 43.0004536  0 21
G03  21868483.164       37757.031       -1185.036          43.732    21868487.061      122969.294        -884.920          41.386
G06  21840960.118      -45954.218        1434.527          32.344    21840947.826     -150406.719        1071.189          27.069
G17  22199437.549      -28297.612         891.664          19.881                                                            
G19  22601758.428      -46598.222        1463.306          31.978                                                            
G28  20308474.436      -20400.154         652.166          38.133                                                            
J01  37248326.120        7462.031        -230.853          25.100    37248320.125       37381.339        -172.183          27.253
J02  35998681.132        9225.441        -285.866          29.867    35998679.333       48350.733        -219.465          14.573
J04  39340281.490      -20632.660         650.277          38.224    39340282.989     -102600.892         485.614          40.349
C01  36761296.184        1686.020         -71.309          19.527                                                            
C07  35979828.083       20411.428        -673.260          25.784                                                            
C08  36547576.839       22378.368        -697.458          29.457                                                            
C10  36028496.391        3411.282        -105.875          30.975                                                            
C13  37149185.954       13348.598        -427.029          34.187                                                            
C21  23876874.084      -69697.196        2545.370          29.394                                                            
C22  23559634.904      -15860.357         527.776          29.907                                                            
C24  23100565.711       22351.888       -1008.015          21.963                                                            
C26  24082070.030       59923.267       -2920.285          26.122                                                            
E13  24115625.800        4538.015        -742.678          27.030    24115617.405     -170203.309        -550.891          23.662
E21  24205633.688       -4051.530         743.663          41.773    24205633.988      176105.919         555.373          39.367
E26  24494345.517       -3338.282         767.866          30.553    24494332.926      202526.399         575.599          10.869
E27  23939019.562        9708.607       -1965.545          34.971    23939019.262     -490522.492       -1467.529          26.775
> 2019 06 10 06 49 44.0004536  0 21
G03  21868711.606       38942.245       -1185.214          44.219    21868713.705      123854.413        -885.120          41.452
G06  21840672.917      -47388.745        1434.527          31.929    21840684.309     -151478.421        1074.066          22.718
G17  22199266.368      -29189.786         892.119          14.549                                                            
G19  22601474.225      -48061.900        1463.678          31.943                                                            
G28  20308351.221      -21052.009         651.855          38.171                                                            
J01  37248361.496        7692.178        -230.915          27.518    37248363.594       37553.222        -171.883          26.488
J02  35998738.692        9511.198        -285.950          28.019    35998740.191       48555.323        -213.180          18.063
J04  39340160.074      -21283.421         650.761          37.984    39340158.875     -103086.880         485.988          39.254
C01  36761295.285        1755.308         -70.529          23.179                                                            
C07  35979957.893       21083.613        -672.186          28.251                                                            
C08  36547710.247       23075.334        -696.966          26.477                                                            
C10  36028514.978        3517.168        -105.886          32.348                                                            
C13  37149278.290       13775.423        -426.825          35.622                                                            
C21  23876380.026      -72242.954        2545.759          27.706                                                            
C22  23559542.868      -16388.111         527.755          30.190                                                            
C24  23100790.555       23363.142       -1011.254          23.991                                                            
C26  24082621.648       62843.417       -2920.150          28.653                                                            
E13  24115758.308        5279.808        -741.793          25.609    24115756.209     -169668.629        -552.519          21.420
E21  24205492.186       -4794.939         743.410          41.643    24205493.685      175550.723         555.094          38.646
E26  24494197.720       -4104.069         764.959          26.272    24494207.913      201954.301         570.808          31.771
E27  23939390.405       11674.192       -1965.585          35.515    23939394.302     -489054.682       -1468.113          28.856
> 2019 06 10 06 49 45.0004536  0 22
G03  21868938.849       40128.018       -1185.774          44.678    21868937.949      124739.801        -885.387          41.930
G06  21840409.099      -48822.592        1433.847          33.336    21840406.701     -152549.975        1071.117          23.264
G17  22199190.520      -30088.978         890.617          18.336                                                            
G19  22601194.818      -49525.225        1463.325          30.384                                                            
G28  20308228.006      -21703.582         651.572          37.826                                                            
J01  37248406.165        7922.931        -230.753          28.977    37248407.064       37725.722        -172.500          23.427
J02  35998792.654        9797.375        -286.176          25.845    35998798.650       48759.578        -213.443          19.120
J04  39340036.260      -21934.563         651.142          36.981    39340034.761     -103572.920         486.040          38.466
C01  36761313.272        1825.637         -70.970          23.903                                                            
C03  36145125.550          97.734         -54.634          31.339                                                            
C07  35980085.905       21756.133        -672.519          29.299                                                            
C08  36547836.759       23773.156        -697.304          25.663                                                            
C10  36028535.064        3622.875        -105.707          33.760                                                            
C13  37149357.135       14202.094        -426.671          35.716                                                            
C21  23875893.163      -74788.201        2545.246          27.911                                                            
C22  23559442.437      -16915.760         527.649          31.797                                                            
C24  23100975.228       24375.295       -1015.068          24.932                                                            
C26  24083180.161       65763.504       -2920.087          28.850                                                            
E13  24115903.707        6021.264        -741.456          25.735    24115894.414     -169114.421        -554.826          19.475
E21  24205351.284       -5538.064         743.125          40.567    24205351.884      174995.903         554.820          39.406
E26  24494039.130       -4871.189         769.095          26.395    24494046.624      201382.015         572.285          31.999
E27  23939770.542       13640.293       -1966.101          35.104    23939766.644     -487586.509       -1468.398          28.872
> 2019 06 10 06 49 46.0004536  0 23
G03  21869163.693       41313.694       -1185.675          44.683    21869163.993      125625.207        -885.406          41.379
G06  21840132.691      -50256.968        1434.375          33.220    21840126.695     -153620.744        1071.438          24.700
G17  22199057.113      -30980.485         891.587          21.100                                                            
G19  22600911.814      -50989.472        1464.246          29.993                                                            
G28  20308100.894      -22355.443         651.861          37.397                                                            
J01  37248449.935        8152.923        -229.992          26.681    37248455.031       37897.513        -176.839          20.200
J02  35998853.213       10082.539        -285.165          30.430    35998851.714       48974.394        -213.312          18.600
J04  39339910.347      -22586.137         651.574          36.026    39339910.647     -104059.623         486.703          38.532
C01  36761327.063        1895.907         -69.513          19.920                                                            
C03  36145085.678          49.054         -54.634          20.747                                                            
C07  35980221.111       22427.987        -671.855          27.745                                                            
C08  36547977.362       24469.491        -696.334          29.650                                                            
C10  36028559.647        3727.963        -105.088          32.224                                                            
C13  37149436.880       14627.909        -425.814          34.684                                                            
C21  23875409.898      -77334.262        2546.061          29.448                                                            
C22  23559338.110      -17443.596         527.836          30.629                                                            
C24  23101158.101       25386.709       -1014.877          22.872                                                            
C26  24083741.073       68682.933       -2919.805          25.493                                                            
E13  24116041.612        6762.123        -740.858          27.215    24116041.012     -168561.165        -553.255          24.839
E14  19955499.695        6368.163       -3974.199          36.411                                                            
E21  24205207.384       -6281.621         743.557          40.352    24205209.182      174440.646         555.257          40.791
E26  24493918.913       -5637.928         766.739          28.443    24493903.923      200809.008         572.913          31.024
E27  23940141.385       15605.732       -1965.439          31.362    23940139.886     -486118.672       -1467.838          30.349
> 2019 06 10 06 49 47.0004536  0 23
G03  21869387.938       42499.130       -1185.436          45.131    21869388.537      126510.462        -885.255          41.072
G06  21839873.070      -51691.791        1434.823          34.040    21839854.783     -154692.055        1070.765          26.560
G17  22198882.933      -31873.369         892.760          21.701                                                            
G19  22600631.508      -52454.456        1464.984          30.208                                                            
G28  20307976.480      -23007.470         652.027          37.081                                                            
J01  37248495.803        8381.973        -229.816          25.637    37248496.403       38068.418        -170.047          19.357
J02  35998908.674       10367.023        -284.484          31.560    35998901.779       49184.881        -208.013          16.427
J04  39339784.134      -23238.830         652.692          36.181    39339785.933     -104546.968         487.345          38.832
C01  36761359.440        1966.273         -69.139          18.497                                                            
C03  36145097.070          49.092         -54.634          19.476                                                            
C07  35980350.622       23099.151        -671.592          26.903                                                            
C08  36548110.170       25165.106        -695.615          31.012                                                            
C10  36028578.534        3832.655        -104.692          31.667                                                            
C13  37149519.023       15053.358        -425.449          35.078                                                            
C21  23874920.636      -79881.137        2546.875          29.106                                                            
C22  23559238.579      -17971.651         528.056          30.661                                                            
C24  23101362.260       26397.942       -1012.813          24.856                                                            
C26  24084311.878       71599.892       -2923.668          22.528                                                            
E13  24116181.315        7502.354        -740.975          25.317    24116181.615     -168008.485        -552.680          27.153
E14  19956265.665       10343.052       -3974.889          36.319                                                            
E21  24205066.181       -7025.357         743.736          39.811    24205068.580      173885.267         555.379          40.751
E26  24493768.417       -6405.331         766.707          28.083    24493755.226      200236.065         572.943          29.847
E27  23940518.524       17570.849       -1965.117          30.585    23940514.627     -484651.213       -1467.459          31.071
> 2019 06 10 06 49 48.0004536  0 23
G03  21869612.482       43685.341       -1186.211          45.556    21869614.281      127396.288        -885.826          41.059
G06  21839597.861      -53126.037        1434.247          33.753    21839581.972     -155763.127        1071.072          26.654
G17  22198711.152      -32766.440         892.116          21.785                                                            
G19  22600350.003      -53919.390        1464.934          29.479                                                            
G28  20307854.765      -23658.954         651.484          37.300                                                            
J01  37248545.868        8611.425        -229.315          26.522    37248537.774       38239.726        -168.517          18.873
J02  35998960.538       10651.759        -284.736          34.212    35998954.243       49395.434        -209.613          13.476
J04  39339662.119      -23891.444         652.615          36.035    39339661.819     -105034.312         487.344          39.048
C01  36761371.732        2033.500         -71.912          18.793                                                            
C03  36145108.162          49.051         -52.683           7.000                                                            
C07  35980481.031       23770.720        -673.546          26.094                                                            
C08  36548243.877       25860.784        -695.677          31.674                                                            
C10  36028601.019        3937.397        -104.742          32.180                                                            
C13  37149601.466       15478.672        -425.314          34.510                                                            
C21  23874437.671      -82427.644        2546.507          29.507                                                            
C22  23559139.947      -18499.076         527.424          31.410                                                            
C24  23101565.519       27409.560       -1010.955          23.838                                                            
C26  24084870.091       74527.229       -2921.722          23.550                                                            
E13  24116321.318        8242.599        -740.245          24.574    24116322.517     -167455.636        -552.849          28.098
E14  19957002.255       14318.312       -3976.712          35.767    19957151.252      248082.026      -39804.849          15.756
E21  24204925.878       -7768.617         743.259          40.101    24204926.778      173330.253         555.015          40.569
E26  24493617.022       -7172.780         767.449          27.543    24493608.328      199662.925         573.140          29.003
E27  23940892.665       19536.411       -1965.562          30.280    23940888.768     -483183.389       -1467.824          31.054
> 2019 06 10 06 49 49.0004536  0 24
G03  21869840.924       44872.425       -1187.085          45.501    21869840.624      128282.728        -886.439          41.207
G06  21839325.050      -54559.679        1433.642          35.198    21839309.760     -156833.701        1070.574          27.298
G17  22198512.989      -33659.524         888.328          21.091                                                            
G19  22600074.194      -55384.054        1464.664          30.481                                                            
G28  20307729.451      -24309.582         650.628          36.423                                                            
G30  23322851.026          11.717       -2875.119          22.801                                                            
J01  37248583.342        8840.991        -230.469          26.362    37248581.244       38411.092        -168.351          18.402
J02  35999018.698       10936.946        -285.187          32.382    35999012.702       49595.479        -209.251          16.449
J04  39339535.906      -24543.899         652.455          37.058    39339538.604     -105521.565         487.252          39.358
C01  36761365.436        2101.649         -68.555          18.019                                                            
C03  36145119.854          49.052         -52.683           7.000                                                            
C07  35980612.041       24442.591        -671.871          25.146                                                            
C08  36548376.086       26556.772        -695.988          31.297                                                            
C10  36028619.306        4042.681        -105.284          31.447                                                            
C13  37149684.808       15904.497        -425.825          34.611                                                            
C21  23873943.013      -84973.783        2546.139          27.981                                                            
C22  23559038.017      -19025.855         526.779          33.724                                                            
C24  23101749.292       28422.005       -1012.446          26.572                                                            
C26  24085424.707       77446.610       -2920.329          25.615                                                            
E13  24116467.317        8983.299        -742.136          21.822    24116464.019     -166902.568        -553.068          27.872
E14  19957765.227       18294.803       -3976.491          35.966    19957752.635      250575.813       -2972.158          40.144
E21  24204785.875       -8511.105         742.489          40.710    24204785.576      172775.770         554.483          40.658
E26  24493474.021       -7939.703         766.923          30.447    24493464.727      199090.241         572.684          29.551
E27  23941277.898       21502.664       -1966.253          29.404    23941262.609     -481715.111       -1468.278          31.115
> 2019 06 10 06 49 50.0004536  0 25
G03  21870066.668       46061.473       -1189.047          44.603    21870066.668      129170.695        -887.967          40.711
G06  21839049.541      -55991.577        1431.898          35.339    21839036.050     -157903.018        1069.317          25.753
G17  22198352.001      -34550.814         888.607          19.341                                                            
G19  22599793.588      -56847.599        1463.546          28.389                                                            
G28  20307608.335      -24958.477         648.895          38.519                                                            
G30  23323396.948          11.604       -2875.119          21.888                                                            
R14  20076868.873      -20660.877         510.418          39.913                                                            
J01  37248624.714        9072.020        -232.079          25.556    37248628.311       38583.665        -172.306          22.318
J02  35999070.862       11223.355        -286.409          31.486    35999063.367       49806.392        -208.642          17.193
J04  39339418.088      -25195.086         651.187          36.173    39339414.490     -106007.866         486.302          39.643
C01  36761393.317        2169.351         -69.379          12.968                                                            
C03  36145130.647          49.050         -52.683           7.000                                                            
C07  35980741.851       25115.882        -674.095          27.608                                                            
C08  36548508.294       27254.086        -697.314          30.517                                                            
C10  36028640.291        4149.346        -106.665          32.166                                                            
C13  37149760.656       16331.571        -427.074          34.613                                                            
C21  23873455.850      -87518.591        2544.808          28.771                                                            
C22  23558941.784      -19550.832         524.977          33.272                                                            
C24  23101952.551       29436.139       -1014.133          25.639                                                            
C26  24085984.720       80367.474       -2922.208          27.074                                                            
E13  24116598.027        9725.256        -741.957          26.708    24116605.521     -166348.568        -554.001          26.536
E14  19958522.502       22273.224       -3978.422          39.037    19958524.901      253546.708       -2971.342          41.493
E21  24204645.273       -9251.949         740.844          41.944    24204644.074      172222.529         553.240          40.691
E26  24493329.221       -8705.158         765.455          29.644    24493318.129      198518.565         571.676          30.267
E27  23941639.748       23470.502       -1967.839          32.981    23941637.050     -480245.624       -1469.488          30.858
> 2019 06 10 06 49 51.0004536  0 23
G01  23894708.438        6471.670       -3223.363          21.709    23894698.544        4826.413       -2414.189          21.073
G02  25044962.933       -4372.143        2185.998          26.366                                                            
G03  21870294.510       47251.117       -1189.644          44.799    21870293.011      130059.036        -888.341          40.794
G06  21838787.222      -57423.010        1431.433          35.148    21838766.237     -158971.887        1068.869          28.408
G17  22198162.232      -35445.292         890.684          19.930                                                            
G19  22599517.480      -58310.777        1463.178          30.668                                                            
G28  20307479.125      -25606.751         648.274          36.674                                                            
G30  23323972.850        2313.119       -2875.118          19.305    23323957.260       12822.473       -2136.593          19.172
R14  20076787.030      -21170.269         509.392          39.653                                                            
R23  22393033.326       49815.245       -1805.181          24.294                                                            
J01  37248663.987        9303.226        -230.557          24.674    37248672.381       38756.377        -172.713          21.766
J02  35999119.428       11510.053        -286.698          31.899    35999118.229       50011.724        -213.787          18.801
J04  39339289.477      -25846.451         651.365          36.585    39339290.676     -106494.202         486.336          39.602
C01  36761396.914        2240.038         -69.912          13.224                                                            
C03  36145157.328          91.899         -57.878           7.000                                                            
C07  35980873.160       25789.415        -674.119          25.297                                                            
C08  36548642.301       27950.907        -696.821          29.904                                                            
C10  36028660.977        4256.246        -106.900          31.239                                                            
C13  37149846.996       16758.758        -427.187          34.417                                                            
C21  23872961.493      -90063.151        2544.560          28.655                                                            
C22  23558836.857      -20075.331         524.499          34.878                                                            
C24  23102136.923       30450.932       -1014.793          26.750                                                            
C26  24086543.533       83288.292       -2920.818          28.138                                                            
> 2019 06 10 06 49 52.0004536  0 32
G01  23895360.786        9689.286       -3224.742          19.117    23895311.920        7230.342       -2412.622          16.021
G02  25044550.419       -6558.613        2186.470          25.587                                                            
G03  21870519.355       48440.841       -1189.724          45.367    21870519.654      130947.459        -888.423          40.110
G06  21838509.015      -58854.640        1431.630          35.619    21838492.226     -160040.959        1070.331          26.695
G07  24936362.216        6136.415       -3075.758          19.176                                                            
G09  25278793.256         -41.879        1309.267          10.431                                                            
G11  24239488.052        5154.465       -2577.156          22.114                                                            
G17  22198002.443      -36338.757         891.789          22.265                                                            
G19  22599238.373      -59774.692        1463.915          28.596                                                            
G22  23733310.671           4.436       -2447.803          18.291                                                            
G23  25580112.257         -32.186        1082.926           7.000                                                            
G28  20307360.407      -26255.163         648.412          38.794                                                            
G30  23324532.862        5184.371       -2874.080          23.743    23324505.281       14955.800       -2141.586          14.121
R14  20076684.800      -21679.375         509.106          40.157                                                            
R23  22393364.596       51619.596       -1806.583          23.584                                                            
J01  37248713.452        9533.772        -230.546          26.232    37248718.849       38928.523        -172.145          21.766
J02  35999175.789       11796.301        -286.248          30.956    35999176.689       50215.627        -212.022          19.598
J04  39339167.161      -26498.360         651.909          35.970    39339166.262     -106981.028         486.826          39.431
C01  36761427.493        2311.322         -69.354           8.172                                                            
C02  37228535.921           0.043         -21.463           7.000                                                            
C03  36145180.412         145.493         -57.861          20.840                                                            
C06  40196882.677          -9.797         807.804           7.000                                                            
C07  35981001.771       26462.507        -673.092          28.323                                                            
C08  36548776.908       28647.711        -696.804          30.320                                                            
C10  36028681.363        4362.797        -106.551          31.828                                                            
C11  25784639.366         -34.143        1229.267           7.000                                                            
C12  22802242.236           3.568        -392.195          19.491                                                            
C13  37149928.540       17185.533        -426.775          34.658                                                            
C21  23872476.728      -92608.169        2545.018          28.703                                                            
C22  23558740.623      -20599.896         524.564          34.158                                                            
C24  23102331.789       31465.530       -1012.766          23.933                                                            
C26  24087104.445       86208.311       -2920.018          27.526                                                            
> 2019 06 10 06 49 53.0004536  0 32
G01  23895999.644       12913.502       -3232.695          20.590    23895925.895        9640.262       -2420.377          11.898
G02  25044137.904       -8746.379        2187.766          24.414                                                            
G03  21870745.398       49629.518       -1188.678          44.609    21870746.597      131835.100        -887.641          40.330
G06  21838238.902      -60287.512        1432.872          35.607    21838219.715     -161111.051        1070.092          27.411
G07  24936954.905        9204.662       -3075.502          18.394                                                            
G09  25278543.528         -41.910        1309.267           7.000                                                            
G11  24239980.011        7729.442       -2576.758          19.696                                                            
G17  22197838.756      -37232.680         893.923          23.187                                                            
G19  22598961.964      -61240.218        1465.526          29.260                                                            
G22  23733776.848           4.341       -2448.778           7.000                                                            
G23  25579905.100         -32.211        1082.926          18.108                                                            
G28  20307237.192      -26904.778         649.615          37.593                                                            
G30  23325091.975        8061.276       -2879.696          22.017    23325048.505       17090.099       -2150.179          11.042
R14  20076606.854      -22189.441         510.066          40.075                                                            
R23  22393723.748       53422.253       -1804.241          23.858                                                            
J01  37248759.321        9763.131        -230.304          25.267    37248757.522       39099.626        -171.103          21.509
J02  35999232.150       12080.919        -284.618          31.449    35999227.953       50420.379        -214.028          20.455
J04  39339037.951      -27152.039         653.678          36.701    39339042.148     -107469.208         488.180          39.088
C01  36761435.588        2381.154         -70.251          14.985                                                            
C02  37228539.818           0.042         -21.463           7.000                                                            
C03  36145207.693         199.816         -54.802          20.620                                                            
C06  40196726.485          -9.816         807.804           7.000                                                            
C07  35981130.382       27134.211        -671.703          27.295                                                            
C08  36548911.815       29342.803        -695.092          30.504                                                            
C10  36028698.151        4467.709        -104.912          30.376                                                            
C11  25784402.530         -34.172        1229.267           7.000                                                            
C12  22802317.184           3.553        -392.195          20.512                                                            
C13  37150009.783       17610.454        -424.920          34.435                                                            
C21  23871982.970      -95154.689        2546.520          27.780                                                            
C22  23558636.895      -21125.712         525.816          35.268                                                            
C24  23102516.161       32478.923       -1013.935          24.679                                                            
C26  24087671.352       89127.191       -2918.881          25.995                                                            
> 2019 06 10 06 49 54.0004536  0 32
G01  23896628.009       16148.460       -3238.143          21.580    23896532.675       12048.495       -2409.764          12.640
G02  25043727.488      -10933.554        2190.042          22.973                                                            
G03  21870971.442       50819.408       -1189.889          43.811    21870972.341      132723.737        -888.637          40.645
G06  21837969.988      -61719.468        1431.956          33.702    21837948.703     -162180.150        1069.099          26.880
G07  24937537.102       12271.109       -3074.539          17.626                                                            
G09  25278292.602         -41.972        1311.218           7.000                                                            
G11  24240464.775       10306.101       -2578.293          18.918                                                            
G17  22197683.164      -38123.589         895.285          22.084                                                            
G19  22598681.658      -62705.255        1465.036          28.672                                                            
G22  23734241.227           4.397       -2446.827           7.000                                                            
G23  25579697.644         -32.266        1084.877          12.747                                                            
G28  20307114.277      -27553.126         648.347          38.119                                                            
G30  23325639.995       10937.457       -2877.739          23.612    23325590.230       19220.838       -2138.461          10.322
R14  20076515.418      -22697.749         508.309          40.821                                                            
R23  22394063.113       55219.896       -1801.091          22.240                                                            
J01  37248802.491        9992.521        -231.181          24.431    37248802.191       39271.096        -171.470          23.269
J02  35999277.719       12366.252        -285.333          32.106    35999287.012       50637.673        -213.486          20.454
J04  39338914.436      -27805.214         653.176          35.960    39338918.034     -107956.921         487.713          39.911
C01  36761447.280        2450.239         -70.251          13.444                                                            
C02  37228542.516           0.039         -19.512          15.428                                                            
C03  36145171.119         252.954         -54.628          20.214                                                            
C06  40196569.694          -9.846         809.755           7.000                                                            
C07  35981256.894       27806.538        -672.327          26.566                                                            
C08  36549043.124       30038.580        -695.778          30.170                                                            
C10  36028717.338        4573.593        -105.884          30.409                                                            
C11  25784164.494         -34.228        1231.218           7.000                                                            
C12  22802391.533           3.562        -392.195          19.103                                                            
C13  37150087.130       18036.489        -426.036          34.265                                                            
C21  23871493.409      -97700.603        2545.913          29.365                                                            
C22  23558536.165      -21650.338         524.626          33.988                                                            
C24  23102706.229       33492.967       -1011.774          22.702                                                            
C26  24088226.868       92046.750       -2919.559          27.915                                                            
> 2019 06 10 06 49 55.0004536  0 32
G01  23897251.877       19394.277       -3236.884          19.027    23897155.344       14464.334       -2403.571           7.588
G02  25043302.083      -13118.895        2185.341          26.313                                                            
G03  21871197.185       52011.530       -1192.122          44.173    21871198.984      133613.912        -890.175          40.625
G06  21837694.179      -63149.257        1429.789          34.316    21837674.393     -163247.790        1067.639          25.581
G07  24938150.178       15335.657       -3066.254          16.953                                                            
G09  25278041.976         -41.921        1311.218           7.000                                                            
G11  24240971.425       12884.678       -2581.107          19.775                                                            
G17  22197506.886      -39018.004         895.430          18.237                                                            
G19  22598401.952      -64168.213        1462.959          28.548                                                            
G22  23734706.205           4.302       -2447.803          10.946                                                            
G23  25579490.487         -32.223        1084.877           7.000                                                            
G28  20306991.063      -28199.345         646.220          38.867                                                            
G30  23326195.811       13815.457       -2878.257          23.998    23326145.446       21369.646       -2140.576           7.000
R14  20076405.094      -23203.551         505.802          40.971                                                            
R23  22394409.973       57016.497       -1804.702          20.216                                                            
J01  37248850.457       10224.065        -231.752          25.195    37248845.661       39443.945        -172.849          25.510
J02  35999332.581       12653.599        -287.346          30.524    35999337.977       50858.461        -213.093          21.946
J04  39338793.320      -28456.784         651.570          36.062    39338793.320     -108443.485         486.563          39.600
C01  36761463.468        2518.152         -68.299          12.153                                                            
C02  37228546.414           0.038         -19.512           7.000                                                            
C03  36145208.893         305.031         -52.894          21.972                                                            
C06  40196413.502          -9.815         809.755           7.000                                                            
C07  35981384.006       28480.828        -674.290          27.317                                                            
C08  36549178.930       30736.010        -697.429          30.716                                                            
C10  36028743.120        4681.289        -107.696          32.328                                                            
C11  25783927.658         -34.180        1231.218           7.000                                                            
C12  22802466.481           3.547        -392.195          12.776                                                            
C13  37150178.567       18464.120        -427.631          34.400                                                            
C21  23871003.848     -100244.425        2543.630          28.744                                                            
C22  23558428.539      -22172.984         522.646          31.349                                                            
C24  23102915.484       34509.287       -1015.795          22.105                                                            
C26  24088782.983       94968.142       -2921.392          29.666                                                            
> 2019 06 10 06 49 56.0004536  0 32
G01  23897862.854       22633.425       -3234.354          17.247    23897769.319       16873.859       -2391.757           7.000
G02  25042893.765      -15304.418        2185.523          27.784                                                            
G03  21871420.830       53203.472       -1191.942          43.685    21871426.526      134503.992        -890.080          41.040
G06  21837430.062      -64579.524        1430.267          35.944    21837405.179     -164315.930        1068.140          28.241
G07  24938706.293       18403.124       -3077.174          16.093                                                            
G09  25277793.748         -41.936        1310.243           7.000                                                            
G11  24241462.485       15462.343       -2580.968          20.011                                                            
G17  22197334.805      -39914.133         894.402          17.007                                                            
G19  22598142.032      -65632.248        1464.035          30.614                                                            
G22  23735173.581           4.361       -2449.754          16.221                                                            
G23  25579285.729         -32.220        1082.926           7.000                                                            
G28  20306865.749      -28845.936         646.591          37.311                                                            
G30  23326752.825       16693.407       -2876.693          23.153    23326690.168       23506.266       -2152.199           7.000
R14  20076321.452      -23709.345         505.794          41.217                                                            
R23  22394770.323       58818.165       -1803.351          18.871                                                            
J01  37248893.927       10454.894        -230.829          26.252    37248889.430       39616.132        -170.624          24.543
J02  35999399.434       12940.082        -286.483          31.300    35999393.738       51077.478        -211.382          21.675
J04  39338668.307      -29109.200         652.415          37.015    39338668.906     -108930.811         487.326          39.033
C01  36761480.557        2588.217         -68.299          17.608                                                            
C02  37228552.110           0.042         -21.463           7.000                                                            
C03  36145233.775         359.298         -53.188          20.686                                                            
C06  40196259.109          -9.834         809.755           7.000                                                            
C07  35981519.512       29154.304        -673.477          26.926                                                            
C08  36549310.839       31432.580        -696.571          30.798                                                            
C10  36028766.204        4788.170        -106.881          31.440                                                            
C11  25783692.921         -34.182        1229.267           7.000                                                            
C12  22802543.228           3.556        -392.195           7.000                                                            
C13  37150251.116       18890.863        -426.743          33.688                                                            
C21  23870510.989     -102788.983        2544.558          26.965                                                            
C22  23558328.409      -22695.955         522.970          32.313                                                            
C24  23103115.146       35525.538       -1016.251          26.257                                                            
C26  24089346.592       97888.539       -2917.683          28.603                                                            
> 2019 06 10 06 49 57.0004536  0 32
G01  23898473.231       25877.111       -3240.093          14.119    23898383.294       19280.680       -2409.764           7.966
G02  25042473.756      -17491.004        2186.586          26.772                                                            
G03  21871653.469       54394.767       -1191.295          42.798    21871652.870      135393.578        -889.586          42.153
G06  21837155.452      -66010.627        1431.104          34.685    21837131.169     -165384.470        1068.540          29.187
G07  24939289.689        3119.995       -3069.265          17.572                                                            
G09  25277544.020         -41.885        1310.243           7.000                                                            
G11  24241957.742       18038.743       -2577.046          23.573                                                            
G17  22197160.326      -40811.924         894.409          13.842                                                            
G19  22597862.325      -67097.445        1465.198          31.731                                                            
G22  23735640.658        1959.714       -2436.130          14.012                                                            
G23  25579079.772         -32.177        1082.926          11.660                                                            
G28  20306742.235      -29493.219         647.283          36.460                                                            
