$GPGGA,101509.000,3113.600709,N,12131.759406,E,1,19,0.8,13.8,M,,M,,*75
$GPRMC,101509.000,A,3113.600709,N,12131.759406,E,0.2,278.919739221,130122,,E,A*27
$GPGGA,101510.000,3113.600570,N,12131.759276,E,1,19,0.8,13.4,M,,M,,*7C
$GPRMC,101510.000,A,3113.600570,N,12131.759276,E,0.3,278.919739221,130122,,E,A*23
$GPGGA,101511.000,3113.600581,N,12131.759093,E,1,19,0.8,13.3,M,,M,,*7D
$GPRMC,101511.000,A,3113.600581,N,12131.759093,E,0.4,278.919739221,130122,,E,A*22
$GPGGA,101512.000,3113.601850,N,12131.755867,E,1,19,0.8,11.0,M,,M,,*70
$GPRMC,101512.000,A,3113.601850,N,12131.755867,E,0.9,278.919739221,130122,,E,A*23
$GPGGA,101513.000,3113.602493,N,12131.755635,E,1,19,0.8,9.9,M,,M,,*48
$GPRMC,101513.000,A,3113.602493,N,12131.755635,E,0.5,278.919739221,130122,,E,A*27
$GPGGA,101514.000,3113.602452,N,12131.755549,E,1,19,0.8,9.2,M,,M,,*41
$GPRMC,101514.000,A,3113.602452,N,12131.755549,E,0.4,278.919739221,130122,,E,A*24
$GPGGA,101515.000,3113.602110,N,12131.755172,E,1,19,0.8,9.0,M,,M,,*4D
$GPRMC,101515.000,A,3113.602110,N,12131.755172,E,0.6,278.919739221,130122,,E,A*28
$GPGGA,101516.000,3113.602042,N,12131.754983,E,1,19,0.8,9.0,M,,M,,*4F
$GPRMC,101516.000,A,3113.602042,N,12131.754983,E,0.5,278.919739221,130122,,E,A*29
$GPGGA,101517.000,3113.601930,N,12131.754634,E,1,19,0.8,9.4,M,,M,,*46
$GPRMC,101517.000,A,3113.601930,N,12131.754634,E,0.5,278.919739221,130122,,E,A*24
$GPGGA,101518.000,3113.602002,N,12131.754508,E,1,19,0.8,9.6,M,,M,,*4C
$GPRMC,101518.000,A,3113.602002,N,12131.754508,E,0.5,278.919739221,130122,,E,A*2C
$GPGGA,101519.000,3113.601725,N,12131.754648,E,1,19,0.8,10.1,M,,M,,*74
$GPRMC,101519.000,A,3113.601725,N,12131.754648,E,0.5,278.919739221,130122,,E,A*2B
$GPGGA,101520.000,3113.601707,N,12131.754661,E,1,19,0.8,10.1,M,,M,,*75
$GPRMC,101520.000,A,3113.601707,N,12131.754661,E,0.1,278.919739221,130122,,E,A*2E
$GPGGA,101521.000,3113.601744,N,12131.754635,E,1,19,0.8,10.1,M,,M,,*72
$GPRMC,101521.000,A,3113.601744,N,12131.754635,E,0.2,278.919739221,130122,,E,A*2A
$GPGGA,101522.000,3113.601693,N,12131.754591,E,1,19,0.8,10.1,M,,M,,*77
$GPRMC,101522.000,A,3113.601693,N,12131.754591,E,0.5,278.919739221,130122,,E,A*28
$GPGGA,101523.000,3113.601598,N,12131.754611,E,1,19,0.8,10.4,M,,M,,*70
$GPRMC,101523.000,A,3113.601598,N,12131.754611,E,0.3,278.919739221,130122,,E,A*2C
$GPGGA,101524.000,3113.601558,N,12131.754588,E,1,19,0.8,10.3,M,,M,,*7F
$GPRMC,101524.000,A,3113.601558,N,12131.754588,E,0.3,278.919739221,130122,,E,A*24
$GPGGA,101525.000,3113.601563,N,12131.754587,E,1,19,0.8,10.2,M,,M,,*78
$GPRMC,101525.000,A,3113.601563,N,12131.754587,E,0.1,278.919739221,130122,,E,A*20
$GPGGA,101526.000,3113.601557,N,12131.754563,E,1,19,0.8,9.9,M,,M,,*45
$GPRMC,101526.000,A,3113.601557,N,12131.754563,E,0.2,278.919739221,130122,,E,A*2D
$GPGGA,101527.000,3113.601484,N,12131.754559,E,1,19,0.8,9.6,M,,M,,*4D
$GPRMC,101527.000,A,3113.601484,N,12131.754559,E,0.2,278.919739221,130122,,E,A*2A
$GPGGA,101528.000,3113.601450,N,12131.754613,E,1,19,0.8,10.0,M,,M,,*78
$GPRMC,101528.000,A,3113.601450,N,12131.754613,E,0.1,278.919739221,130122,,E,A*22
$GPGGA,101529.000,3113.601784,N,12131.754588,E,1,19,0.8,11.6,M,,M,,*75
$GPRMC,101529.000,A,3113.601784,N,12131.754588,E,0.3,278.919739221,130122,,E,A*2A
$GPGGA,101530.000,3113.602003,N,12131.754495,E,1,19,0.8,12.8,M,,M,,*76
$GPRMC,101530.000,A,3113.602003,N,12131.754495,E,0.1,278.919739221,130122,,E,A*26
$GPGGA,101531.000,3113.602048,N,12131.754484,E,1,19,0.8,13.2,M,,M,,*73
$GPRMC,101531.000,A,3113.602048,N,12131.754484,E,0.2,278.919739221,130122,,E,A*2B
$GPGGA,101532.000,3113.602073,N,12131.754552,E,1,19,0.8,13.8,M,,M,,*78
$GPRMC,101532.000,A,3113.602073,N,12131.754552,E,0.2,278.919739221,130122,,E,A*2A
$GPGGA,101533.000,3113.602068,N,12131.754510,E,1,19,0.8,13.9,M,,M,,*74
$GPRMC,101533.000,A,3113.602068,N,12131.754510,E,0.1,278.919739221,130122,,E,A*24
$GPGGA,101534.000,3113.602061,N,12131.754494,E,1,19,0.8,13.9,M,,M,,*77
$GPRMC,101534.000,A,3113.602061,N,12131.754494,E,0.0,278.919739221,130122,,E,A*26
$GPGGA,101535.000,3113.602065,N,12131.754450,E,1,19,0.8,14.2,M,,M,,*76
$GPRMC,101535.000,A,3113.602065,N,12131.754450,E,0.3,278.919739221,130122,,E,A*28
$GPGGA,101536.000,3113.601999,N,12131.754438,E,1,19,0.8,14.6,M,,M,,*76
$GPRMC,101536.000,A,3113.601999,N,12131.754438,E,0.0,278.919739221,130122,,E,A*2F
$GPGGA,101537.000,3113.601827,N,12131.754223,E,1,19,0.8,15.7,M,,M,,*7F
$GPRMC,101537.000,A,3113.601827,N,12131.754223,E,0.2,278.919739221,130122,,E,A*24
$GPGGA,101538.000,3113.601700,N,12131.754077,E,1,19,0.8,16.6,M,,M,,*7B
$GPRMC,101538.000,A,3113.601700,N,12131.754077,E,0.1,278.919739221,130122,,E,A*21
$GPGGA,101539.000,3113.601642,N,12131.754099,E,1,19,0.8,16.8,M,,M,,*73
$GPRMC,101539.000,A,3113.601642,N,12131.754099,E,0.4,278.919739221,130122,,E,A*22
$GPGGA,101540.000,3113.601574,N,12131.754106,E,1,19,0.8,16.8,M,,M,,*7C
$GPRMC,101540.000,A,3113.601574,N,12131.754106,E,0.1,278.919739221,130122,,E,A*28
$GPGGA,101541.000,3113.601526,N,12131.754025,E,1,19,0.8,17.1,M,,M,,*72
$GPRMC,101541.000,A,3113.601526,N,12131.754025,E,0.1,278.919739221,130122,,E,A*2E
$GPGGA,101542.000,3113.601512,N,12131.753879,E,1,19,0.8,18.0,M,,M,,*7E
$GPRMC,101542.000,A,3113.601512,N,12131.753879,E,0.5,278.919739221,130122,,E,A*28
$GPGGA,101543.000,3113.601457,N,12131.753793,E,1,19,0.8,18.2,M,,M,,*76
$GPRMC,101543.000,A,3113.601457,N,12131.753793,E,0.1,278.919739221,130122,,E,A*26
$GPGGA,101544.000,3113.601434,N,12131.753754,E,1,19,0.8,18.4,M,,M,,*79
$GPRMC,101544.000,A,3113.601434,N,12131.753754,E,0.2,278.919739221,130122,,E,A*2C
$GPGGA,101545.000,3113.601431,N,12131.753716,E,1,19,0.8,18.5,M,,M,,*7A
$GPRMC,101545.000,A,3113.601431,N,12131.753716,E,0.2,278.919739221,130122,,E,A*2E
$GPGGA,101546.000,3113.601440,N,12131.753703,E,1,19,0.8,18.5,M,,M,,*7B
$GPRMC,101546.000,A,3113.601440,N,12131.753703,E,0.1,278.919739221,130122,,E,A*2C
$GPGGA,101547.000,3113.601426,N,12131.753692,E,1,19,0.8,18.6,M,,M,,*70
$GPRMC,101547.000,A,3113.601426,N,12131.753692,E,0.1,278.919739221,130122,,E,A*24
$GPGGA,101548.000,3113.601393,N,12131.753754,E,1,19,0.8,18.6,M,,M,,*7D
$GPRMC,101548.000,A,3113.601393,N,12131.753754,E,0.2,278.919739221,130122,,E,A*2A
$GPGGA,101549.000,3113.601364,N,12131.753728,E,1,19,0.8,18.7,M,,M,,*7E
$GPRMC,101549.000,A,3113.601364,N,12131.753728,E,0.6,278.919739221,130122,,E,A*2C
$GPGGA,101550.000,3113.601390,N,12131.753676,E,1,19,0.8,19.0,M,,M,,*71
$GPRMC,101550.000,A,3113.601390,N,12131.753676,E,0.2,278.919739221,130122,,E,A*21
$GPGGA,101551.000,3113.601579,N,12131.753920,E,1,19,0.8,18.5,M,,M,,*79
$GPRMC,101551.000,A,3113.601579,N,12131.753920,E,0.1,278.919739221,130122,,E,A*2E
$GPGGA,101552.000,3113.601642,N,12131.754022,E,1,19,0.8,18.3,M,,M,,*7B
$GPRMC,101552.000,A,3113.601642,N,12131.754022,E,0.3,278.919739221,130122,,E,A*28
$GPGGA,101553.000,3113.601670,N,12131.754191,E,1,19,0.8,17.7,M,,M,,*79
$GPRMC,101553.000,A,3113.601670,N,12131.754191,E,0.6,278.919739221,130122,,E,A*24
$GPGGA,101554.000,3113.601685,N,12131.754327,E,1,19,0.8,17.4,M,,M,,*78
$GPRMC,101554.000,A,3113.601685,N,12131.754327,E,0.2,278.919739221,130122,,E,A*22
$GPGGA,101555.000,3113.601715,N,12131.754438,E,1,19,0.8,17.3,M,,M,,*7F
$GPRMC,101555.000,A,3113.601715,N,12131.754438,E,0.2,278.919739221,130122,,E,A*22
$GPGGA,101556.000,3113.601825,N,12131.754427,E,1,19,0.8,16.0,M,,M,,*7C
$GPRMC,101556.000,A,3113.601825,N,12131.754427,E,0.1,278.919739221,130122,,E,A*20
$GPGGA,101557.000,3113.601865,N,12131.754432,E,1,19,0.8,16.4,M,,M,,*79
$GPRMC,101557.000,A,3113.601865,N,12131.754432,E,0.1,278.919739221,130122,,E,A*21
$GPGGA,101558.000,3113.601812,N,12131.754461,E,1,19,0.8,16.6,M,,M,,*72
$GPRMC,101558.000,A,3113.601812,N,12131.754461,E,0.2,278.919739221,130122,,E,A*2B
$GPGGA,101559.000,3113.601825,N,12131.754402,E,1,19,0.8,16.5,M,,M,,*71
$GPRMC,101559.000,A,3113.601825,N,12131.754402,E,0.2,278.919739221,130122,,E,A*2B
$GPGGA,101600.000,3113.601838,N,12131.754339,E,1,19,0.8,16.5,M,,M,,*7D
$GPRMC,101600.000,A,3113.601838,N,12131.754339,E,0.2,278.919739221,130122,,E,A*27
$GPGGA,101601.000,3113.601780,N,12131.754174,E,1,19,0.8,16.6,M,,M,,*78
$GPRMC,101601.000,A,3113.601780,N,12131.754174,E,0.4,278.919739221,130122,,E,A*27
$GPGGA,101602.000,3113.601796,N,12131.754105,E,1,19,0.8,16.9,M,,M,,*75
$GPRMC,101602.000,A,3113.601796,N,12131.754105,E,0.3,278.919739221,130122,,E,A*22
$GPGGA,101603.000,3113.601819,N,12131.754095,E,1,19,0.8,17.0,M,,M,,*7C
$GPRMC,101603.000,A,3113.601819,N,12131.754095,E,0.1,278.919739221,130122,,E,A*21
$GPGGA,101604.000,3113.601789,N,12131.754040,E,1,19,0.8,17.0,M,,M,,*75
$GPRMC,101604.000,A,3113.601789,N,12131.754040,E,0.2,278.919739221,130122,,E,A*2B
$GPGGA,101605.000,3113.601881,N,12131.754179,E,1,19,0.8,16.9,M,,M,,*70
$GPRMC,101605.000,A,3113.601881,N,12131.754179,E,0.2,278.919739221,130122,,E,A*26
$GPGGA,101606.000,3113.601941,N,12131.755081,E,1,19,0.8,14.1,M,,M,,*73
$GPRMC,101606.000,A,3113.601941,N,12131.755081,E,0.2,278.919739221,130122,,E,A*2F
$GPGGA,101607.000,3113.602197,N,12131.755417,E,1,19,0.8,12.8,M,,M,,*76
$GPRMC,101607.000,A,3113.602197,N,12131.755417,E,0.1,278.919739221,130122,,E,A*26
$GPGGA,101608.000,3113.602150,N,12131.755619,E,1,19,0.8,11.9,M,,M,,*7C
$GPRMC,101608.000,A,3113.602150,N,12131.755619,E,0.2,278.919739221,130122,,E,A*2D
$GPGGA,101609.000,3113.602124,N,12131.755622,E,1,19,0.8,11.5,M,,M,,*7A
$GPRMC,101609.000,A,3113.602124,N,12131.755622,E,0.1,278.919739221,130122,,E,A*24
$GPGGA,101610.000,3113.602089,N,12131.755599,E,1,19,0.8,11.1,M,,M,,*73
$GPRMC,101610.000,A,3113.602089,N,12131.755599,E,0.2,278.919739221,130122,,E,A*2A
$GPGGA,101611.000,3113.602087,N,12131.755633,E,1,19,0.8,10.8,M,,M,,*77
$GPRMC,101611.000,A,3113.602087,N,12131.755633,E,0.2,278.919739221,130122,,E,A*26
$GPGGA,101612.000,3113.602127,N,12131.755599,E,1,19,0.8,11.2,M,,M,,*77
$GPRMC,101612.000,A,3113.602127,N,12131.755599,E,0.1,278.919739221,130122,,E,A*2E
$GPGGA,101613.000,3113.602207,N,12131.755513,E,1,19,0.8,11.3,M,,M,,*74
$GPRMC,101613.000,A,3113.602207,N,12131.755513,E,0.2,278.919739221,130122,,E,A*2F
$GPGGA,101614.000,3113.602233,N,12131.755481,E,1,19,0.8,11.2,M,,M,,*7F
$GPRMC,101614.000,A,3113.602233,N,12131.755481,E,0.2,278.919739221,130122,,E,A*25
$GPGGA,101615.000,3113.602210,N,12131.755515,E,1,19,0.8,11.1,M,,M,,*70
$GPRMC,101615.000,A,3113.602210,N,12131.755515,E,0.2,278.919739221,130122,,E,A*29
$GPGGA,101616.000,3113.602324,N,12131.755620,E,1,19,0.8,11.7,M,,M,,*76
$GPRMC,101616.000,A,3113.602324,N,12131.755620,E,0.2,278.919739221,130122,,E,A*29
$GPGGA,101617.000,3113.602332,N,12131.755588,E,1,19,0.8,12.0,M,,M,,*75
$GPRMC,101617.000,A,3113.602332,N,12131.755588,E,0.2,278.919739221,130122,,E,A*2E
$GPGGA,101618.000,3113.602400,N,12131.755634,E,1,19,0.8,12.5,M,,M,,*7D
$GPRMC,101618.000,A,3113.602400,N,12131.755634,E,0.6,278.919739221,130122,,E,A*27
$GPGGA,101619.000,3113.602439,N,12131.755793,E,1,19,0.8,12.1,M,,M,,*7E
$GPRMC,101619.000,A,3113.602439,N,12131.755793,E,0.4,278.919739221,130122,,E,A*22
$GPGGA,101620.000,3113.602761,N,12131.755832,E,1,19,0.8,10.3,M,,M,,*7E
$GPRMC,101620.000,A,3113.602761,N,12131.755832,E,0.2,278.919739221,130122,,E,A*24
$GPGGA,101621.000,3113.602785,N,12131.755832,E,1,19,0.8,10.5,M,,M,,*73
$GPRMC,101621.000,A,3113.602785,N,12131.755832,E,0.2,278.919739221,130122,,E,A*2F
$GPGGA,101622.000,3113.602830,N,12131.755793,E,1,19,0.8,10.8,M,,M,,*78
$GPRMC,101622.000,A,3113.602830,N,12131.755793,E,0.2,278.919739221,130122,,E,A*29
$GPGGA,101623.000,3113.602830,N,12131.755801,E,1,19,0.8,10.6,M,,M,,*73
$GPRMC,101623.000,A,3113.602830,N,12131.755801,E,0.2,278.919739221,130122,,E,A*2C
$GPGGA,101624.000,3113.602726,N,12131.755866,E,1,19,0.8,10.0,M,,M,,*7B
$GPRMC,101624.000,A,3113.602726,N,12131.755866,E,0.0,278.919739221,130122,,E,A*20
$GPGGA,101625.000,3113.602698,N,12131.755806,E,1,19,0.8,9.9,M,,M,,*49
$GPRMC,101625.000,A,3113.602698,N,12131.755806,E,0.2,278.919739221,130122,,E,A*21
$GPGGA,101626.000,3113.602675,N,12131.755753,E,1,19,0.8,9.8,M,,M,,*47
$GPRMC,101626.000,A,3113.602675,N,12131.755753,E,0.2,278.919739221,130122,,E,A*2E
$GPGGA,101627.000,3113.602692,N,12131.755784,E,1,19,0.8,9.9,M,,M,,*44
$GPRMC,101627.000,A,3113.602692,N,12131.755784,E,0.2,278.919739221,130122,,E,A*2C
$GPGGA,101628.000,3113.602684,N,12131.755743,E,1,19,0.8,10.0,M,,M,,*76
$GPRMC,101628.000,A,3113.602684,N,12131.755743,E,0.2,278.919739221,130122,,E,A*2F
$GPGGA,101629.000,3113.602709,N,12131.755729,E,1,19,0.8,10.2,M,,M,,*7D
$GPRMC,101629.000,A,3113.602709,N,12131.755729,E,0.1,278.919739221,130122,,E,A*25
$GPGGA,101630.000,3113.602687,N,12131.755706,E,1,19,0.8,10.0,M,,M,,*7D
$GPRMC,101630.000,A,3113.602687,N,12131.755706,E,0.3,278.919739221,130122,,E,A*25
$GPGGA,101631.000,3113.602673,N,12131.755712,E,1,19,0.8,9.8,M,,M,,*42
$GPRMC,101631.000,A,3113.602673,N,12131.755712,E,0.1,278.919739221,130122,,E,A*28
$GPGGA,101632.000,3113.602728,N,12131.755780,E,1,19,0.8,9.8,M,,M,,*45
$GPRMC,101632.000,A,3113.602728,N,12131.755780,E,0.4,278.919739221,130122,,E,A*2A
$GPGGA,101633.000,3113.602822,N,12131.755885,E,1,19,0.8,9.9,M,,M,,*4A
$GPRMC,101633.000,A,3113.602822,N,12131.755885,E,0.4,278.919739221,130122,,E,A*24
$GPGGA,101634.000,3113.602683,N,12131.756030,E,1,19,0.8,9.9,M,,M,,*4D
$GPRMC,101634.000,A,3113.602683,N,12131.756030,E,0.5,278.919739221,130122,,E,A*22
$GPGGA,101635.000,3113.602653,N,12131.756003,E,1,19,0.8,10.1,M,,M,,*71
$GPRMC,101635.000,A,3113.602653,N,12131.756003,E,0.3,278.919739221,130122,,E,A*28
$GPGGA,101636.000,3113.602629,N,12131.755954,E,1,19,0.8,10.4,M,,M,,*72
$GPRMC,101636.000,A,3113.602629,N,12131.755954,E,0.1,278.919739221,130122,,E,A*2C
$GPGGA,101637.000,3113.602697,N,12131.755785,E,1,19,0.8,10.1,M,,M,,*71
$GPRMC,101637.000,A,3113.602697,N,12131.755785,E,0.3,278.919739221,130122,,E,A*28
$GPGGA,101638.000,3113.602713,N,12131.755782,E,1,19,0.8,10.1,M,,M,,*74
$GPRMC,101638.000,A,3113.602713,N,12131.755782,E,0.2,278.919739221,130122,,E,A*2C
$GPGGA,101639.000,3113.602652,N,12131.755884,E,1,19,0.8,9.8,M,,M,,*49
$GPRMC,101639.000,A,3113.602652,N,12131.755884,E,0.5,278.919739221,130122,,E,A*27
$GPGGA,101640.000,3113.602542,N,12131.755916,E,1,19,0.8,9.6,M,,M,,*41
$GPRMC,101640.000,A,3113.602542,N,12131.755916,E,0.4,278.919739221,130122,,E,A*20
$GPGGA,101641.000,3113.602425,N,12131.755937,E,1,19,0.8,9.4,M,,M,,*41
$GPRMC,101641.000,A,3113.602425,N,12131.755937,E,0.4,278.919739221,130122,,E,A*22
$GPGGA,101642.000,3113.602355,N,12131.755969,E,1,19,0.8,9.6,M,,M,,*4B
$GPRMC,101642.000,A,3113.602355,N,12131.755969,E,0.4,278.919739221,130122,,E,A*2A
$GPGGA,101643.000,3113.602376,N,12131.756001,E,1,19,0.8,9.8,M,,M,,*41
$GPRMC,101643.000,A,3113.602376,N,12131.756001,E,0.1,278.919739221,130122,,E,A*2B
$GPGGA,101644.000,3113.602523,N,12131.756108,E,1,19,0.8,12.4,M,,M,,*7E
$GPRMC,101644.000,A,3113.602523,N,12131.756108,E,0.3,278.919739221,130122,,E,A*20
$GPGGA,101645.000,3113.602506,N,12131.756039,E,1,19,0.8,12.4,M,,M,,*7B
$GPRMC,101645.000,A,3113.602506,N,12131.756039,E,0.4,278.919739221,130122,,E,A*22
$GPGGA,101646.000,3113.602484,N,12131.756059,E,1,19,0.8,12.7,M,,M,,*76
$GPRMC,101646.000,A,3113.602484,N,12131.756059,E,0.1,278.919739221,130122,,E,A*29
$GPGGA,101647.000,3113.602310,N,12131.755868,E,1,19,0.8,12.5,M,,M,,*76
$GPRMC,101647.000,A,3113.602310,N,12131.755868,E,0.3,278.919739221,130122,,E,A*29
$GPGGA,101648.000,3113.602321,N,12131.755793,E,1,19,0.8,12.7,M,,M,,*72
$GPRMC,101648.000,A,3113.602321,N,12131.755793,E,0.1,278.919739221,130122,,E,A*2D
$GPGGA,101649.000,3113.602400,N,12131.755848,E,1,19,0.8,12.8,M,,M,,*71
$GPRMC,101649.000,A,3113.602400,N,12131.755848,E,0.2,278.919739221,130122,,E,A*22
$GPGGA,101650.000,3113.602423,N,12131.755831,E,1,19,0.8,12.7,M,,M,,*79
$GPRMC,101650.000,A,3113.602423,N,12131.755831,E,0.3,278.919739221,130122,,E,A*24
$GPGGA,101651.000,3113.602484,N,12131.755876,E,1,19,0.8,12.7,M,,M,,*76
$GPRMC,101651.000,A,3113.602484,N,12131.755876,E,0.3,278.919739221,130122,,E,A*2B
$GPGGA,101652.000,3113.602506,N,12131.755926,E,1,19,0.8,12.0,M,,M,,*7D
$GPRMC,101652.000,A,3113.602506,N,12131.755926,E,0.3,278.919739221,130122,,E,A*27
$GPGGA,101653.000,3113.602550,N,12131.755860,E,1,19,0.8,11.8,M,,M,,*77
$GPRMC,101653.000,A,3113.602550,N,12131.755860,E,0.3,278.919739221,130122,,E,A*26
$GPGGA,101654.000,3113.602544,N,12131.755793,E,1,19,0.8,12.1,M,,M,,*7C
$GPRMC,101654.000,A,3113.602544,N,12131.755793,E,0.2,278.919739221,130122,,E,A*26
$GPGGA,101655.000,3113.602536,N,12131.755799,E,1,19,0.8,12.3,M,,M,,*70
$GPRMC,101655.000,A,3113.602536,N,12131.755799,E,0.1,278.919739221,130122,,E,A*2B
$GPGGA,101656.000,3113.602502,N,12131.755746,E,1,19,0.8,12.3,M,,M,,*76
$GPRMC,101656.000,A,3113.602502,N,12131.755746,E,0.4,278.919739221,130122,,E,A*28
$GPGGA,101657.000,3113.602444,N,12131.755740,E,1,19,0.8,12.2,M,,M,,*73
$GPRMC,101657.000,A,3113.602444,N,12131.755740,E,0.4,278.919739221,130122,,E,A*2C
$GPGGA,101658.000,3113.602440,N,12131.755705,E,1,19,0.8,12.5,M,,M,,*7E
$GPRMC,101658.000,A,3113.602440,N,12131.755705,E,0.5,278.919739221,130122,,E,A*27
$GPGGA,101659.000,3113.602448,N,12131.755593,E,1,19,0.8,13.1,M,,M,,*7F
$GPRMC,101659.000,A,3113.602448,N,12131.755593,E,0.2,278.919739221,130122,,E,A*24
$GPGGA,101700.000,3113.602465,N,12131.755542,E,1,19,0.8,13.7,M,,M,,*77
$GPRMC,101700.000,A,3113.602465,N,12131.755542,E,0.2,278.919739221,130122,,E,A*2A
$GPGGA,101701.000,3113.602493,N,12131.755483,E,1,19,0.8,14.0,M,,M,,*73
$GPRMC,101701.000,A,3113.602493,N,12131.755483,E,0.2,278.919739221,130122,,E,A*2E
$GPGGA,101702.000,3113.602482,N,12131.755448,E,1,19,0.8,14.5,M,,M,,*72
$GPRMC,101702.000,A,3113.602482,N,12131.755448,E,0.2,278.919739221,130122,,E,A*2A
$GPGGA,101703.000,3113.602465,N,12131.755306,E,1,19,0.8,15.1,M,,M,,*72
$GPRMC,101703.000,A,3113.602465,N,12131.755306,E,0.6,278.919739221,130122,,E,A*2B
$GPGGA,101704.000,3113.602408,N,12131.755203,E,1,19,0.8,16.3,M,,M,,*7B
$GPRMC,101704.000,A,3113.602408,N,12131.755203,E,0.1,278.919739221,130122,,E,A*24
$GPGGA,101705.000,3113.602398,N,12131.755124,E,1,19,0.8,16.4,M,,M,,*75
$GPRMC,101705.000,A,3113.602398,N,12131.755124,E,0.4,278.919739221,130122,,E,A*28
$GPGGA,101706.000,3113.602401,N,12131.754989,E,1,19,0.8,16.5,M,,M,,*7E
$GPRMC,101706.000,A,3113.602401,N,12131.754989,E,0.4,278.919739221,130122,,E,A*22
$GPGGA,101707.000,3113.602476,N,12131.755188,E,1,19,0.8,16.2,M,,M,,*70
$GPRMC,101707.000,A,3113.602476,N,12131.755188,E,0.4,278.919739221,130122,,E,A*2B
$GPGGA,101708.000,3113.602499,N,12131.755234,E,1,19,0.8,16.2,M,,M,,*7A
$GPRMC,101708.000,A,3113.602499,N,12131.755234,E,0.0,278.919739221,130122,,E,A*25
$GPGGA,101709.000,3113.602479,N,12131.755222,E,1,19,0.8,16.4,M,,M,,*74
$GPRMC,101709.000,A,3113.602479,N,12131.755222,E,0.2,278.919739221,130122,,E,A*2F
$GPGGA,101710.000,3113.602468,N,12131.755065,E,1,19,0.8,17.4,M,,M,,*7C
$GPRMC,101710.000,A,3113.602468,N,12131.755065,E,0.4,278.919739221,130122,,E,A*20
$GPGGA,101711.000,3113.602460,N,12131.755066,E,1,19,0.8,17.6,M,,M,,*74
$GPRMC,101711.000,A,3113.602460,N,12131.755066,E,0.2,278.919739221,130122,,E,A*2C
$GPGGA,101712.000,3113.602490,N,12131.755302,E,1,19,0.8,18.4,M,,M,,*74
$GPRMC,101712.000,A,3113.602490,N,12131.755302,E,0.4,278.919739221,130122,,E,A*27
$GPGGA,101713.000,3113.602668,N,12131.755571,E,1,19,0.8,17.6,M,,M,,*7F
$GPRMC,101713.000,A,3113.602668,N,12131.755571,E,0.4,278.919739221,130122,,E,A*21
$GPGGA,101714.000,3113.602595,N,12131.755386,E,1,19,0.8,17.3,M,,M,,*72
$GPRMC,101714.000,A,3113.602595,N,12131.755386,E,0.5,278.919739221,130122,,E,A*28
$GPGGA,101715.000,3113.602536,N,12131.755240,E,1,19,0.8,17.0,M,,M,,*72
$GPRMC,101715.000,A,3113.602536,N,12131.755240,E,0.5,278.919739221,130122,,E,A*2B
$GPGGA,101716.000,3113.602674,N,12131.755474,E,1,19,0.8,15.3,M,,M,,*74
$GPRMC,101716.000,A,3113.602674,N,12131.755474,E,0.2,278.919739221,130122,,E,A*2B
$GPGGA,101717.000,3113.602722,N,12131.755468,E,1,19,0.8,15.5,M,,M,,*7C
$GPRMC,101717.000,A,3113.602722,N,12131.755468,E,0.2,278.919739221,130122,,E,A*25
$GPGGA,101718.000,3113.602669,N,12131.755580,E,1,19,0.8,15.6,M,,M,,*79
$GPRMC,101718.000,A,3113.602669,N,12131.755580,E,0.2,278.919739221,130122,,E,A*23
$GPGGA,101719.000,3113.602712,N,12131.755712,E,1,19,0.8,16.1,M,,M,,*78
$GPRMC,101719.000,A,3113.602712,N,12131.755712,E,0.6,278.919739221,130122,,E,A*22
$GPGGA,101720.000,3113.602773,N,12131.755696,E,1,19,0.8,16.9,M,,M,,*70
$GPRMC,101720.000,A,3113.602773,N,12131.755696,E,0.1,278.919739221,130122,,E,A*25
$GPGGA,101721.000,3113.602785,N,12131.755685,E,1,19,0.8,17.2,M,,M,,*70
$GPRMC,101721.000,A,3113.602785,N,12131.755685,E,0.1,278.919739221,130122,,E,A*2F
$GPGGA,101722.000,3113.602757,N,12131.755813,E,1,19,0.8,17.1,M,,M,,*7E
$GPRMC,101722.000,A,3113.602757,N,12131.755813,E,0.0,278.919739221,130122,,E,A*23
$GPGGA,101723.000,3113.603077,N,12131.755864,E,1,19,0.8,17.1,M,,M,,*7B
$GPRMC,101723.000,A,3113.603077,N,12131.755864,E,0.6,278.919739221,130122,,E,A*20
$GPGGA,101724.000,3113.603168,N,12131.755653,E,1,19,0.8,17.5,M,,M,,*7D
$GPRMC,101724.000,A,3113.603168,N,12131.755653,E,0.5,278.919739221,130122,,E,A*21
$GPGGA,101725.000,3113.603222,N,12131.755585,E,1,19,0.8,18.1,M,,M,,*72
$GPRMC,101725.000,A,3113.603222,N,12131.755585,E,0.3,278.919739221,130122,,E,A*23
$GPGGA,101726.000,3113.603238,N,12131.755605,E,1,19,0.8,18.0,M,,M,,*70
$GPRMC,101726.000,A,3113.603238,N,12131.755605,E,0.2,278.919739221,130122,,E,A*21
$GPGGA,101727.000,3113.603177,N,12131.755603,E,1,19,0.8,17.4,M,,M,,*74
$GPRMC,101727.000,A,3113.603177,N,12131.755603,E,0.6,278.919739221,130122,,E,A*2A
$GPGGA,101728.000,3113.603252,N,12131.755566,E,1,19,0.8,17.5,M,,M,,*7E
$GPRMC,101728.000,A,3113.603252,N,12131.755566,E,0.6,278.919739221,130122,,E,A*21
$GPGGA,101729.000,3113.603473,N,12131.755604,E,1,19,0.8,17.4,M,,M,,*7C
$GPRMC,101729.000,A,3113.603473,N,12131.755604,E,0.7,278.919739221,130122,,E,A*23
$GPGGA,101730.000,3113.603396,N,12131.755438,E,1,19,0.8,17.5,M,,M,,*74
$GPRMC,101730.000,A,3113.603396,N,12131.755438,E,0.3,278.919739221,130122,,E,A*2E
$GPGGA,101731.000,3113.603453,N,12131.755422,E,1,19,0.8,17.2,M,,M,,*77
$GPRMC,101731.000,A,3113.603453,N,12131.755422,E,0.3,278.919739221,130122,,E,A*2A
$GPGGA,101732.000,3113.603558,N,12131.755386,E,1,19,0.8,16.5,M,,M,,*71
$GPRMC,101732.000,A,3113.603558,N,12131.755386,E,0.1,278.919739221,130122,,E,A*28
$GPGGA,101733.000,3113.603508,N,12131.755613,E,1,19,0.8,15.3,M,,M,,*79
$GPRMC,101733.000,A,3113.603508,N,12131.755613,E,0.1,278.919739221,130122,,E,A*25
$GPGGA,101734.000,3113.603310,N,12131.755713,E,1,19,0.8,15.5,M,,M,,*76
$GPRMC,101734.000,A,3113.603310,N,12131.755713,E,0.5,278.919739221,130122,,E,A*28
$GPGGA,101735.000,3113.603174,N,12131.755782,E,1,19,0.8,16.1,M,,M,,*78
$GPRMC,101735.000,A,3113.603174,N,12131.755782,E,0.5,278.919739221,130122,,E,A*21
$GPGGA,101736.000,3113.603263,N,12131.755670,E,1,19,0.8,16.0,M,,M,,*73
$GPRMC,101736.000,A,3113.603263,N,12131.755670,E,0.2,278.919739221,130122,,E,A*2C
$GPGGA,101737.000,3113.603247,N,12131.755511,E,1,19,0.8,15.8,M,,M,,*7B
$GPRMC,101737.000,A,3113.603247,N,12131.755511,E,0.7,278.919739221,130122,,E,A*2A
$GPGGA,101738.000,3113.603194,N,12131.755274,E,1,19,0.8,15.7,M,,M,,*72
$GPRMC,101738.000,A,3113.603194,N,12131.755274,E,0.7,278.919739221,130122,,E,A*2C
$GPGGA,101739.000,3113.602877,N,12131.756435,E,1,19,0.8,9.4,M,,M,,*48
$GPRMC,101739.000,A,3113.602877,N,12131.756435,E,0.3,278.919739221,130122,,E,A*2C
$GPGGA,101740.000,3113.602862,N,12131.756452,E,1,19,0.8,9.3,M,,M,,*44
$GPRMC,101740.000,A,3113.602862,N,12131.756452,E,0.1,278.919739221,130122,,E,A*25
$GPGGA,101741.000,3113.603222,N,12131.756392,E,1,19,0.8,8.2,M,,M,,*41
$GPRMC,101741.000,A,3113.603222,N,12131.756392,E,0.3,278.919739221,130122,,E,A*22
$GPGGA,101742.000,3113.603662,N,12131.757057,E,1,19,0.8,7.2,M,,M,,*46
$GPRMC,101742.000,A,3113.603662,N,12131.757057,E,0.2,278.919739221,130122,,E,A*2B
$GPGGA,101743.000,3113.603766,N,12131.757251,E,1,19,0.8,6.0,M,,M,,*45
$GPRMC,101743.000,A,3113.603766,N,12131.757251,E,0.2,278.919739221,130122,,E,A*2B
$GPGGA,101744.000,3113.603779,N,12131.756497,E,1,19,0.8,6.1,M,,M,,*40
$GPRMC,101744.000,A,3113.603779,N,12131.756497,E,1.4,278.919739221,130122,,E,A*28
$GPGGA,101745.000,3113.603995,N,12131.756505,E,1,19,0.8,6.9,M,,M,,*4F
$GPRMC,101745.000,A,3113.603995,N,12131.756505,E,0.6,278.919739221,130122,,E,A*2C
$GPGGA,101746.000,3113.604333,N,12131.755992,E,1,19,0.8,8.1,M,,M,,*4A
$GPRMC,101746.000,A,3113.604333,N,12131.755992,E,1.1,278.919739221,130122,,E,A*29
$GPGGA,101747.000,3113.604491,N,12131.755398,E,1,19,0.8,9.6,M,,M,,*42
$GPRMC,101747.000,A,3113.604491,N,12131.755398,E,1.3,278.919739221,130122,,E,A*25
$GPGGA,101748.000,3113.604055,N,12131.754825,E,1,19,0.8,11.5,M,,M,,*77
$GPRMC,101748.000,A,3113.604055,N,12131.754825,E,2.7,237.68036792799998,130122,,E,A*13
$GPGGA,101749.000,3113.603629,N,12131.754075,E,1,19,0.8,11.5,M,,M,,*71
$GPRMC,101749.000,A,3113.603629,N,12131.754075,E,3.0,-127.212812766,130122,,E,A*09
$GPGGA,101750.000,3113.603165,N,12131.753277,E,1,19,0.8,11.6,M,,M,,*72
$GPRMC,101750.000,A,3113.603165,N,12131.753277,E,2.2,243.88354580400002,130122,,E,A*12
$GPGGA,101751.000,3113.602482,N,12131.752588,E,1,19,0.8,11.5,M,,M,,*7B
$GPRMC,101751.000,A,3113.602482,N,12131.752588,E,3.4,-131.978108302,130122,,E,A*03
$GPGGA,101752.000,3113.601887,N,12131.751546,E,1,19,0.8,9.9,M,,M,,*46
$GPRMC,101752.000,A,3113.601887,N,12131.751546,E,3.0,-148.59881961600001,130122,,E,A*3B
$GPGGA,101753.000,3113.601107,N,12131.750873,E,1,19,0.8,10.1,M,,M,,*7C
$GPRMC,101753.000,A,3113.601107,N,12131.750873,E,3.2,-145.185460098,130122,,E,A*05
$GPGGA,101754.000,3113.600315,N,12131.749744,E,1,19,0.8,10.5,M,,M,,*7C
$GPRMC,101754.000,A,3113.600315,N,12131.749744,E,4.1,-131.424748893,130122,,E,A*02
$GPGGA,101755.000,3113.599671,N,12131.748805,E,1,19,0.8,10.4,M,,M,,*73
$GPRMC,101755.000,A,3113.599671,N,12131.748805,E,3.6,-132.00789454899999,130122,,E,A*36
$GPGGA,101756.000,3113.598925,N,12131.748036,E,1,19,0.8,10.5,M,,M,,*76
$GPRMC,101756.000,A,3113.598925,N,12131.748036,E,3.6,-132.894123359,130122,,E,A*0A
$GPGGA,101757.000,3113.598894,N,12131.747842,E,1,19,0.8,10.6,M,,M,,*7B
$GPRMC,101757.000,A,3113.598894,N,12131.747842,E,2.1,251.83697333700002,130122,,E,A*16
$GPGGA,101758.000,3113.598486,N,12131.747563,E,1,19,0.8,11.1,M,,M,,*73
$GPRMC,101758.000,A,3113.598486,N,12131.747563,E,2.3,240.29507365599997,130122,,E,A*14
$GPGGA,101759.000,3113.597730,N,12131.746612,E,1,19,0.8,11.5,M,,M,,*73
$GPRMC,101759.000,A,3113.597730,N,12131.746612,E,4.1,-135.008127086,130122,,E,A*01
$GPGGA,101800.000,3113.597171,N,12131.746124,E,1,19,0.8,11.3,M,,M,,*77
$GPRMC,101800.000,A,3113.597171,N,12131.746124,E,2.8,213.710419813,130122,,E,A*24
$GPGGA,101801.000,3113.596624,N,12131.745529,E,1,19,0.8,11.4,M,,M,,*7D
$GPRMC,101801.000,A,3113.596624,N,12131.745529,E,3.1,-134.77211916299999,130122,,E,A*3D
$GPGGA,101802.000,3113.595994,N,12131.744923,E,1,19,0.8,11.4,M,,M,,*7E
$GPRMC,101802.000,A,3113.595994,N,12131.744923,E,3.2,-142.064689595,130122,,E,A*07
$GPGGA,101803.000,3113.595356,N,12131.744219,E,1,19,0.8,11.4,M,,M,,*79
$GPRMC,101803.000,A,3113.595356,N,12131.744219,E,3.5,-137.927436828,130122,,E,A*06
$GPGGA,101804.000,3113.594732,N,12131.743838,E,1,19,0.8,11.5,M,,M,,*76
$GPRMC,101804.000,A,3113.594732,N,12131.743838,E,2.6,216.84473901799998,130122,,E,A*13
$GPGGA,101805.000,3113.594258,N,12131.743635,E,1,19,0.8,11.4,M,,M,,*7C
$GPRMC,101805.000,A,3113.594258,N,12131.743635,E,2.4,212.772252338,130122,,E,A*2A
$GPGGA,101806.000,3113.593662,N,12131.743439,E,1,19,0.8,11.2,M,,M,,*7D
$GPRMC,101806.000,A,3113.593662,N,12131.743439,E,2.4,214.211209288,130122,,E,A*2F
$GPGGA,101807.000,3113.593227,N,12131.742968,E,1,19,0.8,11.3,M,,M,,*70
$GPRMC,101807.000,A,3113.593227,N,12131.742968,E,2.6,205.086896073,130122,,E,A*27
$GPGGA,101808.000,3113.592689,N,12131.742539,E,1,19,0.8,11.4,M,,M,,*71
$GPRMC,101808.000,A,3113.592689,N,12131.742539,E,2.1,227.33080072400003,130122,,E,A*11
$GPGGA,101809.000,3113.592073,N,12131.742183,E,1,19,0.8,11.5,M,,M,,*77
$GPRMC,101809.000,A,3113.592073,N,12131.742183,E,2.6,217.066474282,130122,,E,A*27
$GPGGA,101810.000,3113.591128,N,12131.741807,E,1,19,0.8,11.7,M,,M,,*77
$GPRMC,101810.000,A,3113.591128,N,12131.741807,E,3.7,-151.31142557799998,130122,,E,A*3B
$GPGGA,101811.000,3113.589726,N,12131.741783,E,1,19,0.8,11.3,M,,M,,*70
$GPRMC,101811.000,A,3113.589726,N,12131.741783,E,4.2,-159.995997953,130122,,E,A*02
$GPGGA,101812.000,3113.589026,N,12131.741555,E,1,19,0.8,11.4,M,,M,,*7A
$GPRMC,101812.000,A,3113.589026,N,12131.741555,E,2.8,237.049422366,130122,,E,A*22
$GPGGA,101813.000,3113.588372,N,12131.741268,E,1,19,0.8,11.6,M,,M,,*73
$GPRMC,101813.000,A,3113.588372,N,12131.741268,E,2.7,210.22259733299998,130122,,E,A*1A
$GPGGA,101814.000,3113.587101,N,12131.741747,E,1,19,0.8,11.7,M,,M,,*74
$GPRMC,101814.000,A,3113.587101,N,12131.741747,E,3.1,-166.710255743,130122,,E,A*03
$GPGGA,101815.000,3113.584829,N,12131.742859,E,1,19,0.8,11.8,M,,M,,*79
$GPRMC,101815.000,A,3113.584829,N,12131.742859,E,4.2,179.01048277900003,130122,,E,A*17
$GPGGA,101816.000,3113.582238,N,12131.744417,E,1,19,0.8,12.2,M,,M,,*7F
$GPRMC,101816.000,A,3113.582238,N,12131.744417,E,5.6,169.862051704,130122,,E,A*22
$GPGGA,101817.000,3113.580966,N,12131.745021,E,1,19,0.8,12.8,M,,M,,*76
$GPRMC,101817.000,A,3113.580966,N,12131.745021,E,2.4,214.175268832,130122,,E,A*20
$GPGGA,101818.000,3113.579703,N,12131.746160,E,1,19,0.8,13.2,M,,M,,*7E
$GPRMC,101818.000,A,3113.579703,N,12131.746160,E,3.1,166.662524553,130122,,E,A*25
$GPGGA,101819.000,3113.578852,N,12131.747278,E,1,19,0.8,13.6,M,,M,,*7A
$GPRMC,101819.000,A,3113.578852,N,12131.747278,E,3.0,154.729312733,130122,,E,A*2C
$GPGGA,101820.000,3113.577477,N,12131.748070,E,1,19,0.8,13.8,M,,M,,*7F
$GPRMC,101820.000,A,3113.577477,N,12131.748070,E,3.5,156.466795233,130122,,E,A*26
$GPGGA,101821.000,3113.576406,N,12131.748780,E,1,19,0.8,14.1,M,,M,,*7F
$GPRMC,101821.000,A,3113.576406,N,12131.748780,E,3.7,154.671440127,130122,,E,A*21
$GPGGA,101822.000,3113.578156,N,12131.743746,E,1,19,0.8,15.5,M,,M,,*76
$GPRMC,101822.000,A,3113.578156,N,12131.743746,E,2.4,230.647130812,130122,,E,A*26
$GPGGA,101823.000,3113.578398,N,12131.740801,E,1,19,0.8,16.3,M,,M,,*7D
$GPRMC,101823.000,A,3113.578398,N,12131.740801,E,2.8,238.38098142,130122,,E,A*1D
$GPGGA,101824.000,3113.577714,N,12131.739748,E,1,19,0.8,16.8,M,,M,,*72
$GPRMC,101824.000,A,3113.577714,N,12131.739748,E,3.2,-119.59486166100001,130122,,E,A*35
$GPGGA,101825.000,3113.575717,N,12131.737059,E,1,19,0.8,16.5,M,,M,,*76
$GPRMC,101825.000,A,3113.575717,N,12131.737059,E,3.8,-116.158385146,130122,,E,A*0F
$GPGGA,101826.000,3113.574663,N,12131.732502,E,1,19,0.8,17.2,M,,M,,*7E
$GPRMC,101826.000,A,3113.574663,N,12131.732502,E,6.1,-107.54836814299999,130122,,E,A*36
$GPGGA,101827.000,3113.573782,N,12131.729540,E,1,19,0.8,18.2,M,,M,,*75
$GPRMC,101827.000,A,3113.573782,N,12131.729540,E,7.8,-104.518641389,130122,,E,A*0E
$GPGGA,101828.000,3113.572052,N,12131.730389,E,1,19,0.8,18.9,M,,M,,*71
$GPRMC,101828.000,A,3113.572052,N,12131.730389,E,3.8,-120.120458251,130122,,E,A*02
$GPGGA,101829.000,3113.570458,N,12131.732141,E,1,19,0.8,19.4,M,,M,,*74
$GPRMC,101829.000,A,3113.570458,N,12131.732141,E,2.2,224.96567011099998,130122,,E,A*15
$GPGGA,101830.000,3113.570204,N,12131.729587,E,1,19,0.8,19.8,M,,M,,*7B
$GPRMC,101830.000,A,3113.570204,N,12131.729587,E,2.9,217.759793132,130122,,E,A*28
$GPGGA,101831.000,3113.570397,N,12131.725118,E,1,19,0.8,20.2,M,,M,,*7F
$GPRMC,101831.000,A,3113.570397,N,12131.725118,E,4.9,-104.154719322,130122,,E,A*0C
$GPGGA,101832.000,3113.570120,N,12131.723278,E,1,19,0.8,20.9,M,,M,,*7A
$GPRMC,101832.000,A,3113.570120,N,12131.723278,E,3.0,-131.746829252,130122,,E,A*05
$GPGGA,101833.000,3113.569851,N,12131.724132,E,1,19,0.8,20.7,M,,M,,*78
$GPRMC,101833.000,A,3113.569851,N,12131.724132,E,2.0,227.500899757,130122,,E,A*2A
$GPGGA,101834.000,3113.569992,N,12131.723954,E,1,19,0.8,20.5,M,,M,,*7C
$GPRMC,101834.000,A,3113.569992,N,12131.723954,E,2.8,234.70743243400003,130122,,E,A*1B
$GPGGA,101835.000,3113.569736,N,12131.723232,E,1,19,0.8,20.5,M,,M,,*76
$GPRMC,101835.000,A,3113.569736,N,12131.723232,E,3.1,-167.117663337,130122,,E,A*07
$GPGGA,101836.000,3113.569600,N,12131.724013,E,1,19,0.8,19.8,M,,M,,*70
$GPRMC,101836.000,A,3113.569600,N,12131.724013,E,2.8,228.727478803,130122,,E,A*2A
$GPGGA,101837.000,3113.570217,N,12131.723189,E,1,19,0.8,19.6,M,,M,,*70
$GPRMC,101837.000,A,3113.570217,N,12131.723189,E,2.2,257.35677711799997,130122,,E,A*13
$GPGGA,101838.000,3113.570216,N,12131.722653,E,1,19,0.8,20.2,M,,M,,*71
$GPRMC,101838.000,A,3113.570216,N,12131.722653,E,2.1,247.35893734,130122,,E,A*1D
$GPGGA,101839.000,3113.570187,N,12131.720935,E,1,19,0.8,20.3,M,,M,,*77
$GPRMC,101839.000,A,3113.570187,N,12131.720935,E,3.5,-102.367516309,130122,,E,A*0E
$GPGGA,101840.000,3113.570105,N,12131.719607,E,1,19,0.8,20.3,M,,M,,*77
$GPRMC,101840.000,A,3113.570105,N,12131.719607,E,3.0,-104.629725888,130122,,E,A*02
$GPGGA,101841.000,3113.569556,N,12131.718709,E,1,19,0.8,20.2,M,,M,,*73
$GPRMC,101841.000,A,3113.569556,N,12131.718709,E,2.3,222.492827414,130122,,E,A*29
$GPGGA,101842.000,3113.568937,N,12131.718196,E,1,19,0.8,20.2,M,,M,,*7A
$GPRMC,101842.000,A,3113.568937,N,12131.718196,E,3.9,-127.012202214,130122,,E,A*07
$GPGGA,101843.000,3113.568333,N,12131.717333,E,1,19,0.8,20.3,M,,M,,*76
$GPRMC,101843.000,A,3113.568333,N,12131.717333,E,3.1,-145.77712957399999,130122,,E,A*37
$GPGGA,101844.000,3113.567756,N,12131.716458,E,1,19,0.8,20.0,M,,M,,*71
$GPRMC,101844.000,A,3113.567756,N,12131.716458,E,2.9,188.868939549,130122,,E,A*2E
$GPGGA,101845.000,3113.567000,N,12131.716400,E,1,19,0.8,19.5,M,,M,,*76
$GPRMC,101845.000,A,3113.567000,N,12131.716400,E,3.1,-162.372570085,130122,,E,A*02
$GPGGA,101846.000,3113.566377,N,12131.715565,E,1,19,0.8,19.1,M,,M,,*72
$GPRMC,101846.000,A,3113.566377,N,12131.715565,E,3.5,-153.527948304,130122,,E,A*0F
$GPGGA,101847.000,3113.565903,N,12131.714138,E,1,19,0.8,19.1,M,,M,,*74
$GPRMC,101847.000,A,3113.565903,N,12131.714138,E,3.4,-134.450734724,130122,,E,A*0B
$GPGGA,101848.000,3113.565505,N,12131.713286,E,1,19,0.8,19.0,M,,M,,*71
$GPRMC,101848.000,A,3113.565505,N,12131.713286,E,2.8,224.817564287,130122,,E,A*29
$GPGGA,101849.000,3113.564898,N,12131.713107,E,1,19,0.8,18.4,M,,M,,*77
$GPRMC,101849.000,A,3113.564898,N,12131.713107,E,3.1,-157.356987963,130122,,E,A*06
$GPGGA,101850.000,3113.563995,N,12131.713491,E,1,19,0.8,17.7,M,,M,,*72
$GPRMC,101850.000,A,3113.563995,N,12131.713491,E,3.4,-137.767587346,130122,,E,A*0B
$GPGGA,101851.000,3113.563525,N,12131.713096,E,1,19,0.8,17.4,M,,M,,*74
$GPRMC,101851.000,A,3113.563525,N,12131.713096,E,2.7,213.949476436,130122,,E,A*29
$GPGGA,101852.000,3113.563037,N,12131.712854,E,1,19,0.8,17.1,M,,M,,*73
$GPRMC,101852.000,A,3113.563037,N,12131.712854,E,2.5,214.629585701,130122,,E,A*2D
$GPGGA,101853.000,3113.562385,N,12131.712558,E,1,19,0.8,17.1,M,,M,,*78
$GPRMC,101853.000,A,3113.562385,N,12131.712558,E,2.5,222.28464324599997,130122,,E,A*1B
$GPGGA,101854.000,3113.561300,N,12131.712059,E,1,19,0.8,16.9,M,,M,,*7C
$GPRMC,101854.000,A,3113.561300,N,12131.712059,E,4.2,-143.9546515,130122,,E,A*0A
$GPGGA,101855.000,3113.560579,N,12131.711151,E,1,19,0.8,16.5,M,,M,,*72
$GPRMC,101855.000,A,3113.560579,N,12131.711151,E,4.0,-130.115250111,130122,,E,A*02
$GPGGA,101856.000,3113.560053,N,12131.710248,E,1,19,0.8,16.2,M,,M,,*71
$GPRMC,101856.000,A,3113.560053,N,12131.710248,E,3.5,-124.48639119299999,130122,,E,A*30
$GPGGA,101857.000,3113.559681,N,12131.709141,E,1,19,0.8,15.8,M,,M,,*78
$GPRMC,101857.000,A,3113.559681,N,12131.709141,E,3.5,-121.68698070100001,130122,,E,A*39
$GPGGA,101858.000,3113.559357,N,12131.708287,E,1,19,0.8,16.1,M,,M,,*7B
$GPRMC,101858.000,A,3113.559357,N,12131.708287,E,3.3,-118.090048614,130122,,E,A*04
$GPGGA,101859.000,3113.559226,N,12131.705920,E,1,19,0.8,16.1,M,,M,,*76
$GPRMC,101859.000,A,3113.559226,N,12131.705920,E,4.4,-108.43873559299999,130122,,E,A*37
$GPGGA,101900.000,3113.558806,N,12131.704981,E,1,19,0.8,16.0,M,,M,,*79
$GPRMC,101900.000,A,3113.558806,N,12131.704981,E,2.9,-126.366604061,130122,,E,A*01
$GPGGA,101901.000,3113.558553,N,12131.703659,E,1,19,0.8,16.0,M,,M,,*78
$GPRMC,101901.000,A,3113.558553,N,12131.703659,E,3.1,-121.18533677299999,130122,,E,A*39
$GPGGA,101902.000,3113.558086,N,12131.702388,E,1,19,0.8,16.0,M,,M,,*7E
$GPRMC,101902.000,A,3113.558086,N,12131.702388,E,3.6,-116.90638388,130122,,E,A*3A
$GPGGA,101903.000,3113.556804,N,12131.703657,E,1,19,0.8,15.8,M,,M,,*7E
$GPRMC,101903.000,A,3113.556804,N,12131.703657,E,2.7,211.03890057099997,130122,,E,A*18
$GPGGA,101904.000,3113.555336,N,12131.704273,E,1,19,0.8,15.6,M,,M,,*7B
$GPRMC,101904.000,A,3113.555336,N,12131.704273,E,3.5,-172.62537681900002,130122,,E,A*3D
$GPGGA,101905.000,3113.551172,N,12131.706074,E,1,19,0.8,16.1,M,,M,,*7F
$GPRMC,101905.000,A,3113.551172,N,12131.706074,E,8.4,-178.340134138,130122,,E,A*07
$GPGGA,101906.000,3113.539596,N,12131.718258,E,1,19,0.8,18.0,M,,M,,*70
$GPRMC,101906.000,A,3113.539596,N,12131.718258,E,4.5,157.917276268,130122,,E,A*21
$GPGGA,101907.000,3113.536135,N,12131.721041,E,1,19,0.8,18.6,M,,M,,*75
$GPRMC,101907.000,A,3113.536135,N,12131.721041,E,3.0,178.73364332,130122,,E,A*1A
$GPGGA,101908.000,3113.534410,N,12131.720789,E,1,19,0.8,19.1,M,,M,,*7E
$GPRMC,101908.000,A,3113.534410,N,12131.720789,E,3.7,-179.195521665,130122,,E,A*05
$GPGGA,101909.000,3113.533294,N,12131.720987,E,1,19,0.8,19.6,M,,M,,*75
$GPRMC,101909.000,A,3113.533294,N,12131.720987,E,3.1,-132.326648022,130122,,E,A*03
$GPGGA,101910.000,3113.532621,N,12131.720501,E,1,19,0.8,20.5,M,,M,,*7D
$GPRMC,101910.000,A,3113.532621,N,12131.720501,E,2.8,212.457558198,130122,,E,A*25
$GPGGA,101911.000,3113.532179,N,12131.720162,E,1,19,0.8,21.2,M,,M,,*71
$GPRMC,101911.000,A,3113.532179,N,12131.720162,E,2.8,218.918165908,130122,,E,A*28
$GPGGA,101912.000,3113.531812,N,12131.718402,E,1,19,0.8,22.6,M,,M,,*7A
$GPRMC,101912.000,A,3113.531812,N,12131.718402,E,3.5,-111.912544417,130122,,E,A*01
$GPGGA,101913.000,3113.531534,N,12131.717710,E,1,19,0.8,24.2,M,,M,,*7F
$GPRMC,101913.000,A,3113.531534,N,12131.717710,E,3.1,-109.221193697,130122,,E,A*04
$GPGGA,101914.000,3113.531655,N,12131.717234,E,1,19,0.8,24.8,M,,M,,*75
$GPRMC,101914.000,A,3113.531655,N,12131.717234,E,2.9,-106.91636560200001,130122,,E,A*3B
$GPGGA,101915.000,3113.531935,N,12131.716090,E,1,19,0.8,25.5,M,,M,,*7C
$GPRMC,101915.000,A,3113.531935,N,12131.716090,E,3.2,-94.04867934299999,130122,,E,A*0D
$GPGGA,101916.000,3113.532839,N,12131.714461,E,1,19,0.8,27.1,M,,M,,*7F
$GPRMC,101916.000,A,3113.532839,N,12131.714461,E,3.4,-61.426081903000004,130122,,E,A*3B
$GPGGA,101917.000,3113.533827,N,12131.711980,E,1,19,0.8,28.2,M,,M,,*7B
$GPRMC,101917.000,A,3113.533827,N,12131.711980,E,5.1,-43.651321011,130122,,E,A*35
$GPGGA,101918.000,3113.534666,N,12131.710036,E,1,19,0.8,29.3,M,,M,,*7D
$GPRMC,101918.000,A,3113.534666,N,12131.710036,E,3.9,-62.88058057600001,130122,,E,A*04
$GPGGA,101919.000,3113.534499,N,12131.708269,E,1,19,0.8,30.8,M,,M,,*7C
$GPRMC,101919.000,A,3113.534499,N,12131.708269,E,3.9,-80.262788437,130122,,E,A*33
$GPGGA,101920.000,3113.534129,N,12131.706546,E,1,19,0.8,31.3,M,,M,,*76
$GPRMC,101920.000,A,3113.534129,N,12131.706546,E,4.1,-82.774178858,130122,,E,A*30
$GPGGA,101921.000,3113.533812,N,12131.705093,E,1,19,0.8,31.5,M,,M,,*79
$GPRMC,101921.000,A,3113.533812,N,12131.705093,E,4.1,-90.21933541899999,130122,,E,A*0E
$GPGGA,101922.000,3113.534337,N,12131.703984,E,1,19,0.8,31.7,M,,M,,*7A
$GPRMC,101922.000,A,3113.534337,N,12131.703984,E,4.4,-60.452062206,130122,,E,A*3D
$GPGGA,101923.000,3113.534231,N,12131.702656,E,1,19,0.8,32.0,M,,M,,*79
$GPRMC,101923.000,A,3113.534231,N,12131.702656,E,3.9,-81.124924374,130122,,E,A*34
$GPGGA,101924.000,3113.535988,N,12131.696303,E,1,19,0.8,31.9,M,,M,,*75
$GPRMC,101924.000,A,3113.535988,N,12131.696303,E,5.2,-80.622911113,130122,,E,A*3A
$GPGGA,101925.000,3113.536731,N,12131.689961,E,1,19,0.8,31.8,M,,M,,*7A
$GPRMC,101925.000,A,3113.536731,N,12131.689961,E,3.1,-81.833049877,130122,,E,A*31
$GPGGA,101926.000,3113.537278,N,12131.688741,E,1,19,0.8,31.4,M,,M,,*71
$GPRMC,101926.000,A,3113.537278,N,12131.688741,E,3.8,-67.33374422600001,130122,,E,A*09
$GPGGA,101927.000,3113.536853,N,12131.686786,E,1,19,0.8,31.5,M,,M,,*76
$GPRMC,101927.000,A,3113.536853,N,12131.686786,E,4.1,-81.59173938800001,130122,,E,A*08
$GPGGA,101928.000,3113.537568,N,12131.685442,E,1,19,0.8,33.5,M,,M,,*77
$GPRMC,101928.000,A,3113.537568,N,12131.685442,E,3.1,-57.817554822,130122,,E,A*37
$GPGGA,101929.000,3113.538462,N,12131.681142,E,1,19,0.8,35.3,M,,M,,*73
$GPRMC,101929.000,A,3113.538462,N,12131.681142,E,3.3,-71.249219001,130122,,E,A*33
$GPGGA,101930.000,3113.539404,N,12131.679667,E,1,19,0.8,36.7,M,,M,,*7A
$GPRMC,101930.000,A,3113.539404,N,12131.679667,E,3.4,-63.607640086,130122,,E,A*30
$GPGGA,101931.000,3113.540043,N,12131.678536,E,1,19,0.8,38.1,M,,M,,*7C
$GPRMC,101931.000,A,3113.540043,N,12131.678536,E,3.0,-72.295046868,130122,,E,A*3D
$GPGGA,101932.000,3113.540431,N,12131.677980,E,1,19,0.8,38.6,M,,M,,*77
$GPRMC,101932.000,A,3113.540431,N,12131.677980,E,3.0,-60.267428028999994,130122,,E,A*32
$GPGGA,101933.000,3113.540819,N,12131.676589,E,1,19,0.8,38.8,M,,M,,*7A
$GPRMC,101933.000,A,3113.540819,N,12131.676589,E,3.2,-62.410554431,130122,,E,A*3C
$GPGGA,101934.000,3113.541376,N,12131.673016,E,1,19,0.8,39.5,M,,M,,*74
$GPRMC,101934.000,A,3113.541376,N,12131.673016,E,4.6,-65.672298551,130122,,E,A*3C
$GPGGA,101935.000,3113.542051,N,12131.670272,E,1,19,0.8,40.6,M,,M,,*7E
$GPRMC,101935.000,A,3113.542051,N,12131.670272,E,3.6,-54.24753923,130122,,E,A*00
$GPGGA,101936.000,3113.542723,N,12131.667700,E,1,19,0.8,41.8,M,,M,,*76
$GPRMC,101936.000,A,3113.542723,N,12131.667700,E,4.7,-62.742254882,130122,,E,A*3B
$GPGGA,101937.000,3113.542269,N,12131.665764,E,1,19,0.8,42.3,M,,M,,*74
$GPRMC,101937.000,A,3113.542269,N,12131.665764,E,2.7,290.711705791,130122,,E,A*2F
$GPGGA,101938.000,3113.541849,N,12131.664401,E,1,19,0.8,41.8,M,,M,,*79
$GPRMC,101938.000,A,3113.541849,N,12131.664401,E,2.6,322.327941489,130122,,E,A*26
$GPGGA,101939.000,3113.541619,N,12131.663249,E,1,19,0.8,41.6,M,,M,,*70
$GPRMC,101939.000,A,3113.541619,N,12131.663249,E,2.9,-90.033942787,130122,,E,A*31
$GPGGA,101940.000,3113.541353,N,12131.662725,E,1,19,0.8,43.3,M,,M,,*7C
$GPRMC,101940.000,A,3113.541353,N,12131.662725,E,3.3,-126.15849336299999,130122,,E,A*36
$GPGGA,101941.000,3113.540734,N,12131.661612,E,1,19,0.8,43.4,M,,M,,*78
$GPRMC,101941.000,A,3113.540734,N,12131.661612,E,3.5,-125.894600379,130122,,E,A*02
$GPGGA,101942.000,3113.540197,N,12131.660734,E,1,19,0.8,43.5,M,,M,,*71
$GPRMC,101942.000,A,3113.540197,N,12131.660734,E,3.4,-125.306407923,130122,,E,A*0B
$GPGGA,101943.000,3113.541885,N,12131.660355,E,1,19,0.8,44.9,M,,M,,*73
$GPRMC,101943.000,A,3113.541885,N,12131.660355,E,2.5,267.770684705,130122,,E,A*2C
$GPGGA,101944.000,3113.542850,N,12131.661049,E,1,19,0.8,44.3,M,,M,,*7A
$GPRMC,101944.000,A,3113.542850,N,12131.661049,E,2.1,283.36706668700003,130122,,E,A*11
$GPGGA,101945.000,3113.545398,N,12131.662576,E,1,19,0.8,44.1,M,,M,,*7B
$GPRMC,101945.000,A,3113.545398,N,12131.662576,E,4.6,-4.606767253,130122,,E,A*09
$GPGGA,101946.000,3113.546021,N,12131.661746,E,1,19,0.8,43.1,M,,M,,*7F
$GPRMC,101946.000,A,3113.546021,N,12131.661746,E,2.2,293.373922316,130122,,E,A*21
$GPGGA,101947.000,3113.548934,N,12131.661219,E,1,19,0.8,44.1,M,,M,,*75
$GPRMC,101947.000,A,3113.548934,N,12131.661219,E,6.7,-17.390778303,130122,,E,A*36
$GPGGA,101948.000,3113.550346,N,12131.659778,E,1,19,0.8,45.0,M,,M,,*75
$GPRMC,101948.000,A,3113.550346,N,12131.659778,E,6.4,-27.43327676,130122,,E,A*02
$GPGGA,101949.000,3113.550377,N,12131.658350,E,1,19,0.8,45.9,M,,M,,*70
$GPRMC,101949.000,A,3113.550377,N,12131.658350,E,3.1,-56.988561943,130122,,E,A*3B
$GPGGA,101950.000,3113.551106,N,12131.658099,E,1,19,0.8,47.0,M,,M,,*70
$GPRMC,101950.000,A,3113.551106,N,12131.658099,E,2.7,260.428395186,130122,,E,A*26
$GPGGA,101951.000,3113.552323,N,12131.658377,E,1,19,0.8,48.3,M,,M,,*78
$GPRMC,101951.000,A,3113.552323,N,12131.658377,E,3.1,-26.486992606999998,130122,,E,A*3F
$GPGGA,101952.000,3113.553295,N,12131.658268,E,1,19,0.8,49.5,M,,M,,*7E
$GPRMC,101952.000,A,3113.553295,N,12131.658268,E,3.4,-48.980259263,130122,,E,A*32
$GPGGA,101953.000,3113.554340,N,12131.658070,E,1,19,0.8,50.5,M,,M,,*72
$GPRMC,101953.000,A,3113.554340,N,12131.658070,E,2.2,334.899423897,130122,,E,A*27
$GPGGA,101954.000,3113.556694,N,12131.659293,E,1,19,0.8,52.0,M,,M,,*72
$GPRMC,101954.000,A,3113.556694,N,12131.659293,E,2.3,319.393337017,130122,,E,A*2D
$GPGGA,101955.000,3113.558962,N,12131.660196,E,1,19,0.8,53.4,M,,M,,*72
$GPRMC,101955.000,A,3113.558962,N,12131.660196,E,2.1,319.393337017,130122,,E,A*2A
$GPGGA,101956.000,3113.561126,N,12131.661252,E,1,19,0.8,54.2,M,,M,,*78
$GPRMC,101956.000,A,3113.561126,N,12131.661252,E,2.1,319.393337017,130122,,E,A*21
$GPGGA,101957.000,3113.562427,N,12131.663256,E,1,19,0.8,56.0,M,,M,,*78
$GPRMC,101957.000,A,3113.562427,N,12131.663256,E,2.6,319.393337017,130122,,E,A*26
$GPGGA,101958.000,3113.563750,N,12131.665475,E,1,19,0.8,56.3,M,,M,,*77
$GPRMC,101958.000,A,3113.563750,N,12131.665475,E,6.3,67.83575553,130122,,E,A*26
$GPGGA,101959.000,3113.564590,N,12131.667195,E,1,19,0.8,56.2,M,,M,,*77
$GPRMC,101959.000,A,3113.564590,N,12131.667195,E,3.0,34.111465192,130122,,E,A*14
$GPGGA,102000.000,3113.565814,N,12131.669478,E,1,19,0.8,56.1,M,,M,,*7A
$GPRMC,102000.000,A,3113.565814,N,12131.669478,E,2.8,319.393337017,130122,,E,A*2B
$GPGGA,102001.000,3113.566790,N,12131.670863,E,1,19,0.8,55.9,M,,M,,*7E
$GPRMC,102001.000,A,3113.566790,N,12131.670863,E,2.9,319.393337017,130122,,E,A*25
$GPGGA,102002.000,3113.567454,N,12131.670858,E,1,19,0.8,55.7,M,,M,,*71
$GPRMC,102002.000,A,3113.567454,N,12131.670858,E,2.7,23.984682540999998,130122,,E,A*11
$GPGGA,102003.000,3113.568067,N,12131.671925,E,1,19,0.8,55.0,M,,M,,*76
$GPRMC,102003.000,A,3113.568067,N,12131.671925,E,2.6,63.587975915,130122,,E,A*11
$GPGGA,102004.000,3113.568739,N,12131.672468,E,1,19,0.8,54.1,M,,M,,*7A
$GPRMC,102004.000,A,3113.568739,N,12131.672468,E,2.6,88.872749121,130122,,E,A*11
$GPGGA,102005.000,3113.569231,N,12131.672978,E,1,19,0.8,53.1,M,,M,,*7C
$GPRMC,102005.000,A,3113.569231,N,12131.672978,E,2.4,68.326016726,130122,,E,A*1A
$GPGGA,102006.000,3113.569753,N,12131.674123,E,1,19,0.8,51.1,M,,M,,*7C
$GPRMC,102006.000,A,3113.569753,N,12131.674123,E,2.4,39.553222964,130122,,E,A*15
$GPGGA,102007.000,3113.567578,N,12131.676988,E,1,19,0.8,49.7,M,,M,,*7C
$GPRMC,102007.000,A,3113.567578,N,12131.676988,E,1.8,55.841694362,130122,,E,A*14
$GPGGA,102008.000,3113.566462,N,12131.679541,E,1,19,0.8,49.8,M,,M,,*71
$GPRMC,102008.000,A,3113.566462,N,12131.679541,E,2.6,41.916806539,130122,,E,A*10
$GPGGA,102009.000,3113.566703,N,12131.681287,E,1,19,0.8,49.6,M,,M,,*70
$GPRMC,102009.000,A,3113.566703,N,12131.681287,E,2.9,33.764972254,130122,,E,A*10
$GPGGA,102010.000,3113.567470,N,12131.681988,E,1,19,0.8,48.4,M,,M,,*79
$GPRMC,102010.000,A,3113.567470,N,12131.681988,E,3.1,36.940029085999996,130122,,E,A*18
$GPGGA,102011.000,3113.569007,N,12131.682357,E,1,19,0.8,47.5,M,,M,,*77
$GPRMC,102011.000,A,3113.569007,N,12131.682357,E,3.8,24.81012841,130122,,E,A*21
$GPGGA,102012.000,3113.569828,N,12131.682901,E,1,19,0.8,46.6,M,,M,,*7A
$GPRMC,102012.000,A,3113.569828,N,12131.682901,E,2.6,24.923664516,130122,,E,A*18
$GPGGA,102013.000,3113.570579,N,12131.683427,E,1,19,0.8,45.5,M,,M,,*72
$GPRMC,102013.000,A,3113.570579,N,12131.683427,E,3.7,28.706242566,130122,,E,A*12
$GPGGA,102014.000,3113.571127,N,12131.684118,E,1,19,0.8,44.3,M,,M,,*72
$GPRMC,102014.000,A,3113.571127,N,12131.684118,E,3.3,32.924786445,130122,,E,A*19
$GPGGA,102015.000,3113.571263,N,12131.685540,E,1,19,0.8,42.9,M,,M,,*74
$GPRMC,102015.000,A,3113.571263,N,12131.685540,E,2.6,45.274220216,130122,,E,A*10
$GPGGA,102016.000,3113.571768,N,12131.686580,E,1,19,0.8,41.3,M,,M,,*7F
$GPRMC,102016.000,A,3113.571768,N,12131.686580,E,3.2,29.92711427,130122,,E,A*24
$GPGGA,102017.000,3113.572020,N,12131.688126,E,1,19,0.8,40.1,M,,M,,*73
$GPRMC,102017.000,A,3113.572020,N,12131.688126,E,4.3,71.325163405,130122,,E,A*1C
$GPGGA,102018.000,3113.572319,N,12131.689066,E,1,19,0.8,39.0,M,,M,,*7E
$GPRMC,102018.000,A,3113.572319,N,12131.689066,E,3.3,70.5461144,130122,,E,A*1E
$GPGGA,102019.000,3113.574808,N,12131.690029,E,1,19,0.8,37.7,M,,M,,*78
$GPRMC,102019.000,A,3113.574808,N,12131.690029,E,5.4,24.216371436,130122,,E,A*17
$GPGGA,102020.000,3113.577297,N,12131.691352,E,1,19,0.8,37.4,M,,M,,*70
$GPRMC,102020.000,A,3113.577297,N,12131.691352,E,6.6,-4.62155258,130122,,E,A*39
$GPGGA,102021.000,3113.580136,N,12131.692968,E,1,19,0.8,37.2,M,,M,,*77
$GPRMC,102021.000,A,3113.580136,N,12131.692968,E,3.8,69.092152067,130122,,E,A*13
$GPGGA,102022.000,3113.580740,N,12131.696342,E,1,19,0.8,37.8,M,,M,,*7F
$GPRMC,102022.000,A,3113.580740,N,12131.696342,E,3.6,41.525550482,130122,,E,A*15
$GPGGA,102023.000,3113.583318,N,12131.697642,E,1,19,0.8,38.3,M,,M,,*74
$GPRMC,102023.000,A,3113.583318,N,12131.697642,E,5.0,34.666012564,130122,,E,A*16
$GPGGA,102024.000,3113.586103,N,12131.698160,E,1,19,0.8,38.7,M,,M,,*72
$GPRMC,102024.000,A,3113.586103,N,12131.698160,E,4.4,32.02648574,130122,,E,A*2B
$GPGGA,102025.000,3113.587071,N,12131.698616,E,1,19,0.8,37.9,M,,M,,*71
$GPRMC,102025.000,A,3113.587071,N,12131.698616,E,3.9,30.398520283000003,130122,,E,A*10
$GPGGA,102026.000,3113.590698,N,12131.700453,E,1,19,0.8,38.0,M,,M,,*70
$GPRMC,102026.000,A,3113.590698,N,12131.700453,E,6.8,35.498372828,130122,,E,A*18
$GPGGA,102027.000,3113.595544,N,12131.703029,E,1,19,0.8,39.1,M,,M,,*7C
$GPRMC,102027.000,A,3113.595544,N,12131.703029,E,13.4,29.698280061,130122,,E,A*2A
$GPGGA,102028.000,3113.602030,N,12131.704892,E,1,19,0.8,39.9,M,,M,,*7F
$GPRMC,102028.000,A,3113.602030,N,12131.704892,E,23.7,16.458713955,130122,,E,A*22
$GPGGA,102029.000,3113.605433,N,12131.705070,E,1,19,0.8,40.7,M,,M,,*7B
$GPRMC,102029.000,A,3113.605433,N,12131.705070,E,14.4,15.519631785,130122,,E,A*24
$GPGGA,102030.000,3113.604048,N,12131.705404,E,1,19,0.8,42.2,M,,M,,*7A
$GPRMC,102030.000,A,3113.604048,N,12131.705404,E,1.6,59.057135725,130122,,E,A*1A
$GPGGA,102031.000,3113.603045,N,12131.706002,E,1,19,0.8,44.1,M,,M,,*75
$GPRMC,102031.000,A,3113.603045,N,12131.706002,E,0.6,59.057135725,130122,,E,A*11
$GPGGA,102032.000,3113.603105,N,12131.705333,E,1,19,0.8,46.0,M,,M,,*72
$GPRMC,102032.000,A,3113.603105,N,12131.705333,E,0.2,59.057135725,130122,,E,A*11
$GPGGA,102033.000,3113.603146,N,12131.705382,E,1,19,0.8,46.0,M,,M,,*7E
$GPRMC,102033.000,A,3113.603146,N,12131.705382,E,0.2,59.057135725,130122,,E,A*1D
$GPGGA,102034.000,3113.601544,N,12131.699767,E,1,19,0.8,46.2,M,,M,,*74
$GPRMC,102034.000,A,3113.601544,N,12131.699767,E,3.8,-70.661845667,130122,,E,A*30
$GPGGA,102035.000,3113.599934,N,12131.695787,E,1,19,0.8,46.5,M,,M,,*79
$GPRMC,102035.000,A,3113.599934,N,12131.695787,E,8.9,-89.90227932200001,130122,,E,A*0C
$GPGGA,102036.000,3113.598596,N,12131.691915,E,1,19,0.8,47.2,M,,M,,*78
$GPRMC,102036.000,A,3113.598596,N,12131.691915,E,3.6,94.914676177,130122,,E,A*11
$GPGGA,102037.000,3113.597219,N,12131.690221,E,1,19,0.8,47.6,M,,M,,*7F
$GPRMC,102037.000,A,3113.597219,N,12131.690221,E,3.9,97.655298337,130122,,E,A*16
$GPGGA,102038.000,3113.596000,N,12131.689996,E,1,19,0.8,48.1,M,,M,,*7C
$GPRMC,102038.000,A,3113.596000,N,12131.689996,E,3.9,107.49744986399999,130122,,E,A*10
$GPGGA,102039.000,3113.595231,N,12131.689136,E,1,19,0.8,49.2,M,,M,,*7E
$GPRMC,102039.000,A,3113.595231,N,12131.689136,E,3.0,114.965352882,130122,,E,A*20
$GPGGA,102040.000,3113.595450,N,12131.688925,E,1,19,0.8,50.5,M,,M,,*75
$GPRMC,102040.000,A,3113.595450,N,12131.688925,E,1.7,83.19574853399999,130122,,E,A*28
$GPGGA,102041.000,3113.594577,N,12131.688525,E,1,19,0.8,50.9,M,,M,,*71
$GPRMC,102041.000,A,3113.594577,N,12131.688525,E,1.7,107.540216416,130122,,E,A*20
$GPGGA,102042.000,3113.593401,N,12131.687945,E,1,19,0.8,51.6,M,,M,,*7E
$GPRMC,102042.000,A,3113.593401,N,12131.687945,E,2.1,130.798014849,130122,,E,A*21
$GPGGA,102043.000,3113.592728,N,12131.687382,E,1,19,0.8,51.8,M,,M,,*79
$GPRMC,102043.000,A,3113.592728,N,12131.687382,E,2.2,119.357639101,130122,,E,A*2B
$GPGGA,102044.000,3113.592048,N,12131.686802,E,1,19,0.8,52.2,M,,M,,*74
$GPRMC,102044.000,A,3113.592048,N,12131.686802,E,2.2,122.391773091,130122,,E,A*2A
$GPGGA,102045.000,3113.591384,N,12131.686108,E,1,19,0.8,52.4,M,,M,,*70
$GPRMC,102045.000,A,3113.591384,N,12131.686108,E,2.0,115.289824271,130122,,E,A*27
$GPGGA,102046.000,3113.589319,N,12131.686379,E,1,19,0.8,53.5,M,,M,,*7A
$GPRMC,102046.000,A,3113.589319,N,12131.686379,E,2.6,108.79656142700001,130122,,E,A*14
$GPGGA,102047.000,3113.587970,N,12131.685424,E,1,19,0.8,54.0,M,,M,,*7E
$GPRMC,102047.000,A,3113.587970,N,12131.685424,E,1.2,84.34365063,130122,,E,A*28
$GPGGA,102048.000,3113.586283,N,12131.684913,E,1,19,0.8,54.4,M,,M,,*7B
$GPRMC,102048.000,A,3113.586283,N,12131.684913,E,1.5,114.82605442100001,130122,,E,A*1F
$GPGGA,102049.000,3113.585146,N,12131.684671,E,1,19,0.8,54.1,M,,M,,*7D
$GPRMC,102049.000,A,3113.585146,N,12131.684671,E,1.8,128.974914395,130122,,E,A*2C
$GPGGA,102050.000,3113.582566,N,12131.683572,E,1,19,0.8,52.9,M,,M,,*7D
$GPRMC,102050.000,A,3113.582566,N,12131.683572,E,3.5,-160.117216401,130122,,E,A*02
$GPGGA,102051.000,3113.578536,N,12131.680782,E,1,19,0.8,52.3,M,,M,,*78
$GPRMC,102051.000,A,3113.578536,N,12131.680782,E,6.7,-159.823612,130122,,E,A*3B
$GPGGA,102052.000,3113.574353,N,12131.678611,E,1,19,0.8,51.5,M,,M,,*7B
$GPRMC,102052.000,A,3113.574353,N,12131.678611,E,9.2,-162.977464477,130122,,E,A*08
$GPGGA,102053.000,3113.571915,N,12131.677743,E,1,19,0.8,51.5,M,,M,,*7E
$GPRMC,102053.000,A,3113.571915,N,12131.677743,E,9.2,-162.97749461,130122,,E,A*31
$GPGGA,102054.000,3113.571629,N,12131.679313,E,1,19,0.8,50.9,M,,M,,*7B
$GPRMC,102054.000,A,3113.571629,N,12131.679313,E,2.0,132.204733307,130122,,E,A*2A
$GPGGA,102055.000,3113.570837,N,12131.680579,E,1,19,0.8,51.7,M,,M,,*79
$GPRMC,102055.000,A,3113.570837,N,12131.680579,E,4.2,114.097537367,130122,,E,A*2F
$GPGGA,102056.000,3113.570697,N,12131.683347,E,1,19,0.8,52.5,M,,M,,*77
$GPRMC,102056.000,A,3113.570697,N,12131.683347,E,6.5,105.466402764,130122,,E,A*2F
$GPGGA,102057.000,3113.572008,N,12131.688291,E,1,19,0.8,51.0,M,,M,,*73
$GPRMC,102057.000,A,3113.572008,N,12131.688291,E,1.9,146.40166415299998,130122,,E,A*19
$GPGGA,102058.000,3113.572251,N,12131.691808,E,1,19,0.8,51.1,M,,M,,*71
$GPRMC,102058.000,A,3113.572251,N,12131.691808,E,3.9,133.654132984,130122,,E,A*27
$GPGGA,102059.000,3113.572552,N,12131.695343,E,1,19,0.8,50.0,M,,M,,*74
$GPRMC,102059.000,A,3113.572552,N,12131.695343,E,4.3,115.375468004,130122,,E,A*26
$GPGGA,102100.000,3113.573507,N,12131.699095,E,1,19,0.8,49.0,M,,M,,*74
$GPRMC,102100.000,A,3113.573507,N,12131.699095,E,2.9,88.02581725,130122,,E,A*26
$GPGGA,102101.000,3113.574063,N,12131.701582,E,1,19,0.8,48.6,M,,M,,*71
$GPRMC,102101.000,A,3113.574063,N,12131.701582,E,3.9,79.44884768600001,130122,,E,A*2F
$GPGGA,102102.000,3113.575149,N,12131.703757,E,1,19,0.8,47.9,M,,M,,*72
$GPRMC,102102.000,A,3113.575149,N,12131.703757,E,5.2,64.714441068,130122,,E,A*1A
$GPGGA,102103.000,3113.584682,N,12131.707813,E,1,19,0.8,50.7,M,,M,,*7E
$GPRMC,102103.000,A,3113.584682,N,12131.707813,E,4.6,20.68004849,130122,,E,A*29
$GPGGA,102104.000,3113.586307,N,12131.709843,E,1,19,0.8,49.5,M,,M,,*72
$GPRMC,102104.000,A,3113.586307,N,12131.709843,E,2.1,124.74003313600001,130122,,E,A*12
$GPGGA,102105.000,3113.579251,N,12131.713039,E,1,19,0.8,48.0,M,,M,,*7B
$GPRMC,102105.000,A,3113.579251,N,12131.713039,E,21.1,173.827822396,130122,,E,A*13
$GPGGA,102106.000,3113.577618,N,12131.715589,E,1,19,0.8,47.4,M,,M,,*7C
$GPRMC,102106.000,A,3113.577618,N,12131.715589,E,6.0,154.746360915,130122,,E,A*2A
$GPGGA,102107.000,3113.573365,N,12131.720200,E,1,19,0.8,46.8,M,,M,,*7B
$GPRMC,102107.000,A,3113.573365,N,12131.720200,E,4.6,125.05685859799999,130122,,E,A*1B
$GPGGA,102108.000,3113.571521,N,12131.722691,E,1,19,0.8,47.9,M,,M,,*7E
$GPRMC,102108.000,A,3113.571521,N,12131.722691,E,3.9,119.771576906,130122,,E,A*27
$GPGGA,102109.000,3113.572496,N,12131.722970,E,1,19,0.8,47.7,M,,M,,*7F
$GPRMC,102109.000,A,3113.572496,N,12131.722970,E,2.8,134.031849912,130122,,E,A*20
$GPGGA,102110.000,3113.573195,N,12131.722621,E,1,19,0.8,47.4,M,,M,,*78
$GPRMC,102110.000,A,3113.573195,N,12131.722621,E,2.9,134.031849912,130122,,E,A*25
$GPGGA,102111.000,3113.572815,N,12131.721800,E,1,19,0.8,48.6,M,,M,,*7A
$GPRMC,102111.000,A,3113.572815,N,12131.721800,E,3.0,141.866361257,130122,,E,A*21
$GPGGA,102112.000,3113.571667,N,12131.722207,E,1,19,0.8,48.7,M,,M,,*7E
$GPRMC,102112.000,A,3113.571667,N,12131.722207,E,3.0,140.36896401299998,130122,,E,A*14
$GPGGA,102113.000,3113.571709,N,12131.723641,E,1,19,0.8,49.4,M,,M,,*73
$GPRMC,102113.000,A,3113.571709,N,12131.723641,E,3.0,127.90013427299999,130122,,E,A*16
$GPGGA,102114.000,3113.571308,N,12131.724452,E,1,19,0.8,49.1,M,,M,,*73
$GPRMC,102114.000,A,3113.571308,N,12131.724452,E,3.0,127.786244396,130122,,E,A*25
$GPGGA,102115.000,3113.571143,N,12131.725852,E,1,19,0.8,48.7,M,,M,,*75
$GPRMC,102115.000,A,3113.571143,N,12131.725852,E,2.6,119.672497166,130122,,E,A*21
$GPGGA,102116.000,3113.571294,N,12131.727412,E,1,19,0.8,49.1,M,,M,,*72
$GPRMC,102116.000,A,3113.571294,N,12131.727412,E,2.9,101.35582839,130122,,E,A*14
$GPGGA,102117.000,3113.571366,N,12131.728597,E,1,19,0.8,49.5,M,,M,,*78
$GPRMC,102117.000,A,3113.571366,N,12131.728597,E,3.9,99.937822115,130122,,E,A*10
$GPGGA,102118.000,3113.571623,N,12131.729585,E,1,19,0.8,48.9,M,,M,,*7C
$GPRMC,102118.000,A,3113.571623,N,12131.729585,E,3.7,96.075066395,130122,,E,A*15
$GPGGA,102119.000,3113.572306,N,12131.730122,E,1,19,0.8,48.1,M,,M,,*75
$GPRMC,102119.000,A,3113.572306,N,12131.730122,E,2.2,86.332499286,130122,,E,A*16
$GPGGA,102120.000,3113.572549,N,12131.730670,E,1,19,0.8,47.6,M,,M,,*7A
$GPRMC,102120.000,A,3113.572549,N,12131.730670,E,1.9,91.54690481600001,130122,,E,A*21
$GPGGA,102121.000,3113.572721,N,12131.731008,E,1,19,0.8,46.3,M,,M,,*7B
$GPRMC,102121.000,A,3113.572721,N,12131.731008,E,2.4,43.852164568,130122,,E,A*16
$GPGGA,102122.000,3113.573720,N,12131.731142,E,1,19,0.8,44.8,M,,M,,*7E
$GPRMC,102122.000,A,3113.573720,N,12131.731142,E,3.1,47.358697287,130122,,E,A*16
$GPGGA,102123.000,3113.573342,N,12131.731820,E,1,19,0.8,43.7,M,,M,,*7A
$GPRMC,102123.000,A,3113.573342,N,12131.731820,E,4.8,142.41301697,130122,,E,A*14
$GPGGA,102124.000,3113.572502,N,12131.733203,E,1,19,0.8,42.8,M,,M,,*79
$GPRMC,102124.000,A,3113.572502,N,12131.733203,E,8.5,139.87414653,130122,,E,A*15
$GPGGA,102125.000,3113.571482,N,12131.734863,E,1,19,0.8,42.5,M,,M,,*74
$GPRMC,102125.000,A,3113.571482,N,12131.734863,E,7.2,130.94889011799998,130122,,E,A*11
$GPGGA,102126.000,3113.570729,N,12131.739879,E,1,19,0.8,42.0,M,,M,,*77
$GPRMC,102126.000,A,3113.570729,N,12131.739879,E,14.4,115.40330887200001,130122,,E,A*2F
$GPGGA,102127.000,3113.569202,N,12131.744064,E,1,19,0.8,41.6,M,,M,,*79
$GPRMC,102127.000,A,3113.569202,N,12131.744064,E,14.0,114.511638948,130122,,E,A*1C
$GPGGA,102128.000,3113.567351,N,12131.749954,E,1,19,0.8,41.8,M,,M,,*76
$GPRMC,102128.000,A,3113.567351,N,12131.749954,E,17.3,110.665535515,130122,,E,A*13
$GPGGA,102129.000,3113.567336,N,12131.752627,E,1,19,0.8,41.8,M,,M,,*77
$GPRMC,102129.000,A,3113.567336,N,12131.752627,E,5.6,120.721057803,130122,,E,A*2D
$GPGGA,102130.000,3113.565825,N,12131.755494,E,1,19,0.8,41.9,M,,M,,*78
$GPRMC,102130.000,A,3113.565825,N,12131.755494,E,7.8,155.01363032,130122,,E,A*16
$GPGGA,102131.000,3113.565774,N,12131.757801,E,1,19,0.8,42.1,M,,M,,*7B
$GPRMC,102131.000,A,3113.565774,N,12131.757801,E,4.7,96.274389611,130122,,E,A*1F
$GPGGA,102132.000,3113.566291,N,12131.760291,E,1,19,0.8,42.4,M,,M,,*77
$GPRMC,102132.000,A,3113.566291,N,12131.760291,E,5.7,62.640693151,130122,,E,A*12
$GPGGA,102133.000,3113.566412,N,12131.762064,E,1,19,0.8,42.8,M,,M,,*7D
$GPRMC,102133.000,A,3113.566412,N,12131.762064,E,5.0,76.495231546,130122,,E,A*12
$GPGGA,102134.000,3113.568598,N,12131.759934,E,1,19,0.8,43.5,M,,M,,*7F
