$GPGGA,025059.000,3411.624141,N,10850.436795,E,1,19,0.8,431.5,M,,M,,*4F
$GPRMC,025059.000,A,3411.624141,N,10850.436795,E,2.1,182.55669721,081221,,E,A*18
$GPGGA,025100.000,3411.626191,N,10850.436880,E,1,19,0.8,425.5,M,,M,,*43
$GPRMC,025100.000,A,3411.626191,N,10850.436880,E,1.7,173.498404605,081221,,E,A*21
$GPGGA,025101.000,3411.626486,N,10850.436741,E,1,19,0.8,425.4,M,,M,,*42
$GPRMC,025101.000,A,3411.626486,N,10850.436741,E,1.4,171.202545771,081221,,E,A*23
$GPGGA,025102.000,3411.625617,N,10850.437002,E,1,19,0.8,425.6,M,,M,,*4B
$GPRMC,025102.000,A,3411.625617,N,10850.437002,E,0.3,167.8853824,081221,,E,A*24
$GPGGA,025103.000,3411.621872,N,10850.438057,E,1,19,0.8,425.9,M,,M,,*43
$GPRMC,025103.000,A,3411.621872,N,10850.438057,E,2.5,168.341761985,081221,,E,A*22
$GPGGA,025104.000,3411.621251,N,10850.438463,E,1,19,0.8,426.0,M,,M,,*46
$GPRMC,025104.000,A,3411.621251,N,10850.438463,E,1.8,174.564610807,081221,,E,A*23
$GPGGA,025105.000,3411.620697,N,10850.439606,E,1,19,0.8,425.2,M,,M,,*49
$GPRMC,025105.000,A,3411.620697,N,10850.439606,E,1.7,168.413861463,081221,,E,A*28
$GPGGA,025106.000,3411.620743,N,10850.440179,E,1,19,0.8,424.1,M,,M,,*41
$GPRMC,025106.000,A,3411.620743,N,10850.440179,E,1.5,174.05960027400002,081221,,E,A*1C
$GPGGA,025107.000,3411.620923,N,10850.439741,E,1,19,0.8,423.4,M,,M,,*49
$GPRMC,025107.000,A,3411.620923,N,10850.439741,E,1.1,176.22953773900002,081221,,E,A*1E
$GPGGA,025108.000,3411.620643,N,10850.440299,E,1,19,0.8,423.4,M,,M,,*41
$GPRMC,025108.000,A,3411.620643,N,10850.440299,E,1.2,180.892794807,081221,,E,A*2D
$GPGGA,025109.000,3411.621878,N,10850.437326,E,1,19,0.8,419.5,M,,M,,*4A
$GPRMC,025109.000,A,3411.621878,N,10850.437326,E,0.8,181.20668298400003,081221,,E,A*1C
$GPGGA,025110.000,3411.620582,N,10850.438753,E,1,19,0.8,421.0,M,,M,,*4C
$GPRMC,025110.000,A,3411.620582,N,10850.438753,E,1.3,172.80180726400002,081221,,E,A*18
$GPGGA,025111.000,3411.620030,N,10850.438888,E,1,19,0.8,420.4,M,,M,,*4D
$GPRMC,025111.000,A,3411.620030,N,10850.438888,E,1.6,160.786097354,081221,,E,A*2B
$GPGGA,025112.000,3411.619435,N,10850.439026,E,1,19,0.8,420.4,M,,M,,*48
$GPRMC,025112.000,A,3411.619435,N,10850.439026,E,1.8,169.261679194,081221,,E,A*2D
$GPGGA,025113.000,3411.618508,N,10850.437315,E,1,19,0.8,419.2,M,,M,,*46
$GPRMC,025113.000,A,3411.618508,N,10850.437315,E,2.2,173.534399702,081221,,E,A*28
$GPGGA,025114.000,3411.617130,N,10850.430495,E,1,19,0.8,422.0,M,,M,,*43
$GPRMC,025114.000,A,3411.617130,N,10850.430495,E,3.9,-134.319098199,081221,,E,A*0C
$GPGGA,025115.000,3411.616110,N,10850.430197,E,1,19,0.8,423.2,M,,M,,*45
$GPRMC,025115.000,A,3411.616110,N,10850.430197,E,3.2,176.359065733,081221,,E,A*29
$GPGGA,025116.000,3411.615335,N,10850.430715,E,1,19,0.8,423.2,M,,M,,*4C
$GPRMC,025116.000,A,3411.615335,N,10850.430715,E,3.9,145.507615662,081221,,E,A*22
$GPGGA,025117.000,3411.614297,N,10850.430873,E,1,19,0.8,423.3,M,,M,,*4B
$GPRMC,025117.000,A,3411.614297,N,10850.430873,E,3.5,165.169747108,081221,,E,A*2B
$GPGGA,025118.000,3411.612972,N,10850.430934,E,1,19,0.8,423.3,M,,M,,*40
$GPRMC,025118.000,A,3411.612972,N,10850.430934,E,3.9,168.643438923,081221,,E,A*24
$GPGGA,025119.000,3411.612233,N,10850.431723,E,1,19,0.8,423.0,M,,M,,*45
$GPRMC,025119.000,A,3411.612233,N,10850.431723,E,3.7,168.725177092,081221,,E,A*20
$GPGGA,025120.000,3411.611440,N,10850.431997,E,1,19,0.8,422.9,M,,M,,*47
$GPRMC,025120.000,A,3411.611440,N,10850.431997,E,3.6,168.803199226,081221,,E,A*2D
$GPGGA,025121.000,3411.610509,N,10850.432222,E,1,19,0.8,422.9,M,,M,,*4D
$GPRMC,025121.000,A,3411.610509,N,10850.432222,E,3.6,168.948115033,081221,,E,A*2B
$GPGGA,025122.000,3411.609785,N,10850.432509,E,1,19,0.8,422.9,M,,M,,*4E
$GPRMC,025122.000,A,3411.609785,N,10850.432509,E,3.4,168.43776919299998,081221,,E,A*10
$GPGGA,025123.000,3411.608831,N,10850.432641,E,1,19,0.8,422.9,M,,M,,*41
$GPRMC,025123.000,A,3411.608831,N,10850.432641,E,3.4,169.315969331,081221,,E,A*24
$GPGGA,025124.000,3411.608055,N,10850.432803,E,1,19,0.8,422.9,M,,M,,*44
$GPRMC,025124.000,A,3411.608055,N,10850.432803,E,3.3,169.57712688799998,081221,,E,A*19
$GPGGA,025125.000,3411.607332,N,10850.432905,E,1,19,0.8,422.9,M,,M,,*4F
$GPRMC,025125.000,A,3411.607332,N,10850.432905,E,3.2,170.126551184,081221,,E,A*2D
$GPGGA,025126.000,3411.606529,N,10850.432977,E,1,19,0.8,422.9,M,,M,,*44
$GPRMC,025126.000,A,3411.606529,N,10850.432977,E,3.2,170.862064151,081221,,E,A*24
$GPGGA,025127.000,3411.605827,N,10850.433025,E,1,19,0.8,422.9,M,,M,,*4A
$GPRMC,025127.000,A,3411.605827,N,10850.433025,E,3.1,171.65717167100001,081221,,E,A*11
$GPGGA,025128.000,3411.605486,N,10850.433738,E,1,19,0.8,422.8,M,,M,,*48
$GPRMC,025128.000,A,3411.605486,N,10850.433738,E,2.9,168.71457153,081221,,E,A*16
$GPGGA,025129.000,3411.605540,N,10850.434067,E,1,19,0.8,422.8,M,,M,,*48
$GPRMC,025129.000,A,3411.605540,N,10850.434067,E,2.6,175.417838048,081221,,E,A*2F
$GPGGA,025130.000,3411.605018,N,10850.434791,E,1,19,0.8,422.9,M,,M,,*47
$GPRMC,025130.000,A,3411.605018,N,10850.434791,E,2.6,187.50908985,081221,,E,A*11
$GPGGA,025131.000,3411.603762,N,10850.432136,E,1,19,0.8,421.7,M,,M,,*4A
$GPRMC,025131.000,A,3411.603762,N,10850.432136,E,2.6,193.389049511,081221,,E,A*2E
$GPGGA,025132.000,3411.602928,N,10850.430381,E,1,19,0.8,420.8,M,,M,,*4A
$GPRMC,025132.000,A,3411.602928,N,10850.430381,E,2.4,183.640429678,081221,,E,A*2D
$GPGGA,025133.000,3411.602320,N,10850.430303,E,1,19,0.8,420.8,M,,M,,*43
$GPRMC,025133.000,A,3411.602320,N,10850.430303,E,2.4,186.688224046,081221,,E,A*25
$GPGGA,025134.000,3411.601585,N,10850.429639,E,1,19,0.8,420.7,M,,M,,*45
$GPRMC,025134.000,A,3411.601585,N,10850.429639,E,2.4,191.626232308,081221,,E,A*20
$GPGGA,025135.000,3411.600965,N,10850.429171,E,1,19,0.8,420.4,M,,M,,*4F
$GPRMC,025135.000,A,3411.600965,N,10850.429171,E,2.4,199.74545585400003,081221,,E,A*13
$GPGGA,025136.000,3411.600288,N,10850.428953,E,1,19,0.8,420.4,M,,M,,*4D
$GPRMC,025136.000,A,3411.600288,N,10850.428953,E,2.4,216.032629516,081221,,E,A*23
$GPGGA,025137.000,3411.599616,N,10850.428635,E,1,19,0.8,420.5,M,,M,,*42
$GPRMC,025137.000,A,3411.599616,N,10850.428635,E,2.4,219.417357119,081221,,E,A*26
$GPGGA,025138.000,3411.598979,N,10850.428267,E,1,19,0.8,420.5,M,,M,,*49
$GPRMC,025138.000,A,3411.598979,N,10850.428267,E,2.4,222.888431975,081221,,E,A*2A
$GPGGA,025139.000,3411.598001,N,10850.427322,E,1,19,0.8,420.6,M,,M,,*42
$GPRMC,025139.000,A,3411.598001,N,10850.427322,E,2.5,225.88702166,081221,,E,A*15
$GPGGA,025140.000,3411.597518,N,10850.431719,E,1,19,0.8,417.6,M,,M,,*41
$GPRMC,025140.000,A,3411.597518,N,10850.431719,E,2.5,219.49783040900002,081221,,E,A*17
$GPGGA,025141.000,3411.596801,N,10850.432265,E,1,19,0.8,416.6,M,,M,,*48
$GPRMC,025141.000,A,3411.596801,N,10850.432265,E,2.6,215.360853082,081221,,E,A*2F
$GPGGA,025142.000,3411.596077,N,10850.432427,E,1,19,0.8,416.2,M,,M,,*46
$GPRMC,025142.000,A,3411.596077,N,10850.432427,E,2.6,209.502080669,081221,,E,A*2F
$GPGGA,025143.000,3411.595385,N,10850.432638,E,1,19,0.8,416.0,M,,M,,*44
$GPRMC,025143.000,A,3411.595385,N,10850.432638,E,2.6,224.862083461,081221,,E,A*22
$GPGGA,025144.000,3411.594561,N,10850.433529,E,1,19,0.8,415.7,M,,M,,*48
$GPRMC,025144.000,A,3411.594561,N,10850.433529,E,2.7,236.829681517,081221,,E,A*23
$GPGGA,025145.000,3411.593712,N,10850.433960,E,1,19,0.8,415.6,M,,M,,*48
$GPRMC,025145.000,A,3411.593712,N,10850.433960,E,2.7,239.19858239400003,081221,,E,A*10
$GPGGA,025146.000,3411.593238,N,10850.434888,E,1,19,0.8,415.5,M,,M,,*45
$GPRMC,025146.000,A,3411.593238,N,10850.434888,E,2.7,251.67933256900002,081221,,E,A*10
$GPGGA,025147.000,3411.592511,N,10850.435441,E,1,19,0.8,415.5,M,,M,,*41
$GPRMC,025147.000,A,3411.592511,N,10850.435441,E,2.7,251.20220286900002,081221,,E,A*13
$GPGGA,025148.000,3411.591798,N,10850.435653,E,1,19,0.8,415.4,M,,M,,*4E
$GPRMC,025148.000,A,3411.591798,N,10850.435653,E,2.7,245.978747338,081221,,E,A*27
$GPGGA,025149.000,3411.593183,N,10850.428677,E,1,19,0.8,412.6,M,,M,,*4E
$GPRMC,025149.000,A,3411.593183,N,10850.428677,E,2.4,260.623656637,081221,,E,A*2C
$GPGGA,025150.000,3411.594577,N,10850.425897,E,1,19,0.8,412.7,M,,M,,*42
$GPRMC,025150.000,A,3411.594577,N,10850.425897,E,2.4,258.333220974,081221,,E,A*23
$GPGGA,025151.000,3411.595073,N,10850.424869,E,1,19,0.8,412.0,M,,M,,*44
$GPRMC,025151.000,A,3411.595073,N,10850.424869,E,2.3,255.443859676,081221,,E,A*21
$GPGGA,025152.000,3411.595468,N,10850.423583,E,1,19,0.8,411.5,M,,M,,*41
$GPRMC,025152.000,A,3411.595468,N,10850.423583,E,2.5,257.719788017,081221,,E,A*28
$GPGGA,025153.000,3411.595981,N,10850.422667,E,1,19,0.8,411.2,M,,M,,*45
$GPRMC,025153.000,A,3411.595981,N,10850.422667,E,2.6,260.212588527,081221,,E,A*26
$GPGGA,025154.000,3411.596172,N,10850.421886,E,1,19,0.8,411.1,M,,M,,*44
$GPRMC,025154.000,A,3411.596172,N,10850.421886,E,2.6,256.91939912,081221,,E,A*14
$GPGGA,025155.000,3411.596118,N,10850.420954,E,1,19,0.8,411.1,M,,M,,*46
$GPRMC,025155.000,A,3411.596118,N,10850.420954,E,2.7,265.669226718,081221,,E,A*27
$GPGGA,025156.000,3411.596052,N,10850.420160,E,1,19,0.8,411.0,M,,M,,*44
$GPRMC,025156.000,A,3411.596052,N,10850.420160,E,2.8,271.757329567,081221,,E,A*26
$GPGGA,025157.000,3411.596370,N,10850.419683,E,1,19,0.8,411.2,M,,M,,*44
$GPRMC,025157.000,A,3411.596370,N,10850.419683,E,2.7,266.820414135,081221,,E,A*28
$GPGGA,025158.000,3411.596388,N,10850.418571,E,1,19,0.8,411.5,M,,M,,*44
$GPRMC,025158.000,A,3411.596388,N,10850.418571,E,2.8,266.941417768,081221,,E,A*2B
$GPGGA,025159.000,3411.596839,N,10850.417616,E,1,19,0.8,412.8,M,,M,,*47
$GPRMC,025159.000,A,3411.596839,N,10850.417616,E,2.8,261.613214455,081221,,E,A*21
$GPGGA,025200.000,3411.597109,N,10850.415561,E,1,19,0.8,416.7,M,,M,,*49
$GPRMC,025200.000,A,3411.597109,N,10850.415561,E,3.0,-88.49198629600001,081221,,E,A*05
$GPGGA,025201.000,3411.598027,N,10850.414158,E,1,19,0.8,417.6,M,,M,,*45
$GPRMC,025201.000,A,3411.598027,N,10850.414158,E,3.1,-83.137286064,081221,,E,A*3F
$GPGGA,025202.000,3411.598335,N,10850.412681,E,1,19,0.8,419.2,M,,M,,*49
$GPRMC,025202.000,A,3411.598335,N,10850.412681,E,3.2,-81.94902707600001,081221,,E,A*02
$GPGGA,025203.000,3411.597856,N,10850.412073,E,1,19,0.8,419.9,M,,M,,*49
$GPRMC,025203.000,A,3411.597856,N,10850.412073,E,3.0,-84.790136733,081221,,E,A*32
$GPGGA,025204.000,3411.597857,N,10850.411341,E,1,19,0.8,420.4,M,,M,,*49
$GPRMC,025204.000,A,3411.597857,N,10850.411341,E,2.8,267.65601948799997,081221,,E,A*12
$GPGGA,025205.000,3411.597701,N,10850.410497,E,1,19,0.8,419.4,M,,M,,*43
$GPRMC,025205.000,A,3411.597701,N,10850.410497,E,2.8,267.451414339,081221,,E,A*2B
$GPGGA,025206.000,3411.597736,N,10850.409580,E,1,19,0.8,419.4,M,,M,,*4B
$GPRMC,025206.000,A,3411.597736,N,10850.409580,E,2.8,258.951653629,081221,,E,A*27
$GPGGA,025207.000,3411.596583,N,10850.407625,E,1,19,0.8,421.0,M,,M,,*4A
$GPRMC,025207.000,A,3411.596583,N,10850.407625,E,3.1,-93.956810748,081221,,E,A*31
$GPGGA,025208.000,3411.596970,N,10850.405762,E,1,19,0.8,421.7,M,,M,,*42
$GPRMC,025208.000,A,3411.596970,N,10850.405762,E,3.4,-90.95808200200001,081221,,E,A*0D
$GPGGA,025209.000,3411.596739,N,10850.405231,E,1,19,0.8,423.2,M,,M,,*44
$GPRMC,025209.000,A,3411.596739,N,10850.405231,E,3.1,-92.307391114,081221,,E,A*3D
$GPGGA,025210.000,3411.596462,N,10850.404413,E,1,19,0.8,423.8,M,,M,,*4C
$GPRMC,025210.000,A,3411.596462,N,10850.404413,E,3.0,-94.11370608200001,081221,,E,A*0A
$GPGGA,025211.000,3411.596483,N,10850.403364,E,1,19,0.8,424.1,M,,M,,*4C
$GPRMC,025211.000,A,3411.596483,N,10850.403364,E,3.0,-93.43911584799999,081221,,E,A*03
$GPGGA,025212.000,3411.596574,N,10850.403250,E,1,19,0.8,424.4,M,,M,,*45
$GPRMC,025212.000,A,3411.596574,N,10850.403250,E,2.6,256.56231682599997,081221,,E,A*1A
$GPGGA,025213.000,3411.595863,N,10850.402344,E,1,19,0.8,423.6,M,,M,,*4C
$GPRMC,025213.000,A,3411.595863,N,10850.402344,E,2.6,264.975416094,081221,,E,A*2F
$GPGGA,025214.000,3411.594709,N,10850.401693,E,1,19,0.8,423.2,M,,M,,*41
$GPRMC,025214.000,A,3411.594709,N,10850.401693,E,2.6,266.646736083,081221,,E,A*2C
$GPGGA,025215.000,3411.593960,N,10850.400571,E,1,19,0.8,422.5,M,,M,,*4E
$GPRMC,025215.000,A,3411.593960,N,10850.400571,E,2.7,268.03228095400004,081221,,E,A*10
$GPGGA,025216.000,3411.592627,N,10850.399162,E,1,19,0.8,422.4,M,,M,,*40
$GPRMC,025216.000,A,3411.592627,N,10850.399162,E,3.1,-115.51454499799999,081221,,E,A*30
$GPGGA,025217.000,3411.591376,N,10850.397900,E,1,19,0.8,422.0,M,,M,,*45
$GPRMC,025217.000,A,3411.591376,N,10850.397900,E,3.3,-119.36896403600001,081221,,E,A*36
$GPGGA,025218.000,3411.590131,N,10850.396805,E,1,19,0.8,421.7,M,,M,,*4B
$GPRMC,025218.000,A,3411.590131,N,10850.396805,E,3.5,-123.17247335200001,081221,,E,A*30
$GPGGA,025219.000,3411.589366,N,10850.395795,E,1,19,0.8,421.1,M,,M,,*41
$GPRMC,025219.000,A,3411.589366,N,10850.395795,E,3.5,-123.748615856,081221,,E,A*0F
$GPGGA,025220.000,3411.588849,N,10850.394659,E,1,19,0.8,420.7,M,,M,,*4B
$GPRMC,025220.000,A,3411.588849,N,10850.394659,E,3.5,-122.70965507,081221,,E,A*3E
$GPGGA,025221.000,3411.588166,N,10850.393808,E,1,19,0.8,420.4,M,,M,,*40
$GPRMC,025221.000,A,3411.588166,N,10850.393808,E,3.5,-123.92884173799999,081221,,E,A*3C
$GPGGA,025222.000,3411.587044,N,10850.392544,E,1,19,0.8,420.0,M,,M,,*4D
$GPRMC,025222.000,A,3411.587044,N,10850.392544,E,3.7,-125.51546221299999,081221,,E,A*3C
$GPGGA,025223.000,3411.585756,N,10850.391121,E,1,19,0.8,419.9,M,,M,,*4D
$GPRMC,025223.000,A,3411.585756,N,10850.391121,E,3.9,-127.121152556,081221,,E,A*08
$GPGGA,025224.000,3411.584819,N,10850.390424,E,1,19,0.8,419.4,M,,M,,*43
$GPRMC,025224.000,A,3411.584819,N,10850.390424,E,3.8,-129.027122651,081221,,E,A*00
$GPGGA,025225.000,3411.584106,N,10850.389794,E,1,19,0.8,418.8,M,,M,,*48
$GPRMC,025225.000,A,3411.584106,N,10850.389794,E,3.7,-130.48670910200002,081221,,E,A*32
$GPGGA,025226.000,3411.583675,N,10850.389038,E,1,19,0.8,418.3,M,,M,,*45
$GPRMC,025226.000,A,3411.583675,N,10850.389038,E,3.6,-129.870585324,081221,,E,A*0A
$GPGGA,025227.000,3411.583652,N,10850.388093,E,1,19,0.8,417.9,M,,M,,*44
$GPRMC,025227.000,A,3411.583652,N,10850.388093,E,3.5,-127.135757179,081221,,E,A*0C
$GPGGA,025228.000,3411.583143,N,10850.387224,E,1,19,0.8,417.9,M,,M,,*4D
$GPRMC,025228.000,A,3411.583143,N,10850.387224,E,3.4,-127.10988905200001,081221,,E,A*3E
$GPGGA,025229.000,3411.582678,N,10850.386325,E,1,19,0.8,417.9,M,,M,,*43
$GPRMC,025229.000,A,3411.582678,N,10850.386325,E,3.4,-126.441500356,081221,,E,A*02
$GPGGA,025230.000,3411.582218,N,10850.385187,E,1,19,0.8,417.2,M,,M,,*4B
$GPRMC,025230.000,A,3411.582218,N,10850.385187,E,3.4,-124.84718861,081221,,E,A*3A
$GPGGA,025231.000,3411.581663,N,10850.384226,E,1,19,0.8,417.2,M,,M,,*48
$GPRMC,025231.000,A,3411.581663,N,10850.384226,E,3.4,-124.794494481,081221,,E,A*0A
$GPGGA,025232.000,3411.581120,N,10850.383283,E,1,19,0.8,417.2,M,,M,,*43
$GPRMC,025232.000,A,3411.581120,N,10850.383283,E,3.4,-124.778722947,081221,,E,A*0A
$GPGGA,025233.000,3411.580576,N,10850.382331,E,1,19,0.8,417.2,M,,M,,*4D
$GPRMC,025233.000,A,3411.580576,N,10850.382331,E,3.4,-124.741052529,081221,,E,A*0A
$GPGGA,025234.000,3411.579430,N,10850.381224,E,1,19,0.8,416.7,M,,M,,*4D
$GPRMC,025234.000,A,3411.579430,N,10850.381224,E,3.6,-126.238530756,081221,,E,A*0E
$GPGGA,025235.000,3411.578880,N,10850.380248,E,1,19,0.8,416.7,M,,M,,*41
$GPRMC,025235.000,A,3411.578880,N,10850.380248,E,3.5,-125.98728804,081221,,E,A*39
$GPGGA,025236.000,3411.576675,N,10850.378467,E,1,19,0.8,416.0,M,,M,,*43
$GPRMC,025236.000,A,3411.576675,N,10850.378467,E,3.9,-128.239069152,081221,,E,A*0C
$GPGGA,025237.000,3411.574473,N,10850.376882,E,1,19,0.8,415.5,M,,M,,*4B
$GPRMC,025237.000,A,3411.574473,N,10850.376882,E,4.2,-130.434014186,081221,,E,A*0F
$GPGGA,025238.000,3411.572232,N,10850.375426,E,1,19,0.8,414.9,M,,M,,*4D
$GPRMC,025238.000,A,3411.572232,N,10850.375426,E,4.5,-132.86034122700002,081221,,E,A*35
$GPGGA,025239.000,3411.571447,N,10850.374336,E,1,19,0.8,414.9,M,,M,,*4C
$GPRMC,025239.000,A,3411.571447,N,10850.374336,E,4.4,-132.63260588100002,081221,,E,A*3F
$GPGGA,025240.000,3411.569579,N,10850.373700,E,1,19,0.8,414.4,M,,M,,*4C
$GPRMC,025240.000,A,3411.569579,N,10850.373700,E,4.5,-135.704090654,081221,,E,A*0E
$GPGGA,025241.000,3411.568124,N,10850.373256,E,1,19,0.8,413.9,M,,M,,*4C
$GPRMC,025241.000,A,3411.568124,N,10850.373256,E,4.5,-138.022866244,081221,,E,A*0E
$GPGGA,025242.000,3411.567208,N,10850.372260,E,1,19,0.8,413.9,M,,M,,*49
$GPRMC,025242.000,A,3411.567208,N,10850.372260,E,4.5,-138.005635128,081221,,E,A*0F
$GPGGA,025243.000,3411.564550,N,10850.373904,E,1,19,0.8,413.1,M,,M,,*41
$GPRMC,025243.000,A,3411.564550,N,10850.373904,E,4.3,-147.580684486,081221,,E,A*02
$GPGGA,025244.000,3411.563545,N,10850.373130,E,1,19,0.8,413.1,M,,M,,*4A
$GPRMC,025244.000,A,3411.563545,N,10850.373130,E,4.3,-147.55233214,081221,,E,A*31
$GPGGA,025245.000,3411.562556,N,10850.372347,E,1,19,0.8,413.1,M,,M,,*4B
$GPRMC,025245.000,A,3411.562556,N,10850.372347,E,4.3,-147.416952856,081221,,E,A*03
$GPGGA,025246.000,3411.561711,N,10850.371520,E,1,19,0.8,413.1,M,,M,,*4E
$GPRMC,025246.000,A,3411.561711,N,10850.371520,E,4.3,-146.692346112,081221,,E,A*0F
$GPGGA,025247.000,3411.561157,N,10850.373944,E,1,19,0.8,412.3,M,,M,,*44
$GPRMC,025247.000,A,3411.561157,N,10850.373944,E,3.7,-158.01652161200002,081221,,E,A*32
$GPGGA,025248.000,3411.560249,N,10850.373467,E,1,19,0.8,412.3,M,,M,,*4A
$GPRMC,025248.000,A,3411.560249,N,10850.373467,E,3.7,-157.65517648,081221,,E,A*3F
$GPGGA,025249.000,3411.560198,N,10850.374586,E,1,19,0.8,411.6,M,,M,,*4B
$GPRMC,025249.000,A,3411.560198,N,10850.374586,E,3.3,-165.834607593,081221,,E,A*06
$GPGGA,025250.000,3411.559339,N,10850.374317,E,1,19,0.8,411.6,M,,M,,*4E
$GPRMC,025250.000,A,3411.559339,N,10850.374317,E,3.3,-165.828416686,081221,,E,A*0B
$GPGGA,025251.000,3411.560380,N,10850.373070,E,1,19,0.8,410.9,M,,M,,*4C
$GPRMC,025251.000,A,3411.560380,N,10850.373070,E,3.0,-158.131721551,081221,,E,A*05
$GPGGA,025252.000,3411.560970,N,10850.371710,E,1,19,0.8,410.2,M,,M,,*42
$GPRMC,025252.000,A,3411.560970,N,10850.371710,E,2.9,-149.77554522,081221,,E,A*3F
$GPGGA,025253.000,3411.560576,N,10850.371280,E,1,19,0.8,410.2,M,,M,,*45
$GPRMC,025253.000,A,3411.560576,N,10850.371280,E,2.8,273.627626628,081221,,E,A*22
$GPGGA,025254.000,3411.561154,N,10850.369663,E,1,19,0.8,409.4,M,,M,,*49
$GPRMC,025254.000,A,3411.561154,N,10850.369663,E,2.8,261.450191498,081221,,E,A*23
$GPGGA,025255.000,3411.560570,N,10850.369056,E,1,19,0.8,409.4,M,,M,,*4B
$GPRMC,025255.000,A,3411.560570,N,10850.369056,E,2.8,259.36182015400004,081221,,E,A*1D
$GPGGA,025256.000,3411.560073,N,10850.368400,E,1,19,0.8,409.4,M,,M,,*48
$GPRMC,025256.000,A,3411.560073,N,10850.368400,E,2.8,253.544001555,081221,,E,A*2F
$GPGGA,025257.000,3411.559491,N,10850.367790,E,1,19,0.8,409.4,M,,M,,*4E
$GPRMC,025257.000,A,3411.559491,N,10850.367790,E,2.8,263.93255547900003,081221,,E,A*1F
$GPGGA,025258.000,3411.560510,N,10850.365770,E,1,19,0.8,408.6,M,,M,,*4C
$GPRMC,025258.000,A,3411.560510,N,10850.365770,E,2.9,264.818512987,081221,,E,A*2D
$GPGGA,025259.000,3411.559223,N,10850.364526,E,1,19,0.8,408.0,M,,M,,*46
$GPRMC,025259.000,A,3411.559223,N,10850.364526,E,3.1,-128.844199985,081221,,E,A*02
$GPGGA,025300.000,3411.558698,N,10850.363709,E,1,19,0.8,408.0,M,,M,,*46
$GPRMC,025300.000,A,3411.558698,N,10850.363709,E,3.1,-128.657910811,081221,,E,A*0B
$GPGGA,025301.000,3411.558307,N,10850.362903,E,1,19,0.8,408.0,M,,M,,*41
$GPRMC,025301.000,A,3411.558307,N,10850.362903,E,3.0,-127.982567712,081221,,E,A*05
$GPGGA,025302.000,3411.557787,N,10850.362109,E,1,19,0.8,408.0,M,,M,,*43
$GPRMC,025302.000,A,3411.557787,N,10850.362109,E,3.0,-128.022129336,081221,,E,A*07
$GPGGA,025303.000,3411.560391,N,10850.362663,E,1,19,0.8,407.3,M,,M,,*42
$GPRMC,025303.000,A,3411.560391,N,10850.362663,E,2.3,256.999421617,081221,,E,A*2D
$GPGGA,025304.000,3411.561551,N,10850.362045,E,1,19,0.8,406.7,M,,M,,*49
$GPRMC,025304.000,A,3411.561551,N,10850.362045,E,2.2,261.457622744,081221,,E,A*2F
$GPGGA,025305.000,3411.561291,N,10850.361404,E,1,19,0.8,406.7,M,,M,,*41
$GPRMC,025305.000,A,3411.561291,N,10850.361404,E,2.2,259.090087905,081221,,E,A*21
$GPGGA,025306.000,3411.561029,N,10850.360760,E,1,19,0.8,406.7,M,,M,,*43
$GPRMC,025306.000,A,3411.561029,N,10850.360760,E,2.2,262.521848191,081221,,E,A*2A
$GPGGA,025307.000,3411.560773,N,10850.360127,E,1,19,0.8,406.7,M,,M,,*4E
$GPRMC,025307.000,A,3411.560773,N,10850.360127,E,2.2,260.208162564,081221,,E,A*26
$GPGGA,025308.000,3411.584021,N,10850.357560,E,1,19,0.8,409.2,M,,M,,*42
$GPRMC,025308.000,A,3411.584021,N,10850.357560,E,3.3,-36.527841216999995,081221,,E,A*30
$GPGGA,025309.000,3411.589264,N,10850.355905,E,1,19,0.8,410.5,M,,M,,*4F
$GPRMC,025309.000,A,3411.589264,N,10850.355905,E,3.8,-34.736570111,081221,,E,A*3E
$GPGGA,025310.000,3411.606947,N,10850.351586,E,1,19,0.8,410.2,M,,M,,*4D
$GPRMC,025310.000,A,3411.606947,N,10850.351586,E,14.4,-11.288304542999999,081221,,E,A*01
$GPGGA,025311.000,3411.611241,N,10850.352122,E,1,19,0.8,415.7,M,,M,,*4E
$GPRMC,025311.000,A,3411.611241,N,10850.352122,E,14.3,-9.773909613999999,081221,,E,A*3D
$GPGGA,025312.000,3411.614342,N,10850.351214,E,1,19,0.8,416.4,M,,M,,*4F
$GPRMC,025312.000,A,3411.614342,N,10850.351214,E,11.9,-11.965435212000001,081221,,E,A*05
$GPGGA,025313.000,3411.614451,N,10850.349461,E,1,19,0.8,417.0,M,,M,,*43
$GPRMC,025313.000,A,3411.614451,N,10850.349461,E,6.2,-26.732055628,081221,,E,A*37
$GPGGA,025314.000,3411.614779,N,10850.348721,E,1,19,0.8,417.1,M,,M,,*4A
$GPRMC,025314.000,A,3411.614779,N,10850.348721,E,2.7,272.48348796700003,081221,,E,A*15
$GPGGA,025315.000,3411.614727,N,10850.347846,E,1,19,0.8,417.2,M,,M,,*42
$GPRMC,025315.000,A,3411.614727,N,10850.347846,E,2.6,276.199001636,081221,,E,A*27
$GPGGA,025316.000,3411.608596,N,10850.343011,E,1,19,0.8,418.2,M,,M,,*45
$GPRMC,025316.000,A,3411.608596,N,10850.343011,E,5.5,-131.239854573,081221,,E,A*05
$GPGGA,025317.000,3411.609858,N,10850.342389,E,1,19,0.8,418.8,M,,M,,*43
$GPRMC,025317.000,A,3411.609858,N,10850.342389,E,3.7,-93.03556973799999,081221,,E,A*02
$GPGGA,025318.000,3411.610004,N,10850.342284,E,1,19,0.8,419.5,M,,M,,*45
$GPRMC,025318.000,A,3411.610004,N,10850.342284,E,3.2,-90.268455443,081221,,E,A*33
$GPGGA,025319.000,3411.609693,N,10850.340228,E,1,19,0.8,420.9,M,,M,,*46
$GPRMC,025319.000,A,3411.609693,N,10850.340228,E,4.0,-93.043512475,081221,,E,A*3C
$GPGGA,025320.000,3411.611118,N,10850.339379,E,1,19,0.8,421.7,M,,M,,*45
$GPRMC,025320.000,A,3411.611118,N,10850.339379,E,3.7,-76.405389362,081221,,E,A*38
$GPGGA,025321.000,3411.611645,N,10850.339705,E,1,19,0.8,423.0,M,,M,,*41
$GPRMC,025321.000,A,3411.611645,N,10850.339705,E,2.7,256.98603444599996,081221,,E,A*12
$GPGGA,025322.000,3411.611713,N,10850.338489,E,1,19,0.8,423.7,M,,M,,*41
$GPRMC,025322.000,A,3411.611713,N,10850.338489,E,3.0,-77.553485513,081221,,E,A*31
$GPGGA,025323.000,3411.612207,N,10850.337826,E,1,19,0.8,424.6,M,,M,,*43
$GPRMC,025323.000,A,3411.612207,N,10850.337826,E,2.9,264.282807584,081221,,E,A*23
$GPGGA,025324.000,3411.612726,N,10850.337474,E,1,19,0.8,426.1,M,,M,,*4C
$GPRMC,025324.000,A,3411.612726,N,10850.337474,E,2.6,261.778149865,081221,,E,A*22
$GPGGA,025325.000,3411.612939,N,10850.336600,E,1,19,0.8,426.2,M,,M,,*4E
$GPRMC,025325.000,A,3411.612939,N,10850.336600,E,2.7,263.866084077,081221,,E,A*2B
$GPGGA,025326.000,3411.613286,N,10850.335861,E,1,19,0.8,426.3,M,,M,,*48
$GPRMC,025326.000,A,3411.613286,N,10850.335861,E,2.7,274.737341136,081221,,E,A*2F
$GPGGA,025327.000,3411.613774,N,10850.335156,E,1,19,0.8,426.4,M,,M,,*4B
$GPRMC,025327.000,A,3411.613774,N,10850.335156,E,2.6,270.753674237,081221,,E,A*2D
$GPGGA,025328.000,3411.613873,N,10850.334269,E,1,19,0.8,426.5,M,,M,,*43
$GPRMC,025328.000,A,3411.613873,N,10850.334269,E,2.6,275.45636881900003,081221,,E,A*1A
$GPGGA,025329.000,3411.614049,N,10850.333742,E,1,19,0.8,426.9,M,,M,,*43
$GPRMC,025329.000,A,3411.614049,N,10850.333742,E,2.5,269.722042453,081221,,E,A*22
$GPGGA,025330.000,3411.614485,N,10850.333130,E,1,19,0.8,427.9,M,,M,,*4D
$GPRMC,025330.000,A,3411.614485,N,10850.333130,E,2.5,287.164733872,081221,,E,A*27
$GPGGA,025331.000,3411.614802,N,10850.332483,E,1,19,0.8,427.8,M,,M,,*42
$GPRMC,025331.000,A,3411.614802,N,10850.332483,E,2.4,308.53216131700003,081221,,E,A*13
$GPGGA,025332.000,3411.614912,N,10850.331765,E,1,19,0.8,427.8,M,,M,,*49
$GPRMC,025332.000,A,3411.614912,N,10850.331765,E,2.4,309.224168771,081221,,E,A*27
$GPGGA,025333.000,3411.614929,N,10850.331050,E,1,19,0.8,427.7,M,,M,,*4E
$GPRMC,025333.000,A,3411.614929,N,10850.331050,E,2.3,282.737869654,081221,,E,A*23
$GPGGA,025334.000,3411.615204,N,10850.330474,E,1,19,0.8,427.6,M,,M,,*4E
$GPRMC,025334.000,A,3411.615204,N,10850.330474,E,2.2,254.433128271,081221,,E,A*20
$GPGGA,025335.000,3411.615384,N,10850.329736,E,1,19,0.8,427.6,M,,M,,*4B
$GPRMC,025335.000,A,3411.615384,N,10850.329736,E,2.3,258.65221813200003,081221,,E,A*1A
$GPGGA,025336.000,3411.615364,N,10850.328934,E,1,19,0.8,427.6,M,,M,,*4B
$GPRMC,025336.000,A,3411.615364,N,10850.328934,E,2.3,278.945994469,081221,,E,A*26
$GPGGA,025337.000,3411.615254,N,10850.328405,E,1,19,0.8,427.6,M,,M,,*47
$GPRMC,025337.000,A,3411.615254,N,10850.328405,E,2.1,266.592313135,081221,,E,A*28
$GPGGA,025338.000,3411.615320,N,10850.327884,E,1,19,0.8,427.6,M,,M,,*40
$GPRMC,025338.000,A,3411.615320,N,10850.327884,E,2.0,276.334977043,081221,,E,A*2D
$GPGGA,025339.000,3411.615280,N,10850.327260,E,1,19,0.8,427.5,M,,M,,*49
$GPRMC,025339.000,A,3411.615280,N,10850.327260,E,2.0,276.49559577400004,081221,,E,A*1C
$GPGGA,025340.000,3411.615077,N,10850.326629,E,1,19,0.8,427.5,M,,M,,*45
$GPRMC,025340.000,A,3411.615077,N,10850.326629,E,2.0,275.38894119099996,081221,,E,A*13
$GPGGA,025341.000,3411.612740,N,10850.324235,E,1,19,0.8,427.6,M,,M,,*48
$GPRMC,025341.000,A,3411.612740,N,10850.324235,E,2.3,261.499505465,081221,,E,A*29
$GPGGA,025342.000,3411.609177,N,10850.321124,E,1,19,0.8,428.2,M,,M,,*4E
$GPRMC,025342.000,A,3411.609177,N,10850.321124,E,2.9,250.842251895,081221,,E,A*23
$GPGGA,025343.000,3411.607218,N,10850.318220,E,1,19,0.8,428.9,M,,M,,*4D
$GPRMC,025343.000,A,3411.607218,N,10850.318220,E,3.4,-114.591158485,081221,,E,A*0D
$GPGGA,025344.000,3411.605264,N,10850.315714,E,1,19,0.8,429.5,M,,M,,*41
$GPRMC,025344.000,A,3411.605264,N,10850.315714,E,3.9,-118.963912285,081221,,E,A*0C
$GPGGA,025345.000,3411.603600,N,10850.313247,E,1,19,0.8,429.6,M,,M,,*46
$GPRMC,025345.000,A,3411.603600,N,10850.313247,E,4.2,-119.732376864,081221,,E,A*02
$GPGGA,025346.000,3411.602580,N,10850.311155,E,1,19,0.8,429.9,M,,M,,*42
$GPRMC,025346.000,A,3411.602580,N,10850.311155,E,4.4,-118.53929655799999,081221,,E,A*3C
$GPGGA,025347.000,3411.601855,N,10850.309269,E,1,19,0.8,430.2,M,,M,,*43
$GPRMC,025347.000,A,3411.601855,N,10850.309269,E,4.4,-117.139993713,081221,,E,A*00
$GPGGA,025348.000,3411.601674,N,10850.307279,E,1,19,0.8,430.4,M,,M,,*48
$GPRMC,025348.000,A,3411.601674,N,10850.307279,E,4.5,-113.95299218299999,081221,,E,A*3B
$GPGGA,025349.000,3411.602196,N,10850.305942,E,1,19,0.8,430.8,M,,M,,*4C
$GPRMC,025349.000,A,3411.602196,N,10850.305942,E,4.3,-108.79800587,081221,,E,A*3D
$GPGGA,025350.000,3411.601874,N,10850.304694,E,1,19,0.8,430.8,M,,M,,*47
$GPRMC,025350.000,A,3411.601874,N,10850.304694,E,4.3,-108.950215323,081221,,E,A*02
$GPGGA,025351.000,3411.602326,N,10850.303811,E,1,19,0.8,430.8,M,,M,,*4D
$GPRMC,025351.000,A,3411.602326,N,10850.303811,E,4.1,-104.617931991,081221,,E,A*04
$GPGGA,025352.000,3411.604696,N,10850.303532,E,1,19,0.8,431.4,M,,M,,*47
$GPRMC,025352.000,A,3411.604696,N,10850.303532,E,3.8,-91.375172459,081221,,E,A*37
$GPGGA,025353.000,3411.604700,N,10850.302361,E,1,19,0.8,431.4,M,,M,,*49
$GPRMC,025353.000,A,3411.604700,N,10850.302361,E,3.8,-91.448485678,081221,,E,A*3C
$GPGGA,025354.000,3411.605210,N,10850.301916,E,1,19,0.8,431.5,M,,M,,*43
$GPRMC,025354.000,A,3411.605210,N,10850.301916,E,3.6,-89.836828842,081221,,E,A*39
$GPGGA,025355.000,3411.613973,N,10850.321160,E,1,19,0.8,432.1,M,,M,,*47
$GPRMC,025355.000,A,3411.613973,N,10850.321160,E,2.2,5.635610067000001,081221,,E,A*20
$GPGGA,025356.000,3411.615424,N,10850.326046,E,1,19,0.8,430.8,M,,M,,*44
$GPRMC,025356.000,A,3411.615424,N,10850.326046,E,2.9,55.485568437,081221,,E,A*13
$GPGGA,025357.000,3411.616115,N,10850.329216,E,1,19,0.8,430.5,M,,M,,*44
$GPRMC,025357.000,A,3411.616115,N,10850.329216,E,3.5,63.613444517,081221,,E,A*17
$GPGGA,025358.000,3411.616026,N,10850.331079,E,1,19,0.8,430.2,M,,M,,*4F
$GPRMC,025358.000,A,3411.616026,N,10850.331079,E,3.2,67.04322928399999,081221,,E,A*25
$GPGGA,025359.000,3411.616420,N,10850.332639,E,1,19,0.8,429.9,M,,M,,*4E
$GPRMC,025359.000,A,3411.616420,N,10850.332639,E,3.2,67.406972153,081221,,E,A*10
$GPGGA,025400.000,3411.616830,N,10850.334115,E,1,19,0.8,429.6,M,,M,,*48
$GPRMC,025400.000,A,3411.616830,N,10850.334115,E,3.4,67.58735128100001,081221,,E,A*21
$GPGGA,025401.000,3411.616896,N,10850.336144,E,1,19,0.8,427.7,M,,M,,*4C
$GPRMC,025401.000,A,3411.616896,N,10850.336144,E,3.8,71.865179079,081221,,E,A*1C
$GPGGA,025402.000,3411.617616,N,10850.337212,E,1,19,0.8,427.2,M,,M,,*4C
$GPRMC,025402.000,A,3411.617616,N,10850.337212,E,3.7,69.079752242,081221,,E,A*1F
$GPGGA,025403.000,3411.616841,N,10850.338898,E,1,19,0.8,426.4,M,,M,,*40
$GPRMC,025403.000,A,3411.616841,N,10850.338898,E,3.8,76.7974766,081221,,E,A*15
$GPGGA,025404.000,3411.616839,N,10850.339796,E,1,19,0.8,426.2,M,,M,,*4E
$GPRMC,025404.000,A,3411.616839,N,10850.339796,E,3.6,77.51942534300001,081221,,E,A*23
$GPGGA,025405.000,3411.617203,N,10850.340669,E,1,19,0.8,426.1,M,,M,,*41
$GPRMC,025405.000,A,3411.617203,N,10850.340669,E,3.5,76.029806219,081221,,E,A*19
$GPGGA,025406.000,3411.617420,N,10850.340861,E,1,19,0.8,426.0,M,,M,,*42
$GPRMC,025406.000,A,3411.617420,N,10850.340861,E,3.1,74.993837471,081221,,E,A*1F
$GPGGA,025407.000,3411.617174,N,10850.341477,E,1,19,0.8,425.8,M,,M,,*46
$GPRMC,025407.000,A,3411.617174,N,10850.341477,E,2.9,14.489710322999999,081221,,E,A*12
$GPGGA,025408.000,3411.617330,N,10850.342005,E,1,19,0.8,425.6,M,,M,,*47
$GPRMC,025408.000,A,3411.617330,N,10850.342005,E,2.7,12.442170704,081221,,E,A*12
$GPGGA,025409.000,3411.617618,N,10850.342808,E,1,19,0.8,425.6,M,,M,,*4C
$GPRMC,025409.000,A,3411.617618,N,10850.342808,E,2.7,19.19655083,081221,,E,A*20
$GPGGA,025410.000,3411.617921,N,10850.343487,E,1,19,0.8,425.6,M,,M,,*4B
$GPRMC,025410.000,A,3411.617921,N,10850.343487,E,2.6,21.062620005,081221,,E,A*1D
$GPGGA,025411.000,3411.618899,N,10850.343129,E,1,19,0.8,425.2,M,,M,,*42
$GPRMC,025411.000,A,3411.618899,N,10850.343129,E,2.4,358.871147862,081221,,E,A*2A
$GPGGA,025412.000,3411.619199,N,10850.343755,E,1,19,0.8,425.2,M,,M,,*44
$GPRMC,025412.000,A,3411.619199,N,10850.343755,E,2.3,4.186910279,081221,,E,A*2A
$GPGGA,025413.000,3411.619436,N,10850.344309,E,1,19,0.8,425.2,M,,M,,*4F
$GPRMC,025413.000,A,3411.619436,N,10850.344309,E,2.2,2.124550216,081221,,E,A*2F
$GPGGA,025414.000,3411.622503,N,10850.342952,E,1,19,0.8,424.6,M,,M,,*40
$GPRMC,025414.000,A,3411.622503,N,10850.342952,E,2.2,3.36375999,081221,,E,A*1B
$GPGGA,025415.000,3411.625124,N,10850.341868,E,1,19,0.8,424.5,M,,M,,*4F
$GPRMC,025415.000,A,3411.625124,N,10850.341868,E,2.5,0.101060007,081221,,E,A*2F
$GPGGA,025416.000,3411.626138,N,10850.342219,E,1,19,0.8,424.5,M,,M,,*4D
$GPRMC,025416.000,A,3411.626138,N,10850.342219,E,2.6,1.37362,081221,,E,A*2D
$GPGGA,025417.000,3411.626756,N,10850.342589,E,1,19,0.8,424.5,M,,M,,*4C
$GPRMC,025417.000,A,3411.626756,N,10850.342589,E,2.6,10.169779548,081221,,E,A*11
$GPGGA,025418.000,3411.628780,N,10850.341276,E,1,19,0.8,424.3,M,,M,,*44
$GPRMC,025418.000,A,3411.628780,N,10850.341276,E,2.8,15.038319662000001,081221,,E,A*19
$GPGGA,025419.000,3411.629465,N,10850.341090,E,1,19,0.8,424.4,M,,M,,*41
$GPRMC,025419.000,A,3411.629465,N,10850.341090,E,2.7,29.151818039000002,081221,,E,A*14
$GPGGA,025420.000,3411.630239,N,10850.340568,E,1,19,0.8,424.3,M,,M,,*48
$GPRMC,025420.000,A,3411.630239,N,10850.340568,E,2.6,32.240460353,081221,,E,A*1C
$GPGGA,025421.000,3411.632407,N,10850.339893,E,1,19,0.8,424.2,M,,M,,*46
$GPRMC,025421.000,A,3411.632407,N,10850.339893,E,3.0,4.60755638,081221,,E,A*1C
$GPGGA,025422.000,3411.633562,N,10850.339805,E,1,19,0.8,424.2,M,,M,,*49
$GPRMC,025422.000,A,3411.633562,N,10850.339805,E,3.1,3.698281227,081221,,E,A*22
$GPGGA,025423.000,3411.634384,N,10850.340597,E,1,19,0.8,424.1,M,,M,,*4A
$GPRMC,025423.000,A,3411.634384,N,10850.340597,E,3.2,7.804724702000001,081221,,E,A*27
$GPGGA,025424.000,3411.635691,N,10850.340531,E,1,19,0.8,423.6,M,,M,,*41
$GPRMC,025424.000,A,3411.635691,N,10850.340531,E,3.3,6.875589282999999,081221,,E,A*23
$GPGGA,025425.000,3411.636792,N,10850.340766,E,1,19,0.8,422.7,M,,M,,*41
$GPRMC,025425.000,A,3411.636792,N,10850.340766,E,3.4,7.598046182999999,081221,,E,A*2E
$GPGGA,025426.000,3411.638205,N,10850.341231,E,1,19,0.8,422.0,M,,M,,*46
$GPRMC,025426.000,A,3411.638205,N,10850.341231,E,3.6,9.204779727,081221,,E,A*22
$GPGGA,025427.000,3411.639193,N,10850.341441,E,1,19,0.8,422.0,M,,M,,*4B
$GPRMC,025427.000,A,3411.639193,N,10850.341441,E,3.6,9.372802636,081221,,E,A*2D
$GPGGA,025428.000,3411.639672,N,10850.339772,E,1,19,0.8,425.1,M,,M,,*46
$GPRMC,025428.000,A,3411.639672,N,10850.339772,E,3.3,-0.401473146,081221,,E,A*0E
$GPGGA,025429.000,3411.638910,N,10850.337997,E,1,19,0.8,426.0,M,,M,,*44
$GPRMC,025429.000,A,3411.638910,N,10850.337997,E,2.8,30.026720885,081221,,E,A*18
$GPGGA,025430.000,3411.638924,N,10850.336922,E,1,19,0.8,426.0,M,,M,,*44
$GPRMC,025430.000,A,3411.638924,N,10850.336922,E,2.7,24.764891644000002,081221,,E,A*17
$GPGGA,025431.000,3411.639620,N,10850.336670,E,1,19,0.8,426.0,M,,M,,*47
$GPRMC,025431.000,A,3411.639620,N,10850.336670,E,2.7,9.883790132,081221,,E,A*27
$GPGGA,025432.000,3411.639554,N,10850.337349,E,1,19,0.8,427.7,M,,M,,*4C
$GPRMC,025432.000,A,3411.639554,N,10850.337349,E,2.3,13.300109922,081221,,E,A*1A
$GPGGA,025433.000,3411.639882,N,10850.336804,E,1,19,0.8,427.3,M,,M,,*4C
$GPRMC,025433.000,A,3411.639882,N,10850.336804,E,2.2,6.865739958,081221,,E,A*2B
$GPGGA,025434.000,3411.640138,N,10850.336403,E,1,19,0.8,427.0,M,,M,,*45
$GPRMC,025434.000,A,3411.640138,N,10850.336403,E,2.1,1.783960055,081221,,E,A*24
$GPGGA,025435.000,3411.640699,N,10850.336131,E,1,19,0.8,427.0,M,,M,,*4C
$GPRMC,025435.000,A,3411.640699,N,10850.336131,E,2.2,357.593629264,081221,,E,A*2F
$GPGGA,025436.000,3411.641260,N,10850.335917,E,1,19,0.8,427.0,M,,M,,*43
$GPRMC,025436.000,A,3411.641260,N,10850.335917,E,2.1,0.153400007,081221,,E,A*24
$GPGGA,025437.000,3411.641810,N,10850.335666,E,1,19,0.8,427.0,M,,M,,*46
$GPRMC,025437.000,A,3411.641810,N,10850.335666,E,2.1,3.587740038,081221,,E,A*24
$GPGGA,025438.000,3411.644469,N,10850.331969,E,1,19,0.8,425.4,M,,M,,*4C
$GPRMC,025438.000,A,3411.644469,N,10850.331969,E,3.2,-33.605828151,081221,,E,A*32
$GPGGA,025439.000,3411.650844,N,10850.330476,E,1,19,0.8,426.7,M,,M,,*49
$GPRMC,025439.000,A,3411.650844,N,10850.330476,E,4.8,-25.218544215999998,081221,,E,A*30
$GPGGA,025440.000,3411.656112,N,10850.329824,E,1,19,0.8,428.4,M,,M,,*45
$GPRMC,025440.000,A,3411.656112,N,10850.329824,E,5.5,-21.502286018000003,081221,,E,A*31
$GPGGA,025441.000,3411.657279,N,10850.329256,E,1,19,0.8,428.4,M,,M,,*44
$GPRMC,025441.000,A,3411.657279,N,10850.329256,E,4.8,-23.330669740999998,081221,,E,A*34
$GPGGA,025442.000,3411.657477,N,10850.328627,E,1,19,0.8,428.5,M,,M,,*4D
$GPRMC,025442.000,A,3411.657477,N,10850.328627,E,3.3,-33.336286836,081221,,E,A*3D
$GPGGA,025443.000,3411.657965,N,10850.328175,E,1,19,0.8,428.5,M,,M,,*42
$GPRMC,025443.000,A,3411.657965,N,10850.328175,E,2.6,349.27249166400003,081221,,E,A*1E
$GPGGA,025444.000,3411.658573,N,10850.326681,E,1,19,0.8,429.4,M,,M,,*43
$GPRMC,025444.000,A,3411.658573,N,10850.326681,E,2.9,-43.634225007,081221,,E,A*3B
$GPGGA,025445.000,3411.658902,N,10850.325410,E,1,19,0.8,429.5,M,,M,,*40
$GPRMC,025445.000,A,3411.658902,N,10850.325410,E,3.0,-47.610846428,081221,,E,A*35
$GPGGA,025446.000,3411.659736,N,10850.323930,E,1,19,0.8,429.7,M,,M,,*40
$GPRMC,025446.000,A,3411.659736,N,10850.323930,E,3.2,-49.253789812,081221,,E,A*31
$GPGGA,025447.000,3411.661659,N,10850.325478,E,1,19,0.8,429.9,M,,M,,*4B
$GPRMC,025447.000,A,3411.661659,N,10850.325478,E,3.1,-33.600052016,081221,,E,A*35
$GPGGA,025448.000,3411.663761,N,10850.327446,E,1,19,0.8,429.7,M,,M,,*4D
$GPRMC,025448.000,A,3411.663761,N,10850.327446,E,3.2,-17.899929195,081221,,E,A*39
$GPGGA,025449.000,3411.664668,N,10850.327197,E,1,19,0.8,429.6,M,,M,,*4B
$GPRMC,025449.000,A,3411.664668,N,10850.327197,E,3.2,-17.060705489,081221,,E,A*38
$GPGGA,025450.000,3411.665673,N,10850.327276,E,1,19,0.8,429.7,M,,M,,*45
$GPRMC,025450.000,A,3411.665673,N,10850.327276,E,3.2,-14.545371777,081221,,E,A*33
$GPGGA,025451.000,3411.666651,N,10850.327245,E,1,19,0.8,429.7,M,,M,,*47
$GPRMC,025451.000,A,3411.666651,N,10850.327245,E,3.2,-12.737766893,081221,,E,A*37
$GPGGA,025452.000,3411.670261,N,10850.332892,E,1,19,0.8,429.6,M,,M,,*41
$GPRMC,025452.000,A,3411.670261,N,10850.332892,E,3.8,10.824507072000001,081221,,E,A*1B
$GPGGA,025453.000,3411.671155,N,10850.332959,E,1,19,0.8,429.6,M,,M,,*43
$GPRMC,025453.000,A,3411.671155,N,10850.332959,E,3.6,8.709950656,081221,,E,A*21
$GPGGA,025454.000,3411.671955,N,10850.332649,E,1,19,0.8,430.0,M,,M,,*4C
$GPRMC,025454.000,A,3411.671955,N,10850.332649,E,3.5,4.336867006,081221,,E,A*21
$GPGGA,025455.000,3411.672647,N,10850.332482,E,1,19,0.8,430.2,M,,M,,*45
$GPRMC,025455.000,A,3411.672647,N,10850.332482,E,3.3,2.475979778,081221,,E,A*2A
$GPGGA,025456.000,3411.671980,N,10850.331342,E,1,19,0.8,429.8,M,,M,,*4B
$GPRMC,025456.000,A,3411.671980,N,10850.331342,E,2.7,351.579784234,081221,,E,A*2A
$GPGGA,025457.000,3411.672541,N,10850.331230,E,1,19,0.8,430.0,M,,M,,*4C
$GPRMC,025457.000,A,3411.672541,N,10850.331230,E,2.7,355.11222151,081221,,E,A*1B
$GPGGA,025458.000,3411.673337,N,10850.331316,E,1,19,0.8,430.0,M,,M,,*40
$GPRMC,025458.000,A,3411.673337,N,10850.331316,E,2.7,2.862380129,081221,,E,A*2C
$GPGGA,025459.000,3411.673909,N,10850.331208,E,1,19,0.8,430.0,M,,M,,*48
$GPRMC,025459.000,A,3411.673909,N,10850.331208,E,2.6,358.346999139,081221,,E,A*27
$GPGGA,025500.000,3411.674403,N,10850.331084,E,1,19,0.8,430.0,M,,M,,*43
$GPRMC,025500.000,A,3411.674403,N,10850.331084,E,2.5,4.295680189,081221,,E,A*26
$GPGGA,025501.000,3411.675005,N,10850.330954,E,1,19,0.8,429.9,M,,M,,*45
$GPRMC,025501.000,A,3411.675005,N,10850.330954,E,2.5,354.386664166,081221,,E,A*2F
$GPGGA,025502.000,3411.675695,N,10850.330972,E,1,19,0.8,429.9,M,,M,,*4D
$GPRMC,025502.000,A,3411.675695,N,10850.330972,E,2.5,353.35563343900003,081221,,E,A*10
$GPGGA,025503.000,3411.676378,N,10850.331044,E,1,19,0.8,429.9,M,,M,,*44
$GPRMC,025503.000,A,3411.676378,N,10850.331044,E,2.5,351.91287890300003,081221,,E,A*17
$GPGGA,025504.000,3411.676816,N,10850.331490,E,1,19,0.8,429.8,M,,M,,*4C
$GPRMC,025504.000,A,3411.676816,N,10850.331490,E,2.4,347.90372173800006,081221,,E,A*18
$GPGGA,025505.000,3411.677451,N,10850.331544,E,1,19,0.8,429.8,M,,M,,*4B
$GPRMC,025505.000,A,3411.677451,N,10850.331544,E,2.4,358.044339793,081221,,E,A*21
$GPGGA,025506.000,3411.678226,N,10850.331422,E,1,19,0.8,429.8,M,,M,,*40
$GPRMC,025506.000,A,3411.678226,N,10850.331422,E,2.4,352.325422334,081221,,E,A*20
$GPGGA,025507.000,3411.678639,N,10850.331205,E,1,19,0.8,429.7,M,,M,,*47
$GPRMC,025507.000,A,3411.678639,N,10850.331205,E,2.3,348.46254050199997,081221,,E,A*12
$GPGGA,025508.000,3411.679875,N,10850.332671,E,1,19,0.8,429.9,M,,M,,*45
$GPRMC,025508.000,A,3411.679875,N,10850.332671,E,2.5,344.10728398699996,081221,,E,A*18
$GPGGA,025509.000,3411.680350,N,10850.332816,E,1,19,0.8,429.9,M,,M,,*41
$GPRMC,025509.000,A,3411.680350,N,10850.332816,E,2.4,347.17365647,081221,,E,A*13
$GPGGA,025510.000,3411.680967,N,10850.332848,E,1,19,0.8,429.9,M,,M,,*4C
$GPRMC,025510.000,A,3411.680967,N,10850.332848,E,2.4,355.59500660699996,081221,,E,A*17
$GPGGA,025511.000,3411.681590,N,10850.332969,E,1,19,0.8,429.9,M,,M,,*4A
$GPRMC,025511.000,A,3411.681590,N,10850.332969,E,2.4,8.973979896,081221,,E,A*2E
$GPGGA,025512.000,3411.681267,N,10850.332265,E,1,19,0.8,429.8,M,,M,,*40
$GPRMC,025512.000,A,3411.681267,N,10850.332265,E,2.1,4.364640341,081221,,E,A*24
$GPGGA,025513.000,3411.681318,N,10850.332018,E,1,19,0.8,429.8,M,,M,,*40
$GPRMC,025513.000,A,3411.681318,N,10850.332018,E,2.0,358.0207893,081221,,E,A*2D
$GPGGA,025514.000,3411.681910,N,10850.331739,E,1,19,0.8,429.8,M,,M,,*42
$GPRMC,025514.000,A,3411.681910,N,10850.331739,E,2.0,59.778922804,081221,,E,A*17
$GPGGA,025515.000,3411.682266,N,10850.329933,E,1,19,0.8,429.9,M,,M,,*46
$GPRMC,025515.000,A,3411.682266,N,10850.329933,E,2.0,78.477494781,081221,,E,A*1F
$GPGGA,025516.000,3411.682671,N,10850.329487,E,1,19,0.8,430.0,M,,M,,*44
$GPRMC,025516.000,A,3411.682671,N,10850.329487,E,2.0,82.102815801,081221,,E,A*1C
$GPGGA,025517.000,3411.682306,N,10850.330195,E,1,19,0.8,430.1,M,,M,,*4F
$GPRMC,025517.000,A,3411.682306,N,10850.330195,E,1.8,75.41449641199999,081221,,E,A*24
$GPGGA,025518.000,3411.680136,N,10850.331988,E,1,19,0.8,429.8,M,,M,,*47
$GPRMC,025518.000,A,3411.680136,N,10850.331988,E,1.2,73.170328451,081221,,E,A*19
$GPGGA,025519.000,3411.680308,N,10850.331719,E,1,19,0.8,429.8,M,,M,,*4F
$GPRMC,025519.000,A,3411.680308,N,10850.331719,E,1.2,76.959922353,081221,,E,A*12
$GPGGA,025520.000,3411.680493,N,10850.332018,E,1,19,0.8,429.8,M,,M,,*45
$GPRMC,025520.000,A,3411.680493,N,10850.332018,E,1.1,71.521390993,081221,,E,A*1A
$GPGGA,025521.000,3411.680555,N,10850.332293,E,1,19,0.8,429.9,M,,M,,*4F
$GPRMC,025521.000,A,3411.680555,N,10850.332293,E,1.1,82.008668472,081221,,E,A*13
$GPGGA,025522.000,3411.680766,N,10850.332257,E,1,19,0.8,429.9,M,,M,,*46
$GPRMC,025522.000,A,3411.680766,N,10850.332257,E,1.0,90.75103067399999,081221,,E,A*22
$GPGGA,025523.000,3411.681025,N,10850.332318,E,1,19,0.8,429.9,M,,M,,*4C
$GPRMC,025523.000,A,3411.681025,N,10850.332318,E,1.0,91.091030665,081221,,E,A*1C
$GPGGA,025524.000,3411.681487,N,10850.331957,E,1,19,0.8,429.8,M,,M,,*44
$GPRMC,025524.000,A,3411.681487,N,10850.331957,E,1.0,78.441970967,081221,,E,A*1B
$GPGGA,025525.000,3411.680804,N,10850.332550,E,1,19,0.8,430.1,M,,M,,*4A
$GPRMC,025525.000,A,3411.680804,N,10850.332550,E,0.8,69.14904087,081221,,E,A*2D
$GPGGA,025526.000,3411.680773,N,10850.332432,E,1,19,0.8,430.2,M,,M,,*40
$GPRMC,025526.000,A,3411.680773,N,10850.332432,E,0.8,63.937551831,081221,,E,A*1F
$GPGGA,025527.000,3411.681372,N,10850.331386,E,1,19,0.8,430.1,M,,M,,*4D
$GPRMC,025527.000,A,3411.681372,N,10850.331386,E,0.8,55.353530491,081221,,E,A*1D
$GPGGA,025528.000,3411.681550,N,10850.331540,E,1,19,0.8,430.1,M,,M,,*48
$GPRMC,025528.000,A,3411.681550,N,10850.331540,E,0.8,64.434195382,081221,,E,A*12
$GPGGA,025529.000,3411.682245,N,10850.329263,E,1,19,0.8,430.2,M,,M,,*45
$GPRMC,025529.000,A,3411.682245,N,10850.329263,E,0.9,72.698970261,081221,,E,A*11
$GPGGA,025530.000,3411.682415,N,10850.329418,E,1,19,0.8,430.2,M,,M,,*44
$GPRMC,025530.000,A,3411.682415,N,10850.329418,E,0.8,80.472818457,081221,,E,A*16
$GPGGA,025531.000,3411.683818,N,10850.329082,E,1,19,0.8,430.3,M,,M,,*43
$GPRMC,025531.000,A,3411.683818,N,10850.329082,E,1.0,70.763861533,081221,,E,A*18
$GPGGA,025532.000,3411.684041,N,10850.329186,E,1,19,0.8,430.3,M,,M,,*46
$GPRMC,025532.000,A,3411.684041,N,10850.329186,E,1.0,68.404242883,081221,,E,A*1B
$GPGGA,025533.000,3411.684246,N,10850.329376,E,1,19,0.8,430.3,M,,M,,*4F
$GPRMC,025533.000,A,3411.684246,N,10850.329376,E,1.0,78.486346707,081221,,E,A*1F
$GPGGA,025534.000,3411.685182,N,10850.329355,E,1,19,0.8,430.5,M,,M,,*45
$GPRMC,025534.000,A,3411.685182,N,10850.329355,E,1.1,91.469102131,081221,,E,A*15
$GPGGA,025535.000,3411.685362,N,10850.329491,E,1,19,0.8,430.5,M,,M,,*47
$GPRMC,025535.000,A,3411.685362,N,10850.329491,E,1.0,87.60329014700001,081221,,E,A*27
$GPGGA,025536.000,3411.685651,N,10850.329591,E,1,19,0.8,430.5,M,,M,,*40
$GPRMC,025536.000,A,3411.685651,N,10850.329591,E,1.1,75.15741491899999,081221,,E,A*2A
$GPGGA,025537.000,3411.685871,N,10850.329723,E,1,19,0.8,430.5,M,,M,,*46
$GPRMC,025537.000,A,3411.685871,N,10850.329723,E,1.0,67.696635277,081221,,E,A*1E
$GPGGA,025538.000,3411.687001,N,10850.328979,E,1,19,0.8,430.5,M,,M,,*44
$GPRMC,025538.000,A,3411.687001,N,10850.328979,E,1.2,64.852599115,081221,,E,A*19
$GPGGA,025539.000,3411.687117,N,10850.329899,E,1,19,0.8,430.7,M,,M,,*4F
$GPRMC,025539.000,A,3411.687117,N,10850.329899,E,1.1,66.073413481,081221,,E,A*11
$GPGGA,025540.000,3411.687092,N,10850.329715,E,1,19,0.8,430.7,M,,M,,*46
$GPRMC,025540.000,A,3411.687092,N,10850.329715,E,1.1,69.126050453,081221,,E,A*1A
$GPGGA,025541.000,3411.687320,N,10850.329730,E,1,19,0.8,430.7,M,,M,,*4A
$GPRMC,025541.000,A,3411.687320,N,10850.329730,E,1.1,82.569618255,081221,,E,A*16
$GPGGA,025542.000,3411.685239,N,10850.332743,E,1,19,0.8,431.0,M,,M,,*4A
$GPRMC,025542.000,A,3411.685239,N,10850.332743,E,0.9,88.450151652,081221,,E,A*11
$GPGGA,025543.000,3411.684494,N,10850.334488,E,1,19,0.8,431.4,M,,M,,*4D
$GPRMC,025543.000,A,3411.684494,N,10850.334488,E,1.0,84.666909827,081221,,E,A*18
$GPGGA,025544.000,3411.684568,N,10850.336423,E,1,19,0.8,431.8,M,,M,,*47
$GPRMC,025544.000,A,3411.684568,N,10850.336423,E,1.3,78.16045788699999,081221,,E,A*2B
$GPGGA,025545.000,3411.684478,N,10850.337556,E,1,19,0.8,432.4,M,,M,,*4B
$GPRMC,025545.000,A,3411.684478,N,10850.337556,E,1.4,67.38276076,081221,,E,A*26
$GPGGA,025546.000,3411.686505,N,10850.341681,E,1,19,0.8,431.3,M,,M,,*4D
$GPRMC,025546.000,A,3411.686505,N,10850.341681,E,2.1,71.962095294,081221,,E,A*12
$GPGGA,025547.000,3411.686665,N,10850.342364,E,1,19,0.8,431.3,M,,M,,*44
$GPRMC,025547.000,A,3411.686665,N,10850.342364,E,2.1,71.92410578100001,081221,,E,A*21
$GPGGA,025548.000,3411.687041,N,10850.345459,E,1,19,0.8,430.4,M,,M,,*42
$GPRMC,025548.000,A,3411.687041,N,10850.345459,E,2.7,77.259651547,081221,,E,A*1F
$GPGGA,025549.000,3411.687586,N,10850.347165,E,1,19,0.8,430.2,M,,M,,*43
$GPRMC,025549.000,A,3411.687586,N,10850.347165,E,3.0,79.679994913,081221,,E,A*1D
$GPGGA,025550.000,3411.687730,N,10850.348148,E,1,19,0.8,430.2,M,,M,,*44
$GPRMC,025550.000,A,3411.687730,N,10850.348148,E,3.0,79.768701925,081221,,E,A*1C
$GPGGA,025551.000,3411.688574,N,10850.349879,E,1,19,0.8,429.7,M,,M,,*4F
$GPRMC,025551.000,A,3411.688574,N,10850.349879,E,3.2,76.158329762,081221,,E,A*11
$GPGGA,025552.000,3411.689256,N,10850.352360,E,1,19,0.8,429.0,M,,M,,*44
$GPRMC,025552.000,A,3411.689256,N,10850.352360,E,3.8,76.035451931,081221,,E,A*1D
$GPGGA,025553.000,3411.689661,N,10850.354558,E,1,19,0.8,428.5,M,,M,,*4A
$GPRMC,025553.000,A,3411.689661,N,10850.354558,E,4.1,76.829944342,081221,,E,A*1B
$GPGGA,025554.000,3411.689864,N,10850.357065,E,1,19,0.8,427.6,M,,M,,*42
$GPRMC,025554.000,A,3411.689864,N,10850.357065,E,4.5,78.60059087,081221,,E,A*2F
$GPGGA,025555.000,3411.689606,N,10850.358059,E,1,19,0.8,427.3,M,,M,,*4C
$GPRMC,025555.000,A,3411.689606,N,10850.358059,E,4.3,80.823763673,081221,,E,A*19
$GPGGA,025556.000,3411.689930,N,10850.359249,E,1,19,0.8,426.5,M,,M,,*40
$GPRMC,025556.000,A,3411.689930,N,10850.359249,E,4.2,80.091508882,081221,,E,A*1D
$GPGGA,025557.000,3411.689375,N,10850.359760,E,1,19,0.8,426.5,M,,M,,*44
$GPRMC,025557.000,A,3411.689375,N,10850.359760,E,3.9,83.11589063,081221,,E,A*20
$GPGGA,025558.000,3411.689507,N,10850.361056,E,1,19,0.8,426.5,M,,M,,*41
$GPRMC,025558.000,A,3411.689507,N,10850.361056,E,3.9,83.109145912,081221,,E,A*16
$GPGGA,025559.000,3411.689896,N,10850.362621,E,1,19,0.8,425.9,M,,M,,*4F
$GPRMC,025559.000,A,3411.689896,N,10850.362621,E,4.0,82.228573584,081221,,E,A*1A
$GPGGA,025600.000,3411.688916,N,10850.363073,E,1,19,0.8,425.8,M,,M,,*49
$GPRMC,025600.000,A,3411.688916,N,10850.363073,E,3.7,87.30996001700001,081221,,E,A*2A
$GPGGA,025601.000,3411.687970,N,10850.363279,E,1,19,0.8,426.1,M,,M,,*45
$GPRMC,025601.000,A,3411.687970,N,10850.363279,E,3.4,92.48405727,081221,,E,A*26
$GPGGA,025602.000,3411.687241,N,10850.363441,E,1,19,0.8,426.7,M,,M,,*44
$GPRMC,025602.000,A,3411.687241,N,10850.363441,E,3.1,96.609894376,081221,,E,A*17
$GPGGA,025603.000,3411.686967,N,10850.363653,E,1,19,0.8,427.1,M,,M,,*4D
$GPRMC,025603.000,A,3411.686967,N,10850.363653,E,2.9,88.949390675,081221,,E,A*1D
$GPGGA,025604.000,3411.686256,N,10850.363741,E,1,19,0.8,427.4,M,,M,,*44
$GPRMC,025604.000,A,3411.686256,N,10850.363741,E,2.7,90.580480849,081221,,E,A*18
$GPGGA,025605.000,3411.685927,N,10850.364365,E,1,19,0.8,427.8,M,,M,,*42
$GPRMC,025605.000,A,3411.685927,N,10850.364365,E,2.6,86.08252119,081221,,E,A*24
$GPGGA,025606.000,3411.685869,N,10850.365501,E,1,19,0.8,427.9,M,,M,,*4E
$GPRMC,025606.000,A,3411.685869,N,10850.365501,E,2.7,83.630674495,081221,,E,A*11
$GPGGA,025607.000,3411.685225,N,10850.365872,E,1,19,0.8,428.8,M,,M,,*4A
$GPRMC,025607.000,A,3411.685225,N,10850.365872,E,2.6,81.56561458600001,081221,,E,A*2F
$GPGGA,025608.000,3411.685037,N,10850.366700,E,1,19,0.8,428.8,M,,M,,*4D
$GPRMC,025608.000,A,3411.685037,N,10850.366700,E,2.6,76.502832428,081221,,E,A*1F
$GPGGA,025609.000,3411.684844,N,10850.367524,E,1,19,0.8,428.8,M,,M,,*44
$GPRMC,025609.000,A,3411.684844,N,10850.367524,E,2.6,73.083270859,081221,,E,A*19
$GPGGA,025610.000,3411.685026,N,10850.370030,E,1,19,0.8,428.9,M,,M,,*46
$GPRMC,025610.000,A,3411.685026,N,10850.370030,E,2.9,102.039128009,081221,,E,A*20
$GPGGA,025611.000,3411.685015,N,10850.371986,E,1,19,0.8,429.6,M,,M,,*4C
$GPRMC,025611.000,A,3411.685015,N,10850.371986,E,3.2,100.292851183,081221,,E,A*2B
$GPGGA,025612.000,3411.684120,N,10850.374829,E,1,19,0.8,431.2,M,,M,,*45
$GPRMC,025612.000,A,3411.684120,N,10850.374829,E,3.6,102.67770483299999,081221,,E,A*13
$GPGGA,025613.000,3411.682786,N,10850.376741,E,1,19,0.8,432.3,M,,M,,*49
$GPRMC,025613.000,A,3411.682786,N,10850.376741,E,3.9,106.80836992100001,081221,,E,A*14
$GPGGA,025614.000,3411.681736,N,10850.379452,E,1,19,0.8,433.3,M,,M,,*49
$GPRMC,025614.000,A,3411.681736,N,10850.379452,E,4.4,108.336017508,081221,,E,A*2B
$GPGGA,025615.000,3411.680971,N,10850.381940,E,1,19,0.8,433.9,M,,M,,*47
$GPRMC,025615.000,A,3411.680971,N,10850.381940,E,4.7,108.69762066,081221,,E,A*1D
$GPGGA,025616.000,3411.680296,N,10850.384259,E,1,19,0.8,434.9,M,,M,,*47
$GPRMC,025616.000,A,3411.680296,N,10850.384259,E,4.9,108.70263251600001,081221,,E,A*19
$GPGGA,025617.000,3411.679036,N,10850.386204,E,1,19,0.8,435.2,M,,M,,*48
$GPRMC,025617.000,A,3411.679036,N,10850.386204,E,5.1,110.99315989700001,081221,,E,A*14
$GPGGA,025618.000,3411.678326,N,10850.387600,E,1,19,0.8,435.2,M,,M,,*45
$GPRMC,025618.000,A,3411.678326,N,10850.387600,E,5.0,111.792012969,081221,,E,A*29
$GPGGA,025619.000,3411.677798,N,10850.389141,E,1,19,0.8,435.3,M,,M,,*47
$GPRMC,025619.000,A,3411.677798,N,10850.389141,E,5.0,112.100443255,081221,,E,A*20
$GPGGA,025620.000,3411.677221,N,10850.390232,E,1,19,0.8,435.4,M,,M,,*42
$GPRMC,025620.000,A,3411.677221,N,10850.390232,E,4.8,112.981977642,081221,,E,A*22
$GPGGA,025621.000,3411.676707,N,10850.391698,E,1,19,0.8,435.4,M,,M,,*46
$GPRMC,025621.000,A,3411.676707,N,10850.391698,E,4.8,112.96400067399999,081221,,E,A*1F
$GPGGA,025622.000,3411.675879,N,10850.392626,E,1,19,0.8,435.1,M,,M,,*43
$GPRMC,025622.000,A,3411.675879,N,10850.392626,E,4.6,114.700406261,081221,,E,A*27
$GPGGA,025623.000,3411.675288,N,10850.393942,E,1,19,0.8,435.1,M,,M,,*4A
$GPRMC,025623.000,A,3411.675288,N,10850.393942,E,4.6,115.025514071,081221,,E,A*2E
$GPGGA,025624.000,3411.675366,N,10850.395627,E,1,19,0.8,435.0,M,,M,,*47
$GPRMC,025624.000,A,3411.675366,N,10850.395627,E,4.6,112.62875757299999,081221,,E,A*14
$GPGGA,025625.000,3411.675395,N,10850.396562,E,1,19,0.8,435.2,M,,M,,*49
$GPRMC,025625.000,A,3411.675395,N,10850.396562,E,4.4,111.358342206,081221,,E,A*26
$GPGGA,025626.000,3411.675434,N,10850.397596,E,1,19,0.8,435.3,M,,M,,*4D
$GPRMC,025626.000,A,3411.675434,N,10850.397596,E,4.3,109.83588040299999,081221,,E,A*13
$GPGGA,025627.000,3411.675003,N,10850.398633,E,1,19,0.8,435.3,M,,M,,*4F
$GPRMC,025627.000,A,3411.675003,N,10850.398633,E,4.2,110.39889664200001,081221,,E,A*1D
$GPGGA,025628.000,3411.675706,N,10850.397482,E,1,19,0.8,436.1,M,,M,,*44
$GPRMC,025628.000,A,3411.675706,N,10850.397482,E,3.6,108.800429524,081221,,E,A*2D
$GPGGA,025629.000,3411.675820,N,10850.397747,E,1,19,0.8,436.6,M,,M,,*43
$GPRMC,025629.000,A,3411.675820,N,10850.397747,E,3.4,107.83748452200001,081221,,E,A*14
$GPGGA,025630.000,3411.675593,N,10850.398766,E,1,19,0.8,436.6,M,,M,,*42
$GPRMC,025630.000,A,3411.675593,N,10850.398766,E,3.3,107.490547711,081221,,E,A*2E
$GPGGA,025631.000,3411.676342,N,10850.398024,E,1,19,0.8,437.5,M,,M,,*49
$GPRMC,025631.000,A,3411.676342,N,10850.398024,E,2.9,96.5517738,081221,,E,A*13
$GPGGA,025632.000,3411.676473,N,10850.397124,E,1,19,0.8,438.5,M,,M,,*4E
$GPRMC,025632.000,A,3411.676473,N,10850.397124,E,2.5,87.50257900700001,081221,,E,A*27
$GPGGA,025633.000,3411.676554,N,10850.397546,E,1,19,0.8,438.7,M,,M,,*49
$GPRMC,025633.000,A,3411.676554,N,10850.397546,E,2.3,100.19949784100001,081221,,E,A*17
$GPGGA,025634.000,3411.677083,N,10850.397707,E,1,19,0.8,439.1,M,,M,,*40
$GPRMC,025634.000,A,3411.677083,N,10850.397707,E,2.1,111.116708413,081221,,E,A*23
$GPGGA,025635.000,3411.676992,N,10850.398381,E,1,19,0.8,439.1,M,,M,,*4C
$GPRMC,025635.000,A,3411.676992,N,10850.398381,E,2.1,110.67781411200001,081221,,E,A*19
$GPGGA,025636.000,3411.676854,N,10850.399106,E,1,19,0.8,439.1,M,,M,,*48
$GPRMC,025636.000,A,3411.676854,N,10850.399106,E,2.1,118.540420618,081221,,E,A*25
$GPGGA,025637.000,3411.676906,N,10850.398993,E,1,19,0.8,439.8,M,,M,,*43
$GPRMC,025637.000,A,3411.676906,N,10850.398993,E,1.9,115.471124815,081221,,E,A*20
$GPGGA,025638.000,3411.677336,N,10850.398900,E,1,19,0.8,440.8,M,,M,,*40
$GPRMC,025638.000,A,3411.677336,N,10850.398900,E,1.7,102.96803309100001,081221,,E,A*12
$GPGGA,025639.000,3411.677330,N,10850.399699,E,1,19,0.8,441.7,M,,M,,*47
$GPRMC,025639.000,A,3411.677330,N,10850.399699,E,1.7,92.12372112899999,081221,,E,A*2B
$GPGGA,025640.000,3411.677264,N,10850.400206,E,1,19,0.8,441.7,M,,M,,*4C
$GPRMC,025640.000,A,3411.677264,N,10850.400206,E,1.7,100.06650039600001,081221,,E,A*14
$GPGGA,025641.000,3411.677210,N,10850.400750,E,1,19,0.8,441.7,M,,M,,*48
$GPRMC,025641.000,A,3411.677210,N,10850.400750,E,1.7,89.89768049,081221,,E,A*2D
$GPGGA,025642.000,3411.676149,N,10850.400460,E,1,19,0.8,441.6,M,,M,,*44
$GPRMC,025642.000,A,3411.676149,N,10850.400460,E,1.6,103.17371741,081221,,E,A*16
$GPGGA,025643.000,3411.675979,N,10850.400994,E,1,19,0.8,441.6,M,,M,,*4B
$GPRMC,025643.000,A,3411.675979,N,10850.400994,E,1.6,115.290466309,081221,,E,A*2A
$GPGGA,025644.000,3411.673878,N,10850.400201,E,1,19,0.8,441.0,M,,M,,*4B
$GPRMC,025644.000,A,3411.673878,N,10850.400201,E,1.7,115.050890591,081221,,E,A*21
$GPGGA,025645.000,3411.673577,N,10850.400627,E,1,19,0.8,441.0,M,,M,,*48
$GPRMC,025645.000,A,3411.673577,N,10850.400627,E,1.6,86.94113062,081221,,E,A*2B
$GPGGA,025646.000,3411.672709,N,10850.400914,E,1,19,0.8,440.8,M,,M,,*47
$GPRMC,025646.000,A,3411.672709,N,10850.400914,E,1.7,83.829952096,081221,,E,A*11
$GPGGA,025647.000,3411.672792,N,10850.401486,E,1,19,0.8,440.7,M,,M,,*4C
$GPRMC,025647.000,A,3411.672792,N,10850.401486,E,1.6,73.83942062,081221,,E,A*29
$GPGGA,025648.000,3411.672669,N,10850.401837,E,1,19,0.8,440.7,M,,M,,*40
$GPRMC,025648.000,A,3411.672669,N,10850.401837,E,1.5,78.462762063,081221,,E,A*1B
$GPGGA,025649.000,3411.664157,N,10850.396999,E,1,19,0.8,440.5,M,,M,,*42
$GPRMC,025649.000,A,3411.664157,N,10850.396999,E,2.5,99.21211202299999,081221,,E,A*2B
$GPGGA,025650.000,3411.663148,N,10850.397789,E,1,19,0.8,440.5,M,,M,,*4D
$GPRMC,025650.000,A,3411.663148,N,10850.397789,E,2.7,108.012722078,081221,,E,A*2E
$GPGGA,025651.000,3411.661704,N,10850.397649,E,1,19,0.8,440.8,M,,M,,*40
$GPRMC,025651.000,A,3411.661704,N,10850.397649,E,3.0,165.81730132200002,081221,,E,A*15
$GPGGA,025652.000,3411.660494,N,10850.397610,E,1,19,0.8,440.9,M,,M,,*45
$GPRMC,025652.000,A,3411.660494,N,10850.397610,E,3.2,167.38116983700002,081221,,E,A*16
$GPGGA,025653.000,3411.659317,N,10850.396891,E,1,19,0.8,440.8,M,,M,,*45
$GPRMC,025653.000,A,3411.659317,N,10850.396891,E,3.0,170.549534877,081221,,E,A*2B
$GPGGA,025654.000,3411.658319,N,10850.396684,E,1,19,0.8,441.1,M,,M,,*4F
$GPRMC,025654.000,A,3411.658319,N,10850.396684,E,2.8,128.939574996,081221,,E,A*2C
$GPGGA,025655.000,3411.657430,N,10850.395972,E,1,19,0.8,441.1,M,,M,,*48
$GPRMC,025655.000,A,3411.657430,N,10850.395972,E,2.6,149.108891624,081221,,E,A*28
$GPGGA,025656.000,3411.657968,N,10850.396961,E,1,19,0.8,440.6,M,,M,,*4C
$GPRMC,025656.000,A,3411.657968,N,10850.396961,E,2.2,171.031599795,081221,,E,A*20
$GPGGA,025657.000,3411.657613,N,10850.397518,E,1,19,0.8,440.7,M,,M,,*4C
$GPRMC,025657.000,A,3411.657613,N,10850.397518,E,2.2,193.82212449099998,081221,,E,A*1B
$GPGGA,025658.000,3411.657234,N,10850.397786,E,1,19,0.8,440.4,M,,M,,*44
$GPRMC,025658.000,A,3411.657234,N,10850.397786,E,2.1,162.81843382600002,081221,,E,A*1C
$GPGGA,025659.000,3411.657143,N,10850.398095,E,1,19,0.8,441.0,M,,M,,*49
$GPRMC,025659.000,A,3411.657143,N,10850.398095,E,1.9,164.4769677,081221,,E,A*28
$GPGGA,025700.000,3411.656741,N,10850.398053,E,1,19,0.8,441.0,M,,M,,*4B
$GPRMC,025700.000,A,3411.656741,N,10850.398053,E,1.8,160.472113554,081221,,E,A*23
$GPGGA,025701.000,3411.656432,N,10850.397894,E,1,19,0.8,441.6,M,,M,,*47
$GPRMC,025701.000,A,3411.656432,N,10850.397894,E,1.7,136.235965643,081221,,E,A*2C
$GPGGA,025702.000,3411.656026,N,10850.398058,E,1,19,0.8,441.8,M,,M,,*4C
$GPRMC,025702.000,A,3411.656026,N,10850.398058,E,1.7,143.072506969,081221,,E,A*24
$GPGGA,025703.000,3411.654829,N,10850.404733,E,1,19,0.8,448.5,M,,M,,*44
$GPRMC,025703.000,A,3411.654829,N,10850.404733,E,2.6,147.129106629,081221,,E,A*2E
$GPGGA,025704.000,3411.653197,N,10850.403201,E,1,19,0.8,449.8,M,,M,,*47
$GPRMC,025704.000,A,3411.653197,N,10850.403201,E,2.5,145.501650115,081221,,E,A*22
$GPGGA,025705.000,3411.652563,N,10850.403603,E,1,19,0.8,449.8,M,,M,,*4E
$GPRMC,025705.000,A,3411.652563,N,10850.403603,E,2.5,143.237428719,081221,,E,A*28
$GPGGA,025706.000,3411.651347,N,10850.402465,E,1,19,0.8,451.8,M,,M,,*44
$GPRMC,025706.000,A,3411.651347,N,10850.402465,E,2.4,134.463039759,081221,,E,A*2D
$GPGGA,025707.000,3411.650854,N,10850.402833,E,1,19,0.8,451.2,M,,M,,*48
$GPRMC,025707.000,A,3411.650854,N,10850.402833,E,2.4,135.311253642,081221,,E,A*2D
$GPGGA,025708.000,3411.650569,N,10850.403320,E,1,19,0.8,451.1,M,,M,,*4F
$GPRMC,025708.000,A,3411.650569,N,10850.403320,E,2.4,136.994389858,081221,,E,A*2E
$GPGGA,025709.000,3411.649072,N,10850.404745,E,1,19,0.8,452.8,M,,M,,*43
$GPRMC,025709.000,A,3411.649072,N,10850.404745,E,2.8,141.597705186,081221,,E,A*21
$GPGGA,025710.000,3411.648372,N,10850.405809,E,1,19,0.8,452.9,M,,M,,*4E
$GPRMC,025710.000,A,3411.648372,N,10850.405809,E,2.9,148.208250014,081221,,E,A*2B
$GPGGA,025711.000,3411.648200,N,10850.407930,E,1,19,0.8,451.2,M,,M,,*4A
$GPRMC,025711.000,A,3411.648200,N,10850.407930,E,3.2,137.319093808,081221,,E,A*2C
$GPGGA,025712.000,3411.648008,N,10850.411069,E,1,19,0.8,449.1,M,,M,,*4B
$GPRMC,025712.000,A,3411.648008,N,10850.411069,E,3.7,126.059748735,081221,,E,A*25
$GPGGA,025713.000,3411.647539,N,10850.413195,E,1,19,0.8,448.5,M,,M,,*47
$GPRMC,025713.000,A,3411.647539,N,10850.413195,E,4.1,121.868527559,081221,,E,A*23
$GPGGA,025714.000,3411.646869,N,10850.415326,E,1,19,0.8,448.0,M,,M,,*40
$GPRMC,025714.000,A,3411.646869,N,10850.415326,E,4.4,119.717418365,081221,,E,A*2C
$GPGGA,025715.000,3411.646308,N,10850.416289,E,1,19,0.8,448.0,M,,M,,*4A
$GPRMC,025715.000,A,3411.646308,N,10850.416289,E,4.2,120.827871838,081221,,E,A*26
$GPGGA,025716.000,3411.645730,N,10850.417240,E,1,19,0.8,447.9,M,,M,,*47
$GPRMC,025716.000,A,3411.645730,N,10850.417240,E,4.0,121.73963758,081221,,E,A*1C
$GPGGA,025717.000,3411.645723,N,10850.419373,E,1,19,0.8,446.8,M,,M,,*4B
$GPRMC,025717.000,A,3411.645723,N,10850.419373,E,4.2,117.133379905,081221,,E,A*25
$GPGGA,025718.000,3411.645486,N,10850.419917,E,1,19,0.8,446.6,M,,M,,*4E
$GPRMC,025718.000,A,3411.645486,N,10850.419917,E,3.9,118.245720046,081221,,E,A*29
$GPGGA,025719.000,3411.645780,N,10850.420875,E,1,19,0.8,445.9,M,,M,,*49
$GPRMC,025719.000,A,3411.645780,N,10850.420875,E,3.7,115.28191246600001,081221,,E,A*11
$GPGGA,025720.000,3411.646128,N,10850.423681,E,1,19,0.8,445.6,M,,M,,*4D
$GPRMC,025720.000,A,3411.646128,N,10850.423681,E,4.1,109.559498797,081221,,E,A*27
