% program   : RTKPOST ver.2.4.3 b32
% inp file  : C:\Users\Administrator\Dropbox\1. Research Papers && UC Berkeley\47. Manuscript for IEEE TAES GNC-FGO GNSS\Huaweiphone20201113\2020_11_13_driving_tst_mk\P40pro_InsideCar\2020-11-13,10_47_33_GMT+08_00_best\part2\GEOP318D.20o
% inp file  : C:\Users\Administrator\Dropbox\1. Research Papers && UC Berkeley\47. Manuscript for IEEE TAES GNC-FGO GNSS\Huaweiphone20201113\2020_11_13_driving_tst_mk\P40pro_InsideCar\2020-11-13,10_47_33_GMT+08_00_best\part2\hksc318e.20n
% inp file  : C:\Users\Administrator\Dropbox\1. Research Papers && UC Berkeley\47. Manuscript for IEEE TAES GNC-FGO GNSS\Huaweiphone20201113\2020_11_13_driving_tst_mk\P40pro_InsideCar\2020-11-13,10_47_33_GMT+08_00_best\part2\hksc318e.20b
% obs start : 2020/11/13 03:00:01.0 GPST (week2131 442801.0s)
% obs end   : 2020/11/13 03:14:11.0 GPST (week2131 443651.0s)
% pos mode  : single
% elev mask : 15.0 deg
% ionos opt : broadcast
% tropo opt : saastamoinen
% ephemeris : broadcast
% navi sys  : gps beidou
%
% (lat/lon/height=WGS84/ellipsoidal,Q=1:fix,2:float,3:sbas,4:dgps,5:single,6:ppp,ns=# of satellites)
%  GPST                  latitude(deg) longitude(deg)  height(m)   Q  ns   sdn(m)   sde(m)   sdu(m)  sdne(m)  sdeu(m)  sdun(m) age(s)  ratio
2020/11/13 03:00:10.000   22.301641358  114.176323042   -15.3506   5   5   3.4542  16.1288  26.7612  -4.6454  20.1398  -6.3709   0.00    0.0
2020/11/13 03:00:11.000   22.301725153  114.176330173   -21.8756   5   5   3.4532  16.1203  26.7407  -4.6394  20.1259  -6.3628   0.00    0.0
2020/11/13 03:00:12.000   22.301769343  114.176303476   -26.0243   5   4   4.5483  16.6094  28.6662  -5.7808  21.1278  -8.4336   0.00    0.0
2020/11/13 03:00:17.000   22.302067457  114.176897024    41.3140   5   5   3.1328   5.7467  17.1337   2.3479   8.1806   3.0611   0.00    0.0
2020/11/13 03:00:18.000   22.302110032  114.176792828    33.3589   5   6   3.0257   5.3620  11.9693   1.9574   6.4471  -0.7700   0.00    0.0
2020/11/13 03:00:19.000   22.302131006  114.176670786     4.4195   5   6   3.0259   5.3630  11.9696   1.9579   6.4483  -0.7667   0.00    0.0
2020/11/13 03:00:20.000   22.302153684  114.176636271    -0.2617   5   6   3.0261   5.3639  11.9699   1.9584   6.4494  -0.7635   0.00    0.0
2020/11/13 03:00:21.000   22.302164739  114.176636903    -6.1937   5   5   3.1346   5.7509  17.1156   2.3514   8.1825   3.0680   0.00    0.0
2020/11/13 03:00:22.000   22.302180500  114.176676336    18.9670   5   5   3.6583   5.6990  15.5070   2.7902   7.7817   4.4369   0.00    0.0
2020/11/13 03:00:23.000   22.302184190  114.176738004    28.2224   5   5   3.6591   5.7009  15.5114   2.7919   7.7853   4.4401   0.00    0.0
2020/11/13 03:00:24.000   22.302175680  114.176731661    25.6677   5   5   3.6598   5.7028  15.5157   2.7937   7.7890   4.4434   0.00    0.0
2020/11/13 03:00:25.000   22.302157222  114.176727762    18.4837   5   5   3.6606   5.7046  15.5201   2.7955   7.7926   4.4466   0.00    0.0
2020/11/13 03:00:26.000   22.302184563  114.176755731    30.3363   5   6   3.0273   5.3695  11.9715   1.9612   6.4565  -0.7436   0.00    0.0
2020/11/13 03:00:27.000   22.302208956  114.176774813    35.6423   5   6   3.0275   5.3705  11.9717   1.9617   6.4577  -0.7402   0.00    0.0
2020/11/13 03:00:28.000   22.302218346  114.176780700    39.0986   5   6   3.0278   5.3714  11.9720   1.9622   6.4589  -0.7368   0.00    0.0
2020/11/13 03:00:29.000   22.302223691  114.176815450    48.9500   5   7   3.0275   3.4310   7.6611   2.0163   1.9230  -0.2502   0.00    0.0
2020/11/13 03:00:30.000   22.302219165  114.176822189    42.6665   5   7   3.0277   3.4313   7.6612   2.0165   1.9244  -0.2444   0.00    0.0
2020/11/13 03:00:31.000   22.302185518  114.176798213    37.9270   5   7   3.0279   3.4316   7.6612   2.0168   1.9257  -0.2384   0.00    0.0
2020/11/13 03:00:32.000   22.302195319  114.176780366    27.0824   5   6   3.0286   5.3752  11.9730   1.9641   6.4635  -0.7230   0.00    0.0
2020/11/13 03:00:33.000   22.302180943  114.176772689    36.2376   5   5   4.0541   3.4407  14.1108   1.9593   1.9360   5.4505   0.00    0.0
2020/11/13 03:00:34.000   22.302216402  114.176784849    37.1525   5   6   3.1264   3.4380  10.5776   2.0542   2.2656   2.3685   0.00    0.0
2020/11/13 03:00:35.000   22.302163831  114.176728903    34.0550   5   7   3.0288   3.4329   7.6616   2.0177   1.9312  -0.2131   0.00    0.0
2020/11/13 03:00:36.000   22.302173302  114.176671555    27.8950   5   6   3.0294   5.3789  11.9739   1.9660   6.4682  -0.7088   0.00    0.0
2020/11/13 03:00:38.000   22.302280956  114.176741121    52.0297   5   6   3.1280   3.4395  10.5698   2.0562   2.2770   2.3738   0.00    0.0
2020/11/13 03:00:39.000   22.302210117  114.176761134    19.9751   5   6   3.0743   3.7254   7.6686   1.8224   1.8129   0.3658   0.00    0.0
2020/11/13 03:00:40.000   22.302218140  114.176736625    24.5228   5   7   3.0299   3.4345   7.6619   2.0188   1.9381  -0.1765   0.00    0.0
2020/11/13 03:00:42.000   22.302259130  114.176769971    26.0189   5   7   3.0303   3.4351   7.6621   2.0193   1.9408  -0.1595   0.00    0.0
2020/11/13 03:00:43.000   22.302259035  114.176755786    24.6774   5   6   3.6684   4.0674   7.6743   2.9291   1.6830  -0.9564   0.00    0.0
2020/11/13 03:00:44.000   22.302329341  114.176737572    12.3187   5   6   3.0311   5.3864  11.9758   1.9698   6.4775  -0.6799   0.00    0.0
2020/11/13 03:00:45.000   22.302374961  114.176783749    18.4208   5   6   3.0313   5.3873  11.9760   1.9702   6.4786  -0.6763   0.00    0.0
2020/11/13 03:00:46.000   22.302438786  114.176808692    12.6034   5   7   3.0311   3.4364   7.6624   2.0202   1.9463  -0.1189   0.00    0.0
2020/11/13 03:00:47.000   22.302509187  114.176980640    37.5104   5   6   3.0317   5.3891  11.9764   1.9711   6.4809  -0.6690   0.00    0.0
2020/11/13 03:00:48.000   22.302585162  114.177028997    37.3569   5   5   3.6780   5.7480  15.6205   2.8363   7.8765   4.5207   0.00    0.0
2020/11/13 03:00:49.000   22.302691102  114.176977532    22.3760   5   5   6.4164   4.4758   8.9522   4.2889  -2.3943  -5.0164   0.00    0.0
2020/11/13 03:00:50.000   22.302725451  114.177110928    45.2658   5   5   3.4151  15.8021  25.9685  -4.4095  19.6035  -6.0523   0.00    0.0
2020/11/13 03:00:51.000   22.302804202  114.177061470    29.7022   5   6   3.0325   5.3928  11.9772   1.9730   6.4854  -0.6543   0.00    0.0
2020/11/13 03:00:57.000   22.302998666  114.177274694     4.2539   5   5   3.6849   5.7651  15.6597   2.8524   7.9094   4.5497   0.00    0.0
2020/11/13 03:00:58.000   22.303007440  114.177347808     8.2990   5   5   3.6857   5.7670  15.6641   2.8542   7.9131   4.5529   0.00    0.0
2020/11/13 03:00:59.000   22.302987982  114.177352703    -6.4108   5   6   3.5592   3.4466   8.8761   1.9270   1.7154   2.8910   0.00    0.0
2020/11/13 03:01:00.000   22.302992323  114.177417083    11.4909   5   7   3.0341   3.4409   7.6633   2.0234   1.9652   0.1603   0.00    0.0
2020/11/13 03:01:01.000   22.302908673  114.177521772    -4.8593   5   6   3.5601   3.4472   8.8780   1.9282   1.7202   2.8940   0.00    0.0
2020/11/13 03:01:02.000   22.302884937  114.177620931    -1.4368   5   8   2.7763   2.7634   7.7086   0.2130  -2.2492   2.0499   0.00    0.0
2020/11/13 03:01:03.000   22.302847911  114.177735658    -6.4231   5   6   3.3382   8.8729  14.8148   3.7177 -10.5427  -3.8993   0.00    0.0
2020/11/13 03:01:04.000   22.302795065  114.177648585    20.5399   5   7   3.2876   4.7995   8.0093   3.0830  -4.2591  -2.8284   0.00    0.0
2020/11/13 03:01:05.000   22.302772488  114.177816619     9.2665   5   8   2.7763   2.7636   7.7094   0.2157  -2.2481   2.0501   0.00    0.0
2020/11/13 03:01:06.000   22.302711463  114.177907992     8.9456   5   8   2.7764   2.7637   7.7096   0.2165  -2.2477   2.0502   0.00    0.0
2020/11/13 03:01:07.000   22.302749001  114.177967145    12.0663   5   8   3.1394   2.6108   7.3794   0.8176  -0.9231  -2.3514   0.00    0.0
2020/11/13 03:01:08.000   22.302634449  114.178065063    11.3124   5   7   3.0061   3.1472   7.7696   1.3352  -2.5483   1.7601   0.00    0.0
2020/11/13 03:01:09.000   22.302646046  114.178044081    24.7722   5   6   3.7586   4.8371   8.3762   2.9046  -4.0918  -3.5300   0.00    0.0
2020/11/13 03:01:10.000   22.302593419  114.178248100     9.2642   5   6   3.3381   8.8929  14.8616   3.7221 -10.5764  -3.9103   0.00    0.0
2020/11/13 03:01:11.000   22.302570997  114.178205731    30.0789   5   6   3.7587   4.8379   8.3790   2.9045  -4.0931  -3.5322   0.00    0.0
2020/11/13 03:01:12.000   22.302512055  114.178316115    40.7757   5   6   3.9055   5.1484   9.9414   3.6630  -2.6990   2.0925   0.00    0.0
2020/11/13 03:01:13.000   22.302459756  114.178419939    28.5083   5   6   3.7294   3.1530  12.2105   1.4736  -2.2026   4.8864   0.00    0.0
2020/11/13 03:01:14.000   22.302342900  114.178309207    42.7595   5   4  69.4575  70.5689  40.9968  69.9362  52.2248  52.1363   0.00    0.0
2020/11/13 03:01:22.999   22.302453795  114.179285147    22.4146   5   4   5.6629   5.0466  15.3169   1.6517   1.2836  -8.0477   0.00    0.0
2020/11/13 03:01:23.999   22.302396009  114.179254736    40.5097   5   5   3.8743   4.9170  12.3330   2.7251  -2.9485  -5.2206   0.00    0.0
2020/11/13 03:01:25.999   22.302493205  114.179418380    44.5355   5   5   6.6851   9.9207   9.8319   7.6883  -7.2486  -5.9278   0.00    0.0
2020/11/13 03:01:33.999   22.301486935  114.178858402   193.7596   5   5   5.2707   4.5990   9.3100   3.4665  -2.9843  -4.6545   0.00    0.0
2020/11/13 03:01:35.999   22.301424301  114.178913711   203.6909   5   5   5.2712   4.5988   9.3114   3.4654  -2.9811  -4.6552   0.00    0.0
2020/11/13 03:01:37.999   22.302356639  114.179908820    90.0518   5   5   3.6871   5.9005  11.9876   2.9601   6.4902  -0.8627   0.00    0.0
2020/11/13 03:01:40.999   22.302284032  114.179569901    18.4537   5   4   5.6318   5.0547  15.2245   1.6517   1.1833  -7.9881   0.00    0.0
2020/11/13 03:01:41.999   22.302271913  114.179664622    10.5458   5   4   5.6301   5.0552  15.2194   1.6517   1.1773  -7.9849   0.00    0.0
2020/11/13 03:01:42.999   22.302236929  114.179717890     4.2243   5   5   4.2197   4.3555  11.6087  -2.6139   5.1590  -5.2035   0.00    0.0
2020/11/13 03:01:45.999   22.301979391  114.179844905    51.1174   5   5   3.8797   4.9234  12.3405   2.7255  -2.9857  -5.2376   0.00    0.0
2020/11/13 03:01:46.999   22.301899031  114.179744022    63.5005   5   6   2.8108   3.9713  10.6520  -0.5966   3.0351  -3.2823   0.00    0.0
2020/11/13 03:01:47.999   22.301896386  114.179748793    51.8617   5   6   2.8108   3.9717  10.6506  -0.5974   3.0350  -3.2819   0.00    0.0
2020/11/13 03:01:48.999   22.301897632  114.179722875    31.1375   5   6   2.8109   3.9720  10.6491  -0.5983   3.0350  -3.2816   0.00    0.0
2020/11/13 03:01:49.999   22.301855289  114.179691656    21.3789   5   6   2.8109   3.9723  10.6476  -0.5991   3.0349  -3.2812   0.00    0.0
2020/11/13 03:01:50.999   22.301795979  114.179721236    -1.1517   5   5   2.9369   4.4555  13.7118  -1.4410  -2.8675  -1.8469   0.00    0.0
2020/11/13 03:01:51.999   22.301790493  114.179628510    12.6462   5   7   2.5865   3.4639   8.1457   1.3344  -2.0301  -1.7942   0.00    0.0
2020/11/13 03:01:52.999   22.301720231  114.179539784    10.9765   5   7   2.7998   2.9345   8.5306  -0.5261  -1.1940   1.7168   0.00    0.0
2020/11/13 03:01:53.999   22.301682555  114.179506217     8.7357   5   7   2.7999   2.9346   8.5306  -0.5258  -1.1931   1.7169   0.00    0.0
2020/11/13 03:01:54.999   22.301619825  114.179482165    10.4631   5   7   3.3101   2.8746   8.5691  -0.7545   2.0859  -3.1905   0.00    0.0
2020/11/13 03:01:55.999   22.301550214  114.179501926    22.0038   5   6   4.4617   4.2478  14.3007  -3.1504   6.3369  -6.6658   0.00    0.0
2020/11/13 03:01:57.999   22.301482914  114.179485180    23.0323   5   7   3.3109   2.8755   8.5725  -0.7571   2.0895  -3.1941   0.00    0.0
2020/11/13 03:02:02.999   22.300881579  114.179444628    95.9292   5   4   4.7732   3.6123   9.0531  -2.0371  -1.2603  -2.1550   0.00    0.0
2020/11/13 03:02:09.999   22.301284773  114.178901923   -20.8879   5   5   3.5580   4.4556  11.5591  -2.7298   4.5557  -3.0394   0.00    0.0
2020/11/13 03:02:10.999   22.301263634  114.179212696    53.3281   5   4   4.3929  15.5929  26.2013  -5.0367  19.4530  -7.4812   0.00    0.0
2020/11/13 03:02:12.999   22.300412710  114.179028067   249.7649   5   4   4.2898   4.9249   9.7080   2.6476  -3.6696  -4.4338   0.00    0.0
2020/11/13 03:02:13.999   22.301155665  114.179806025   160.2465   5   5   3.7959   4.2564   7.6932   2.7973   1.6421  -0.7443   0.00    0.0
2020/11/13 03:02:15.999   22.301176085  114.179903315   166.1974   5   4   6.6933   9.9788   9.8439   7.5881  -7.2610  -5.8654   0.00    0.0
2020/11/13 03:02:26.999   22.295735993  114.178418457   126.6336   5   4  61.8647  14.0069  10.9621  28.9176  -9.3565 -19.9910   0.00    0.0
2020/11/13 03:02:28.999   22.297648582  114.179393020    16.8100   5   4  38.9996   7.3597  17.4849 -14.6220  -9.7795  23.4057   0.00    0.0
2020/11/13 03:02:43.999   22.300524278  114.178914701     1.2992   5   4   4.3042   6.9552  17.3677   4.0939   9.3800   5.1641   0.00    0.0
2020/11/13 03:02:50.999   22.301533695  114.180316693   115.7285   5   4   6.6606   9.9739   9.8480   7.5614  -7.2515  -5.8371   0.00    0.0
2020/11/13 03:03:00.999   22.300469677  114.179609426  -106.3622   5   4   5.7559   4.0376  20.0845  -2.1653  -5.2867   9.4293   0.00    0.0
2020/11/13 03:03:06.999   22.300846271  114.179401810    22.1660   5   5   3.3600   4.4753  10.6798   2.7341  -0.9940   1.8781   0.00    0.0
2020/11/13 03:03:13.999   22.300866275  114.179062856    25.8173   5   6   2.7235   3.6484   8.1848   0.8974  -2.2567  -1.5235   0.00    0.0
2020/11/13 03:03:14.999   22.301103697  114.179454759    33.2903   5   4  70.4723  73.5583  37.0024  71.9275  50.4672  49.7053   0.00    0.0
2020/11/13 03:03:15.999   22.300748192  114.179143086    10.8392   5   7   3.2418   4.0665   7.4386   2.6286  -3.0042  -1.7312   0.00    0.0
2020/11/13 03:03:19.999   22.300745738  114.179257691    -9.2189   5   6   3.5972   4.5780   9.7615   1.9052  -4.7217   2.6220   0.00    0.0
2020/11/13 03:03:20.999   22.300734517  114.179353027    -6.4843   5   5   6.6100   9.8389   9.8231   7.5952  -7.1599  -5.8466   0.00    0.0
2020/11/13 03:03:22.999   22.300655311  114.179504791   -10.9119   5   5   6.6086   9.8372   9.8227   7.5934  -7.1580  -5.8449   0.00    0.0
2020/11/13 03:03:23.999   22.300454570  114.179038337    56.9125   5   5   3.5018   9.5768  18.2108   4.1246 -12.1488  -5.1577   0.00    0.0
2020/11/13 03:03:24.999   22.300621644  114.179697591   -22.6719   5   6   3.3672   4.8807   8.9679   3.0149  -4.1227  -3.3714   0.00    0.0
2020/11/13 03:03:26.999   22.299926763  114.179229219    48.5786   5   5   6.6458   4.5505   9.2536   4.4000  -2.5360  -5.3961   0.00    0.0
2020/11/13 03:03:27.999   22.300006207  114.179411845    31.0888   5   5   5.8717   4.3886  14.8189   3.8584  -5.2157  -7.1801   0.00    0.0
2020/11/13 03:03:28.999   22.299999521  114.179508658    21.4429   5   5   5.8706   4.3876  14.8131   3.8565  -5.2102  -7.1764   0.00    0.0
2020/11/13 03:03:31.999   22.300177227  114.179869237     4.3553   5   5   9.8711  13.0009   9.9197  11.0261  -5.8519  -4.0989   0.00    0.0
2020/11/13 03:03:32.999   22.300170219  114.179917297    13.7486   5   4  10.9773  15.2778  10.6194  12.6533  -1.9591   1.1735   0.00    0.0
2020/11/13 03:03:33.999   22.299803820  114.179502202    49.0248   5   6   5.2896   4.2557   8.5662   3.4854  -3.7756  -4.5497   0.00    0.0
2020/11/13 03:04:00.999   22.299938992  114.179590270    28.5041   5   6   3.2456   4.3752   8.0320   2.6177  -1.9449  -1.6862   0.00    0.0
2020/11/13 03:04:04.999   22.300821407  114.179402447    81.9702   5   5   4.5588   5.1535  10.4605  -3.3997  -4.5863   2.1290   0.00    0.0
2020/11/13 03:04:06.999   22.299741407  114.179619942    89.0733   5   5   5.7060   3.5814  16.0618   2.7473   0.3679  -7.1868   0.00    0.0
2020/11/13 03:04:08.999   22.299990099  114.179647148    15.7457   5   6   3.2463   4.3761   8.0292   2.6170  -1.9298  -1.6742   0.00    0.0
2020/11/13 03:04:10.999   22.300164157  114.180072821    20.9705   5   5   6.5721   9.7934   9.8115   7.5468  -7.1095  -5.8018   0.00    0.0
2020/11/13 03:04:11.999   22.300064325  114.179858279    -3.3304   5   4   6.8112  12.3343  12.4558   8.3890   2.6496  -4.4611   0.00    0.0
2020/11/13 03:04:12.999   22.300079991  114.179921739    -7.3895   5   4   6.8100  12.3324  12.4559   8.3872   2.6507  -4.4611   0.00    0.0
2020/11/13 03:04:13.999   22.299991135  114.179709726    86.4888   5   4   4.3983   4.8572  17.5671   1.5476  -5.0714   6.6066   0.00    0.0
2020/11/13 03:04:17.999   22.299601862  114.179653345   -20.2666   5   4   4.3288   5.3992  13.8442   3.3676   1.6872  -4.1182   0.00    0.0
2020/11/13 03:04:21.999   22.299229939  114.178641964   237.5116   5   5   3.8797   9.4616  18.9378   3.7011 -11.7363   1.3531   0.00    0.0
2020/11/13 03:04:31.999   22.298666678  114.178991884    93.4891   5   5   4.7126   5.5043  10.9852  -3.7410  -6.1894   4.3700   0.00    0.0
2020/11/13 03:04:33.999   22.298901664  114.177566498   217.3134   5   4   7.5539  18.5218  56.8160  11.0753 -31.6211 -19.6653   0.00    0.0
2020/11/13 03:04:36.999   22.298763933  114.178169609    48.4174   5   4   6.3696   4.8638  16.5519  -4.2237   6.8348  -8.5515   0.00    0.0
2020/11/13 03:04:41.999   22.298736185  114.177954330   -46.6268   5   5   4.1845   4.3456  11.1587  -2.5506   4.8952  -5.0127   0.00    0.0
2020/11/13 03:04:48.999   22.298506572  114.178195444    30.7614   5   4   4.3196   4.4514  12.2235  -2.7447   4.3599  -4.4318   0.00    0.0
2020/11/13 03:04:56.999   22.298865409  114.177826966   167.0751   5   4   3.7870   4.9113  13.3465  -2.6076   2.9319   0.4169   0.00    0.0
2020/11/13 03:04:58.999   22.299340423  114.177853483   156.2875   5   4   7.2831   4.5783  12.9668  -3.8827   3.7554   3.8527   0.00    0.0
2020/11/13 03:05:07.999   22.298446172  114.178163107    21.6135   5   4   4.3160   4.4515  12.1865  -2.7392   4.3274  -4.4093   0.00    0.0
2020/11/13 03:05:08.999   22.298424460  114.177066435  -195.2950   5   4   5.0339  43.1215  81.4668  12.0949  58.9876  16.7804   0.00    0.0
2020/11/13 03:05:10.999   22.298563298  114.178351173    10.2128   5   4   3.5813   5.6010  13.3217  -3.0115  -2.5972  -1.8028   0.00    0.0
2020/11/13 03:05:12.999   22.298567439  114.178265810    -2.0025   5   4   3.5816   5.6027  13.3168  -3.0127  -2.6049  -1.7929   0.00    0.0
2020/11/13 03:05:18.999   22.298517227  114.178748267   104.6647   5   6   3.2577   4.4829   8.1000   2.6779  -1.4144  -1.3562   0.00    0.0
2020/11/13 03:05:21.999   22.298565468  114.178708336    68.5907   5   4   3.9318   6.7738  18.6876   3.2826   7.6774   5.5962   0.00    0.0
2020/11/13 03:05:22.999   22.298090526  114.177354325   298.1470   5   5   3.6057  10.1573  19.4999   4.4175 -13.1370  -5.6947   0.00    0.0
2020/11/13 03:05:27.999   22.297855095  114.178592275    74.3496   5   4   5.0963   6.0001  11.3003  -4.3154  -5.6025   3.6084   0.00    0.0
2020/11/13 03:05:29.999   22.297935670  114.178270036   204.5855   5   4   3.4842   3.8289  19.4717  -1.1788   1.9509  -3.2144   0.00    0.0
2020/11/13 03:05:30.999   22.298282554  114.178518017     6.2979   5   4   3.5837   4.9757  11.9865   2.3332  -3.3267   3.3717   0.00    0.0
2020/11/13 03:05:35.999   22.298176813  114.177120789   -53.9667   5   5   4.1752   4.3453  11.0287  -2.5339   4.8184  -4.9576   0.00    0.0
2020/11/13 03:05:36.999   22.298209782  114.177013736   -70.0711   5   6   3.2571   4.3394  10.1263  -2.4139   4.7133  -3.6292   0.00    0.0
2020/11/13 03:05:45.999   22.296793295  114.177566575    93.2590   5   4   5.0827   5.9923  11.3099  -4.3009  -5.5818   3.5694   0.00    0.0
2020/11/13 03:05:46.999   22.297221340  114.176905710   437.1055   5   4   3.4859   3.8377  19.6047  -1.1921   2.0804  -3.2617   0.00    0.0
2020/11/13 03:05:53.999   22.297147222  114.175667065    99.7384   5   4   6.8587   5.4171  20.1870  -2.0837   4.7234 -10.8953   0.00    0.0
2020/11/13 03:05:54.999   22.297149991  114.175961975    33.4686   5   5   3.3169   3.7135  11.5550  -0.8249   3.0432  -3.0221   0.00    0.0
2020/11/13 03:05:55.999   22.297204035  114.176002611    -7.3377   5   4   3.5871   5.6394  13.2126  -3.0394  -2.7652  -1.5669   0.00    0.0
2020/11/13 03:05:56.999   22.296282312  114.173525111   527.4691   5   4  12.6245  31.4133  39.7592  19.4664 -34.6481 -21.2101   0.00    0.0
2020/11/13 03:05:57.999   22.297687482  114.176049036    47.2612   5   5   5.6069   5.8810  15.7062  -1.6967   7.8809  -6.8130   0.00    0.0
2020/11/13 03:06:02.999   22.295964466  114.172605496   671.8040   5   4  12.4893  31.0823  39.4213  19.2489 -34.3042 -20.9789   0.00    0.0
2020/11/13 03:06:03.999   22.296812113  114.174822272   160.3637   5   4   6.6762  12.1062  12.4618   8.1779   2.7845  -4.4429   0.00    0.0
2020/11/13 03:06:07.999   22.298585616  114.179642305  -849.2240   5   4   9.5282  24.1019  74.5664  14.5601 -41.7740 -25.8285   0.00    0.0
2020/11/13 03:06:10.999   22.296833694  114.174997619   169.1478   5   4   6.6675  12.0913  12.4614   8.1641   2.7942  -4.4409   0.00    0.0
2020/11/13 03:06:13.999   22.297287458  114.176256034   -77.0499   5   4   3.9915   6.8506  18.9415   3.3726   7.9272   5.8188   0.00    0.0
2020/11/13 03:06:28.999   22.295855008  114.172293626   740.1380   5   4  11.9356  29.7250  38.0336  18.3560 -32.8904 -20.0257   0.00    0.0
2020/11/13 03:06:32.999   22.295718639  114.171943737   832.6934   5   4  12.6518  31.4539  41.5414  19.4955 -35.5365 -21.7936   0.00    0.0
2020/11/13 03:06:34.999   22.295830334  114.172220220   790.8275   5   4  12.6039  31.3368  41.4098  19.4185 -35.4096 -21.7086   0.00    0.0
2020/11/13 03:06:47.999   22.296226626  114.173312107   568.4100   5   4  11.5610  28.8037  37.0919  17.7491 -31.9285 -19.3747   0.00    0.0
2020/11/13 03:06:49.999   22.295788856  114.172153725   824.5399   5   4  12.2551  30.4819  40.4533  18.8567 -34.4841 -21.0883   0.00    0.0
2020/11/13 03:06:51.999   22.295701241  114.171909304   845.5117   5   4  12.2100  30.3711  40.3296  18.7838 -34.3642 -21.0078   0.00    0.0
2020/11/13 03:06:55.999   22.295761151  114.172068752   839.4735   5   4  12.1209  30.1524  40.0848  18.6400 -34.1272 -20.8487   0.00    0.0
2020/11/13 03:06:57.999   22.297036317  114.175417951   116.3104   5   5   3.8010   6.1054  11.9564   3.0587   6.6523  -0.8311   0.00    0.0
2020/11/13 03:06:58.999   22.297026075  114.175422979   115.5867   5   5   3.8014   6.1059  11.9560   3.0590   6.6526  -0.8308   0.00    0.0
2020/11/13 03:06:59.999   22.297061713  114.175455842   115.2133   5   5   3.8018   6.1065  11.9557   3.0593   6.6530  -0.8307   0.00    0.0
2020/11/13 03:07:02.999   22.297022304  114.175429209    89.9989   5   4   4.5578   6.8637  17.2617   4.1508   9.1246   5.5312   0.00    0.0
2020/11/13 03:07:04.999   22.297023749  114.175424799    83.8067   5   4   4.5597   6.8675  17.2704   4.1540   9.1314   5.5368   0.00    0.0
2020/11/13 03:07:07.999   22.296126795  114.173011427   641.8959   5   4  11.1911  27.8893  36.1603  17.1467 -30.9733 -18.7264   0.00    0.0
2020/11/13 03:07:08.999   22.295969137  114.172636965   721.4031   5   4  11.8403  29.4622  39.3127  18.1860 -33.3788 -20.3455   0.00    0.0
2020/11/13 03:07:11.999   22.296119682  114.173034772   651.2252   5   4  11.7774  29.3075  39.1395  18.0842 -33.2108 -20.2324   0.00    0.0
2020/11/13 03:07:20.999   22.297277235  114.175788107    63.3022   5   4   3.2841  25.6113  28.3021   2.0815  26.0242  -1.8277   0.00    0.0
2020/11/13 03:07:45.999   22.298852241  114.175957030    54.6269   5   5   3.8189   6.1326  11.9390   3.0727   6.6689  -0.8213   0.00    0.0
2020/11/13 03:07:49.999   22.298991977  114.176181415    76.3863   5   6   3.1364   5.7509  11.8825   2.1884   6.8508   1.3496   0.00    0.0
2020/11/13 03:08:01.999   22.300011501  114.175108562  -131.8290   5   4   6.1016  42.8896  79.0621  14.3190  57.9409  19.5931   0.00    0.0
2020/11/13 03:08:05.999   22.300542767  114.177266930   200.2229   5   4   3.8874   5.3867  11.5220   1.1084  -4.9378   3.9877   0.00    0.0
2020/11/13 03:08:14.999   22.300372386  114.176492888    -7.8489   5   4   4.1438   7.0410  19.5228   3.5955   8.5008   6.3345   0.00    0.0
2020/11/13 03:08:16.999   22.300457930  114.176505830    62.9181   5   5   3.2888   6.8010  11.8981   2.8845   6.6327   1.0564   0.00    0.0
2020/11/13 03:08:19.999   22.300486240  114.176477171    43.4830   5   4   3.2901  25.2402  27.2976   2.5696  25.3221  -0.7767   0.00    0.0
2020/11/13 03:08:21.999   22.300388890  114.175265928  -128.7459   5   4   6.2306  42.8974  78.8421  14.5530  57.8643  19.8813   0.00    0.0
2020/11/13 03:08:25.999   22.300482436  114.175986361     1.1329   5   4   4.1619  13.5935  20.8981  -3.1807  15.8956  -5.3345   0.00    0.0
2020/11/13 03:08:26.999   22.300499439  114.176030869     2.9059   5   6   3.1471   5.7789  11.8590   2.2075   6.8727   1.4204   0.00    0.0
2020/11/13 03:08:27.999   22.300511210  114.176102306   -13.7563   5   4   4.1615   7.0626  19.5844   3.6208   8.5619   6.3902   0.00    0.0
2020/11/13 03:08:28.999   22.300571150  114.175820034   -11.2952   5   4   4.0855  16.0892  19.8682  -5.1675  16.1445  -4.0953   0.00    0.0
2020/11/13 03:08:29.999   22.300385014  114.174807006  -231.6413   5   4   6.2828  42.9035  78.7575  14.6466  57.8369  19.9960   0.00    0.0
2020/11/13 03:08:32.999   22.300793544  114.176720605   139.6353   5   4   9.8229  14.5298  53.8270  11.3514  27.3326  22.1387   0.00    0.0
2020/11/13 03:08:33.999   22.300725260  114.176510334    47.3807   5   4   3.2920  25.1589  27.0712   2.6657  25.1644  -0.0883   0.00    0.0
2020/11/13 03:08:34.999   22.300766764  114.176149699    -3.8141   5   4   6.3146  42.9047  78.7048  14.7025  57.8181  20.0648   0.00    0.0
2020/11/13 03:08:35.999   22.300856928  114.176359107    26.4911   5   4   6.3209  42.9050  78.6944  14.7137  57.8144  20.0785   0.00    0.0
2020/11/13 03:08:36.999   22.301031006  114.177031870   143.3625   5   5   4.1451   6.7520  17.5851   3.7777   9.6184   6.0886   0.00    0.0
2020/11/13 03:08:37.999   22.301035393  114.176185942   -26.4750   5   5   3.2456  13.3992  19.6164  -2.1300  15.3696  -3.1825   0.00    0.0
2020/11/13 03:08:39.999   22.301225216  114.175934289   -76.9445   5   5   3.2456  13.3930  19.5974  -2.1209  15.3573  -3.1724   0.00    0.0
2020/11/13 03:08:41.999   22.301449094  114.176062086   -59.8301   5   4   6.3594  42.9105  78.6323  14.7816  57.7950  20.1614   0.00    0.0
2020/11/13 03:08:45.999   22.301782056  114.175634778  -162.9472   5   4   6.3852  42.9149  78.5916  14.8271  57.7828  20.2167   0.00    0.0
2020/11/13 03:08:46.999   22.302106699  114.178088528   209.2100   5   4   4.1874   7.0939  19.6738   3.6574   8.6502   6.4705   0.00    0.0
2020/11/13 03:08:47.999   22.302072247  114.176737570     2.1175   5   4   3.2940  25.0798  26.8497   2.7526  25.0100   0.7393   0.00    0.0
2020/11/13 03:08:48.999   22.302093454  114.176008418  -102.7820   5   4   6.4044  42.9170  78.5611  14.8605  57.7729  20.2574   0.00    0.0
2020/11/13 03:08:50.999   22.302160753  114.175885511  -137.9511   5   4   6.4174  42.9194  78.5412  14.8833  57.7671  20.2852   0.00    0.0
2020/11/13 03:08:52.999   22.302241485  114.175757901  -157.7355   5   4   6.4305  42.9217  78.5213  14.9061  57.7613  20.3130   0.00    0.0
2020/11/13 03:08:53.999   22.302381410  114.176723925    20.2697   5   5   4.1657   6.7916  17.6505   3.8145   9.6807   6.1452   0.00    0.0
2020/11/13 03:08:54.999   22.302417873  114.176717247    23.2101   5   5   4.1670   6.7939  17.6543   3.8167   9.6844   6.1485   0.00    0.0
2020/11/13 03:08:55.999   22.302438453  114.176703467    16.3103   5   5   4.1682   6.7963  17.6582   3.8189   9.6881   6.1519   0.00    0.0
2020/11/13 03:08:56.999   22.302297917  114.175379878  -230.0875   5   4   6.4568  42.9270  78.4821  14.9520  57.7502  20.3687   0.00    0.0
2020/11/13 03:08:58.999   22.302395618  114.176681064   126.0976   5   4   6.4521  11.7121  12.4273   7.8188   3.0567  -4.3681   0.00    0.0
2020/11/13 03:09:00.999   22.302585790  114.177779935   207.9784   5   4   4.1535  13.4699  20.5340  -3.0282  15.6545  -5.1806   0.00    0.0
2020/11/13 03:09:04.999   22.302495210  114.177075194    84.1820   5   5   4.3756   4.1731   9.0581   3.0612   1.7775   3.0211   0.00    0.0
2020/11/13 03:09:05.999   22.302460872  114.176780342     9.6995   5   4   6.5155  42.9358  78.3950  15.0531  57.7236  20.4920   0.00    0.0
2020/11/13 03:09:08.999   22.302437365  114.177090235    62.6046   5   5   4.1844   6.8266  17.7079   3.8474   9.7355   6.1957   0.00    0.0
2020/11/13 03:09:09.999   22.302491757  114.177323172   108.7044   5   4   6.5417  42.9403  78.3570  15.0981  57.7124  20.5467   0.00    0.0
2020/11/13 03:09:10.999   22.302495746  114.177183845    79.5662   5   5   4.3796   4.1756   9.0621   3.0651   1.7892   3.0289   0.00    0.0
2020/11/13 03:09:11.999   22.302478502  114.177516681   147.5052   5   4   4.1510  13.4332  20.4228  -2.9797  15.5813  -5.1326   0.00    0.0
2020/11/13 03:09:13.999   22.302641714  114.177975195   234.9117   5   5   3.5367   4.4696  10.5979  -2.6608   3.8831  -2.2491   0.00    0.0
2020/11/13 03:09:14.999   22.302531742  114.177135463    82.5108   5   4   6.5748  42.9479  78.3102  15.1547  57.7001  20.6153   0.00    0.0
2020/11/13 03:09:15.999   22.302454095  114.176579456   -18.0849   5   5   4.1932   6.8432  17.7345   3.8628   9.7611   6.2193   0.00    0.0
2020/11/13 03:09:16.999   22.302419250  114.176505330   -37.9079   5   5   4.1944   6.8455  17.7383   3.8651   9.7648   6.2227   0.00    0.0
2020/11/13 03:09:18.999   22.302423198  114.177323614   102.0895   5   4   4.1495  13.4102  20.3529  -2.9488  15.5353  -5.1023   0.00    0.0
2020/11/13 03:09:19.999   22.302658111  114.178590360   168.3313   5   4   5.0018   5.3145  13.2634   1.5435  -2.0463  -6.7177   0.00    0.0
2020/11/13 03:09:21.999   22.302512260  114.176828255    16.2585   5   4   4.2370   7.1535  19.8377   3.7276   8.8139   6.6203   0.00    0.0
2020/11/13 03:09:28.999   22.302866438  114.177074740   -10.9398   5   4   4.2471   7.1655  19.8703   3.7416   8.8464   6.6501   0.00    0.0
2020/11/13 03:09:29.999   22.302921064  114.177091469    -4.5804   5   5   4.2107   6.8759  17.7873   3.8935   9.8120   6.2661   0.00    0.0
2020/11/13 03:09:30.999   22.302978035  114.177196105     4.3038   5   5   4.2120   6.8783  17.7911   3.8957   9.8156   6.2694   0.00    0.0
2020/11/13 03:09:31.999   22.302984677  114.177182780   -14.4574   5   6   2.9893   3.6356  10.5231  -1.4666   3.5481  -1.8052   0.00    0.0
2020/11/13 03:09:32.999   22.303011293  114.177324836     3.6956   5   5   4.2145   6.8829  17.7986   3.9001   9.8228   6.2761   0.00    0.0
2020/11/13 03:09:33.999   22.302943033  114.177291864   -18.1570   5   5   4.2158   6.8853  17.8024   3.9023   9.8265   6.2795   0.00    0.0
2020/11/13 03:09:34.999   22.302931748  114.177382546     6.6938   5   5   2.9958   4.5529  12.6256  -1.6355  -2.5599  -1.3868   0.00    0.0
2020/11/13 03:09:35.999   22.302913010  114.177467349     1.9434   5   6   2.9899   3.6364  10.5158  -1.4670   3.5471  -1.8046   0.00    0.0
2020/11/13 03:09:36.999   22.302927232  114.177488192    16.0254   5   8   2.5945   2.8751   7.2981   0.8142   1.4151  -1.3624   0.00    0.0
2020/11/13 03:09:37.999   22.302896066  114.177533553    16.7264   5   8   2.5576   3.3806   7.3203   1.4406  -2.5908  -1.1566   0.00    0.0
2020/11/13 03:09:38.999   22.302870961  114.177618179    12.8175   5   8   2.5577   3.3807   7.3200   1.4405  -2.5905  -1.1563   0.00    0.0
2020/11/13 03:09:39.999   22.302852472  114.177653031     9.3787   5   8   2.5577   3.3809   7.3196   1.4404  -2.5901  -1.1560   0.00    0.0
2020/11/13 03:09:41.999   22.302802667  114.177754140    -2.4116   5   5   3.3745  12.4668  22.7358   3.5716 -16.2102  -3.8318   0.00    0.0
2020/11/13 03:09:42.999   22.302724852  114.177525827    32.5375   5   6   4.3917   3.9146   8.1210   3.0166  -1.6254   2.8766   0.00    0.0
2020/11/13 03:09:43.999   22.302792624  114.177781805    -0.7797   5   6   3.3421  10.2603  18.0810   4.0079 -12.8516  -4.5963   0.00    0.0
2020/11/13 03:09:44.999   22.302760505  114.177790928   -13.6289   5   5   3.3739  12.4979  22.8003   3.5737 -16.2568  -3.8369   0.00    0.0
2020/11/13 03:09:45.999   22.302759438  114.177573251    35.1359   5   6   3.0739   4.6538  11.1470  -1.8342  -5.7947   3.5986   0.00    0.0
2020/11/13 03:09:46.999   22.302771492  114.177579720    38.0584   5   7   2.9835   2.9662   8.3108  -0.8428  -2.6336   2.7301   0.00    0.0
2020/11/13 03:09:50.999   22.302779296  114.177651256    23.2006   5   6   3.2332   3.3316   8.4358   1.0860  -3.0197   2.3792   0.00    0.0
2020/11/13 03:09:54.999   22.302799700  114.177850759   -10.1155   5   5   3.3718  12.6031  23.0180   3.5810 -16.4141  -3.8545   0.00    0.0
2020/11/13 03:09:55.999   22.302773473  114.177710438    16.6873   5   7   3.0183   3.2399   7.8981   1.4445  -2.6092   1.4880   0.00    0.0
2020/11/13 03:10:00.999   22.302875644  114.178021826    -4.8044   5   4   4.5776  21.3755  31.5187  -5.3656 -25.1675   5.0324   0.00    0.0
2020/11/13 03:10:01.999   22.302766158  114.177909286    24.3922   5   7   3.0186   3.2410   7.8983   1.4457  -2.6093   1.4844   0.00    0.0
2020/11/13 03:10:02.999   22.302689076  114.177911163    28.1145   5   5   4.4143   4.1977   9.0971   3.0988   1.8901   3.0963   0.00    0.0
2020/11/13 03:10:03.999   22.302667634  114.177929348    16.3419   5   6   4.0316   3.3216   8.3803   0.3893  -2.1854  -2.2988   0.00    0.0
2020/11/13 03:10:04.999   22.302100808  114.177858786    30.1679   5   5  13.0834   3.7765   9.1558   4.5648   2.0401  -2.6510   0.00    0.0
2020/11/13 03:10:05.999   22.302685588  114.178019666    12.5480   5   7   3.0188   3.2417   7.8985   1.4465  -2.6094   1.4821   0.00    0.0
2020/11/13 03:10:06.999   22.302625946  114.178063226    20.9968   5   5   4.3951   3.4921   9.5449  -1.3151   0.3751  -3.6469   0.00    0.0
2020/11/13 03:10:07.999   22.302687816  114.178028674     5.2381   5   6   3.1000   3.3286   8.5566   1.2499  -2.0802  -0.3537   0.00    0.0
2020/11/13 03:10:09.999   22.302533955  114.177702242   132.1913   5   5   3.5799  10.8864  21.4731   4.5394 -14.3922  -5.9945   0.00    0.0
2020/11/13 03:10:13.999   22.302522890  114.178132447    68.6398   5   7   2.8336   3.0067   8.3772  -0.4046  -0.5768   1.6814   0.00    0.0
2020/11/13 03:10:14.999   22.302485765  114.178138765    68.2813   5   5   3.2733   3.6731  13.5753  -1.2497   4.0593   2.8650   0.00    0.0
2020/11/13 03:10:16.999   22.302635070  114.177928938    -9.5643   5   4   7.0081   7.7409  16.4788  -6.5062   7.7940  -8.3526   0.00    0.0
2020/11/13 03:10:23.999   22.302281890  114.178599895   138.7528   5   6   2.9970   3.6464  10.4274  -1.4721   3.5356  -1.7966   0.00    0.0
2020/11/13 03:10:28.999   22.302291060  114.178581523    89.3128   5   4   6.2041   4.7870  13.6414   4.4282   5.1873   7.3393   0.00    0.0
2020/11/13 03:10:29.999   22.302377733  114.178726998   134.2754   5   4   6.2062   4.7885  13.6409   4.4303   5.1899   7.3411   0.00    0.0
2020/11/13 03:10:34.999   22.302168386  114.178809003   209.7325   5   4   4.9851   4.7206  16.6969   2.3141  -2.4233   7.3792   0.00    0.0
2020/11/13 03:10:35.999   22.302121403  114.178841511   214.6212   5   5   3.2694   4.2757  13.8839  -1.4728  -4.9373   4.4238   0.00    0.0
2020/11/13 03:10:36.999   22.302197331  114.178780912   250.2434   5   5   4.0047   4.9495  11.3985   0.8919  -5.4968   4.3292   0.00    0.0
2020/11/13 03:10:37.999   22.302227949  114.179022568   302.3979   5   4   4.3510   7.2866  20.1878   3.8847   9.1639   6.9460   0.00    0.0
2020/11/13 03:10:39.999   22.300982970  114.180021058  -173.8708   5   4   6.0100   5.3050  17.0822  -4.5655  -4.9268   7.8318   0.00    0.0
2020/11/13 03:10:40.999   22.303143749  114.188883660  1848.0575   5   4   7.1473  43.1163  77.6034  16.0987  57.5485  21.7495   0.00    0.0
2020/11/13 03:10:45.999   22.301308411  114.180103229  -114.0387   5   4   4.9532   3.5609  31.7519  -2.7243  -4.9377   8.2341   0.00    0.0
2020/11/13 03:10:50.999   22.301736507  114.179605662    44.5704   5   4   4.3715   7.3099  20.2473   3.9123   9.2233   7.0021   0.00    0.0
2020/11/13 03:10:52.999   22.301854517  114.179444071    31.0246   5   7   3.0213   3.2500   7.8995   1.4561  -2.6101   1.4543   0.00    0.0
2020/11/13 03:10:53.999   22.301859667  114.179490480    24.1673   5   5   3.6545  11.1017  21.7715   4.6898 -14.7088  -6.2308   0.00    0.0
2020/11/13 03:10:54.999   22.301842759  114.179535313    11.5440   5   6   3.3406  10.3858  18.3934   4.0221 -13.0638  -4.6430   0.00    0.0
2020/11/13 03:10:55.999   22.301844473  114.179610077     0.7365   5   6   3.3405  10.3874  18.3974   4.0222 -13.0665  -4.6436   0.00    0.0
2020/11/13 03:10:56.999   22.301834741  114.179424846    40.4382   5   6   3.5825   3.2937  10.3310   1.7729  -1.8117   3.8631   0.00    0.0
2020/11/13 03:10:57.999   22.301813899  114.179385317    48.3447   5   6   3.5824   3.2940  10.3281   1.7733  -1.8112   3.8615   0.00    0.0
2020/11/13 03:10:59.999   22.301821822  114.179549685    13.3181   5   5   3.9122  10.4716  19.1920   4.3337 -12.8102  -3.2498   0.00    0.0
2020/11/13 03:11:00.999   22.301816077  114.179529329    10.2241   5   5   3.9124  10.4739  19.1918   4.3354 -12.8122  -3.2545   0.00    0.0
2020/11/13 03:11:01.999   22.301835815  114.179552783    11.5897   5   6   3.2617   4.1902  12.8748  -1.3930  -5.2488   4.4873   0.00    0.0
2020/11/13 03:11:02.999   22.301833213  114.179355948    50.0222   5   7   3.1786   2.8169  10.3115   0.5744  -1.9074   3.8070   0.00    0.0
2020/11/13 03:11:03.999   22.301794619  114.179323313    47.9108   5   7   3.0219   3.2520   7.8994   1.4583  -2.6101   1.4476   0.00    0.0
2020/11/13 03:11:04.999   22.301811096  114.179556553     2.9077   5   6   3.3402  10.4010  18.4326   4.0232 -13.0900  -4.6482   0.00    0.0
2020/11/13 03:11:05.999   22.301786267  114.179305830    48.6146   5   7   3.0220   3.2523   7.8994   1.4587  -2.6101   1.4464   0.00    0.0
2020/11/13 03:11:06.999   22.301783848  114.179304650    44.3152   5   7   3.0220   3.2525   7.8994   1.4589  -2.6101   1.4458   0.00    0.0
2020/11/13 03:11:07.999   22.301779395  114.179300578    42.6636   5   7   3.0221   3.2527   7.8994   1.4591  -2.6101   1.4452   0.00    0.0
2020/11/13 03:11:08.999   22.301851807  114.179745743   -30.2840   5   7   2.8292   4.1270   9.6441  -0.8784  -4.6229   2.5091   0.00    0.0
2020/11/13 03:11:09.999   22.301808995  114.179576811    -2.5457   5   6   3.3401  10.4084  18.4517   4.0237 -13.1027  -4.6506   0.00    0.0
2020/11/13 03:11:10.999   22.301820574  114.179616973    -4.1963   5   6   3.3400  10.4099  18.4555   4.0238 -13.1052  -4.6511   0.00    0.0
2020/11/13 03:11:12.999   22.301828862  114.179718482   -29.0379   5   7   2.8296   4.1264   9.6415  -0.8785  -4.6203   2.5097   0.00    0.0
2020/11/13 03:11:13.999   22.301822015  114.179694518   -28.4895   5   7   2.8297   4.1263   9.6409  -0.8786  -4.6196   2.5098   0.00    0.0
2020/11/13 03:11:15.999   22.301785412  114.179497879    -0.0707   5   7   3.0226   3.2541   7.8993   1.4608  -2.6100   1.4403   0.00    0.0
2020/11/13 03:11:16.999   22.301808830  114.179654058   -24.8910   5   7   2.8300   4.1259   9.6389  -0.8787  -4.6176   2.5102   0.00    0.0
2020/11/13 03:11:17.999   22.301795087  114.179626831   -25.0753   5   6   3.3398  10.4199  18.4816   4.0244 -13.1226  -4.6543   0.00    0.0
2020/11/13 03:11:18.999   22.301804311  114.179624889   -19.6657   5   6   3.3398  10.4213  18.4853   4.0244 -13.1250  -4.6547   0.00    0.0
2020/11/13 03:11:19.999   22.301809556  114.179646191   -21.6351   5   6   3.3397  10.4227  18.4889   4.0245 -13.1274  -4.6552   0.00    0.0
2020/11/13 03:11:20.999   22.301788670  114.179627181   -17.6181   5   6   3.3397  10.4240  18.4926   4.0246 -13.1299  -4.6556   0.00    0.0
2020/11/13 03:11:21.999   22.301788892  114.179640842   -19.4547   5   6   3.3396  10.4254  18.4962   4.0246 -13.1323  -4.6560   0.00    0.0
2020/11/13 03:11:22.999   22.301789234  114.179524031     4.3494   5   7   2.8306   4.1251   9.6349  -0.8789  -4.6137   2.5110   0.00    0.0
2020/11/13 03:11:23.999   22.301762297  114.179559485   -13.1602   5   7   2.8307   4.1250   9.6343  -0.8789  -4.6130   2.5111   0.00    0.0
2020/11/13 03:11:25.999   22.301741609  114.179705194   -32.3297   5   5   3.6550  11.1515  21.8952   4.6966 -14.7927  -6.2504   0.00    0.0
2020/11/13 03:11:30.999   22.301601949  114.179561521   -20.1751   5   5   3.0168   4.5796  12.2868  -1.6856  -2.4582  -1.2669   0.00    0.0
2020/11/13 03:11:31.999   22.301564032  114.179384851    18.1897   5   6   3.0939   3.2483   8.6036  -1.3069  -2.0151   2.4028   0.00    0.0
2020/11/13 03:11:32.999   22.301632498  114.179448437    30.2291   5   6   3.9858   3.3478   8.7306   1.8329  -1.6896   3.7971   0.00    0.0
2020/11/13 03:11:37.999   22.301608286  114.179579023   114.4190   5   5   3.9919   3.8864   9.3422   1.9155   1.9250   3.8690   0.00    0.0
2020/11/13 03:11:43.999   22.300070695  114.179457548  -159.2077   5   4   7.0687   3.5871  19.0986  -2.0972  -4.3870  10.3821   0.00    0.0
2020/11/13 03:11:46.999   22.301020436  114.179023601   -58.5154   5   4   4.2664   4.4966  11.4322  -2.6650   3.6707  -3.9775   0.00    0.0
2020/11/13 03:11:57.999   22.301112618  114.179899546    86.6916   5   4   4.6492   4.5645   9.6859   3.0906   2.0621   3.8234   0.00    0.0
2020/11/13 03:11:58.999   22.301143693  114.179909072    88.8371   5   4   4.6499   4.5651   9.6870   3.0914   2.0637   3.8247   0.00    0.0
2020/11/13 03:11:59.999   22.301171374  114.179924621   100.4055   5   4   4.6506   4.5657   9.6881   3.0921   2.0653   3.8261   0.00    0.0
2020/11/13 03:12:00.999   22.300423219  114.176833114   548.8695   5   4   3.5944  14.6913  28.9404   4.3418 -19.9642  -5.7460   0.00    0.0
2020/11/13 03:12:13.999   22.300690519  114.179246738    21.2929   5   6   3.9149   4.3848  10.0020   1.8135  -4.0909   3.7310   0.00    0.0
2020/11/13 03:12:14.999   22.300401166  114.178759743    83.4288   5   5   4.5064   4.2559   9.1833   3.1867   2.1383   3.2719   0.00    0.0
2020/11/13 03:12:15.999   22.300354243  114.178813044    89.4164   5   6   4.4958   3.9681   8.2074   3.1095  -1.3284   3.0662   0.00    0.0
2020/11/13 03:12:16.999   22.300453012  114.179489525    12.8616   5   5   7.5586  18.4612  24.8719  10.9186 -20.6171 -11.5429   0.00    0.0
2020/11/13 03:12:17.999   22.300340449  114.179547982    15.9662   5   5   7.5514  18.4410  24.8511  10.9051 -20.5955 -11.5269   0.00    0.0
2020/11/13 03:12:18.999   22.300186807  114.179458776    31.1182   5   5   4.8710   4.3833  14.1017   1.8207  -4.0730   6.5382   0.00    0.0
2020/11/13 03:12:19.999   22.299879345  114.179027018    75.0279   5   5   6.3374   4.5310  12.1898   4.4087   4.2362   7.0466   0.00    0.0
2020/11/13 03:12:21.999   22.299963964  114.179660872    32.0537   5   6   3.9211   4.3823  10.0060   1.8134  -4.0800   3.7472   0.00    0.0
2020/11/13 03:12:22.999   22.299850531  114.179341728   101.9372   5   4   7.5394  18.4546  26.7034  10.8947 -20.9828 -11.7081   0.00    0.0
2020/11/13 03:12:24.999   22.299985913  114.179810518    38.2335   5   5   7.5013  18.3012  24.7065  10.8117 -20.4450 -11.4165   0.00    0.0
2020/11/13 03:12:29.999   22.299989029  114.179953192    90.5098   5   6   3.2224   3.3730   8.5117   1.1184  -3.0772   2.3361   0.00    0.0
2020/11/13 03:12:30.999   22.300159460  114.180762921   -18.2841   5   5   7.4592  18.1834  24.5844  10.7330 -20.3179 -11.3230   0.00    0.0
2020/11/13 03:12:34.999   22.299671388  114.178952159   115.6625   5   4   3.6990   6.0498  12.3262  -3.3600  -3.8842   1.8959   0.00    0.0
2020/11/13 03:12:36.999   22.299755646  114.179285385     7.4401   5   4   4.2632   4.5078  11.3417  -2.6611   3.5921  -3.9285   0.00    0.0
2020/11/13 03:12:37.999   22.299753171  114.179298327     6.2824   5   4   4.2632   4.5080  11.3399  -2.6610   3.5906  -3.9276   0.00    0.0
2020/11/13 03:12:40.999   22.299410354  114.179479205   -42.8145   5   5   3.6087   3.4387  10.7466   1.6858   0.5372   3.4077   0.00    0.0
2020/11/13 03:12:45.999   22.300001712  114.180280188   174.1555   5   4   4.9264   7.5443  18.6617   4.7276  10.2855   6.5162   0.00    0.0
2020/11/13 03:12:51.999   22.299498033  114.179242627   -39.1383   5   5   3.3090   3.6993  12.5482  -1.2995   3.8918   2.6123   0.00    0.0
2020/11/13 03:12:53.999   22.299497440  114.179288541   -22.8923   5   6   3.0213   3.6788  10.1427  -1.4902   3.4984  -1.7730   0.00    0.0
2020/11/13 03:12:55.999   22.299506130  114.179270654   -51.5699   5   6   3.0216   3.6792  10.1389  -1.4904   3.4979  -1.7728   0.00    0.0
2020/11/13 03:12:56.999   22.299551325  114.179273578   -55.0985   5   4   3.8908   3.8380  12.8222   0.6257   3.5042   1.0527   0.00    0.0
2020/11/13 03:13:01.999   22.299404800  114.179296374   -68.6729   5   4   3.7102   6.0821  12.2714  -3.3861  -3.9444   1.9882   0.00    0.0
2020/11/13 03:13:02.999   22.299581701  114.179115054    -7.1326   5   5   3.3117   3.7013  12.4824  -1.3029   3.8813   2.5951   0.00    0.0
2020/11/13 03:13:03.999   22.299206178  114.178028040   321.0715   5   4   4.2977  11.5155  22.2684   5.2598 -14.7360  -5.7944   0.00    0.0
2020/11/13 03:13:18.999   22.299231385  114.179443832    80.3782   5   4  12.6223   7.4318  18.9673   4.9149  10.5439   2.1344   0.00    0.0
2020/11/13 03:13:19.999   22.299394892  114.179284499     2.2957   5   4  12.2654  17.7875  58.1822  14.2734  31.6856  26.0368   0.00    0.0
2020/11/13 03:13:20.999   22.299442619  114.179326889    41.3875   5   5   3.0389   4.6059  11.9575  -1.7338  -2.3533  -1.1543   0.00    0.0
2020/11/13 03:13:22.999   22.299293815  114.179441633   100.8285   5   4   7.5815   8.3796  17.2630  -7.1853   9.0371  -9.3728   0.00    0.0
2020/11/13 03:13:23.999   22.299570632  114.179643377   160.4060   5   6   3.9687   3.6314   9.1399   2.3143   2.8297   3.7624   0.00    0.0
2020/11/13 03:13:24.999   22.299299362  114.179499889     4.3896   5   4   7.6340   8.3852  33.9163  -7.1920 -15.7244  15.2854   0.00    0.0
2020/11/13 03:13:25.999   22.299434821  114.179319019    81.3468   5   5   3.6089   3.4507  10.5996   1.6999   0.5159   3.3201   0.00    0.0
2020/11/13 03:13:26.999   22.299576926  114.179175361    13.3233   5   4  12.8782  13.8764  59.2016 -12.9660  28.0921 -26.7198   0.00    0.0
2020/11/13 03:13:38.999   22.299453006  114.179365833    65.7440   5   5   4.4534   5.0306  10.4397  -3.2420  -3.1859  -1.9266   0.00    0.0
2020/11/13 03:13:39.999   22.299478460  114.179352890    81.7115   5   6   2.8781   4.2185  10.1273  -1.0940  -4.1322   2.2103   0.00    0.0
2020/11/13 03:13:40.999   22.299447903  114.179370973    88.8701   5   5   4.4535   5.0304  10.4390  -3.2420  -3.1804  -1.9332   0.00    0.0
2020/11/13 03:13:41.999   22.299400942  114.179088647   159.6593   5   5   3.6460  11.2463  22.1576   4.6727 -14.9631  -6.2494   0.00    0.0
2020/11/13 03:13:43.999   22.299411700  114.179201035   129.9523   5   4   4.4601  17.4061  26.7599  -3.8092 -20.5098   1.4625   0.00    0.0
2020/11/13 03:13:44.999   22.299411242  114.179149283   142.3729   5   6   3.3310  10.5514  18.8720   4.0069 -13.3683  -4.6726   0.00    0.0
2020/11/13 03:13:45.999   22.299452642  114.179244986   125.1051   5   7   2.8457   4.1050   9.5249  -0.8807  -4.5112   2.5253   0.00    0.0
2020/11/13 03:13:46.999   22.299545400  114.179250075   145.2394   5   6   3.9887   4.3558  10.0489   1.8158  -3.9589   3.9160   0.00    0.0
2020/11/13 03:13:47.999   22.299545480  114.179219130   152.3778   5   5   4.0175   4.6185  10.9670   2.0063  -2.9859   4.1750   0.00    0.0
2020/11/13 03:13:48.999   22.299544680  114.179208833   156.9835   5   5   4.0184   4.6183  10.9676   2.0065  -2.9835   4.1771   0.00    0.0
2020/11/13 03:13:51.999   22.299568415  114.179137740   150.9739   5   5   5.1689   4.0310  13.8556   3.3001   5.0415   6.9876   0.00    0.0
2020/11/13 03:13:52.999   22.299782292  114.179500708   266.3902   5   4   4.6801   7.6497  21.0390   4.3159  10.0320   7.7772   0.00    0.0
2020/11/13 03:14:00.999   22.299361634  114.179338091   169.0351   5   5   4.3119   5.1892  11.3475  -3.1911  -5.6571   3.2922   0.00    0.0
2020/11/13 03:14:02.999   22.299270163  114.180212419    62.6969   5   4   4.4892  17.2211  26.5322  -3.5335 -20.3521  -0.7890   0.00    0.0
