     3.03           OBSERVATION DATA    M: Mixed            RINEX VERSION / TYPE
Geo++ RINEX Logger  Geo++               20201113 025942 UTC PGM / RUN BY / DATE
************************************************************COMMENT
This file was generated by the Geo++ RINEX Logger App       COMMENT
for Android devices (Version 2.1.6). If you encounter       COMMENT
any issues, please send an email to android@geopp.de        COMMENT
Filtering Mode: BEST                                        COMMENT
************************************************************COMMENT
Geo++                                                       MARKER NAME
GEODETIC                                                    MARKER TYPE
Geo++               Geo++                                   OBSERVER / AGENCY
unknown             HUAWEI              ELS-AN00            REC # / TYPE / VERS
unknown             ELS-AN00                                ANT # / TYPE
 -2417921.8652  5386104.4968  2405258.9681                  APPROX POSITION XYZ
        0.0000        0.0000        0.0000                  ANTENNA: DELTA H/E/N
G    8 C1C L1C D1C S1C C5Q L5Q D5Q S5Q                      SYS / # / OBS TYPES
R    4 C1C L1C D1C S1C                                      SYS / # / OBS TYPES
E   12 C1B L1B D1B S1B C1C L1C D1C S1C C5Q L5Q D5Q S5Q      SYS / # / OBS TYPES
C    4 C2I L2I D2I S2I                                      SYS / # / OBS TYPES
J    8 C1C L1C D1C S1C C5Q L5Q D5Q S5Q                      SYS / # / OBS TYPES
  2020    11    13     3     0    0.9995576     GPS         TIME OF FIRST OBS
 24 R01  1 R02 -4 R03  5 R04  6 R05  1 R06 -4 R07  5 R08  6 GLONASS SLOT / FRQ #
    R09 -2 R10 -5 R11  0 R12 -1 R13 -2 R14 -7 R15  0 R16 -1 GLONASS SLOT / FRQ #
    R17  4 R18 -3 R19  3 R20  2 R21  4 R22 -3 R23  3 R24  2 GLONASS SLOT / FRQ #
G L1C                                                       SYS / PHASE SHIFT
G L5Q -0.25000                                              SYS / PHASE SHIFT
R L1C                                                       SYS / PHASE SHIFT
E L1B                                                       SYS / PHASE SHIFT
E L1C +0.50000                                              SYS / PHASE SHIFT
E L5Q -0.25000                                              SYS / PHASE SHIFT
C L2I                                                       SYS / PHASE SHIFT
J L1C                                                       SYS / PHASE SHIFT
J L5Q -0.25000                                              SYS / PHASE SHIFT
 C1C    0.000 C1P    0.000 C2C    0.000 C2P    0.000        GLONASS COD/PHS/BIS
                                                            END OF HEADER
> 2020 11 13  3  0  0.9995576  0 15
C06  36237940.995   188700476.462       -1523.678          37.000  
C08  36070211.912   187827056.772        -930.817          35.000  
C13  35783361.195   186333344.925        -578.438          33.000  
C16  36232885.595   188674138.577       -1439.727          37.000  
C29  23965162.363   124792826.681         -17.153          28.000  
C32  23591164.677   122845386.663       -2124.597          29.000  
G02  23650137.151   124282295.437       -4290.559          22.000  
G05  23185287.060   121839454.320       -2647.650          33.000  
G13  22132189.004   116305496.441       -4015.362          30.000  
G15  20422003.741   107318356.504       -2307.663          27.000  
G18  21712299.388   114099042.4281       1435.773          19.000  
G24  21258690.915   111715112.741        1374.388          30.000  
J01  40027833.907   210347716.285       -1137.044          29.000    40027842.002   157077853.737        -849.788          31.000  
J02  37216780.459   195575346.840       -1065.552          32.000  
J03  36087314.772   189639961.222       -1515.840          29.000  
> 2020 11 13  3  0  1.9995571  0 15
C06  36238083.996   188701225.431       -1530.304          35.000  
C08  36070240.392   187827206.102        -929.767          32.000  
C13  35783319.224   186333142.468        -577.332          32.000  
C16  36233014.206   188674797.297       -1439.209          37.000  
C29  23965017.863   124792065.420         -21.868          23.000  
C32  23591421.599   122846729.303       -2121.403          32.000  
G02  23650809.885   124285798.490       -4288.285          21.000  
G05  23185642.614   121841321.235       -2654.599          32.000  
G13  22132802.680   116308722.395       -4010.930          32.000  
G15  20422290.942   107319878.971       -2310.007          27.000  
G18  21711873.683   114096819.869        1433.032          16.000  
G24  21258281.998   111712954.421        1365.803          28.000  
J01  40027898.962   210348065.291       -1135.568          32.000    40027907.956   157078114.736        -847.583          28.000  
J02  37216833.822   195575626.618       -1070.401          29.000  
J03  36087455.974   189640692.035       -1520.285          28.000  
> 2020 11 13  3  0  2.9995561  0 15
C06  36238078.300   188701194.068       -1529.562          36.000  
C08  36070118.077   187826575.120        -930.146          31.000  
C13  35783130.954   186332156.807        -573.882          32.000  
C16  36232992.621   188674682.412       -1446.891          33.000  
C29  23964721.369   124790529.207         -27.749          15.000  
C32  23591527.725   122847291.049       -2126.443          33.000  
G02  23651326.727   124288517.132       -4300.064          23.000  
G05  23185847.072   121842398.163       -2651.378          31.000  
G13  22133265.859   116311156.784       -4009.209          32.000  
G15  20422429.746   107320610.388       -2301.874          29.000  
G18  21711295.083   114093813.523        1428.887          17.000  
G24  21257725.283   111710015.414        1359.954          32.000  
J01  40027815.320   210347625.146       -1135.631          31.000    40027824.014   157077785.011        -847.177          29.000  
J02  37216736.989   195575123.074       -1073.035          34.000  
J03  36087450.578   189640638.638       -1524.318          30.000  
> 2020 11 13  3  0  3.9995553  0 11
C06  36238133.762   188701475.038       -1532.911          39.000  
C08  36070056.320   187826256.078        -929.470          31.000  
C13  35782999.945   186331481.607        -574.298          32.000  
C16  36233028.896   188674877.507       -1442.385          27.000  
C32  23591694.410   122848164.464       -2119.677          31.000  
G05  23186112.089   121843787.005       -2648.009          29.000  
G13  22133788.397   116313907.677       -4011.345          29.000  
G15  20422627.010   107321650.111       -2298.645          27.000  
J01  40027792.236   210347501.128       -1136.767          30.000    40027799.731   157077690.903        -845.958          32.000  
J02  37216700.414   195574935.181       -1069.855          31.000  
J03  36087502.742   189640902.649       -1524.842          29.000  
> 2020 11 13  3  0  4.9995546  0 14
C06  36238218.004   188701912.213       -1529.965          39.000  
C08  36070024.242   187826093.659        -931.102          31.000  
C13  35782898.015   186330963.233        -573.987          32.000  
C16  36233094.551   188675225.582       -1439.769          31.000  
C32  23591891.673   122849191.443       -2118.749          31.000  
G02  23652531.293   124294796.0901      -4334.993          26.000  
G05  23186406.485   121845327.942       -2641.645          30.000  
G13  22134340.615   116316815.788       -4009.514          31.000  
G15  20422852.453   107322845.291       -2297.816          26.000  
G18  21710306.368   114088595.6751       1431.054          16.000  
G24  21256759.951   111704923.0351       1366.682          29.000  
J01  40027797.333   210347534.217       -1135.507          30.000    40027804.827   157077713.864        -846.879          29.000  
J02  37216692.020   195574898.827       -1067.039          30.000  
J03  36087584.885   189641323.882       -1525.613          27.000  
> 2020 11 13  3  0  5.9995538  0 14
C06  36238269.868   188702193.712       -1530.840          38.000  
C08  36069964.283   187825776.823        -932.545          32.000  
C13  35782768.205   186330288.826        -574.497          32.000  
C16  36233129.926   188675415.981       -1439.178          33.000  
C32  23592056.859   122850059.160       -2115.121          32.000  
G02  23653118.587   124297871.704       -4336.746          28.000  
G05  23186668.803   121846707.977       -2638.871          32.000  
G13  22134861.654   116319562.666       -4005.896          36.000  
G15  20423047.319   107323882.037       -2296.961          31.000  
G18  21709785.029   114085899.864        1436.154          16.000  
G24  21256261.396   111702297.360        1362.540          28.000  
J01  40027773.349   210347409.126       -1133.476          33.000    40027780.844   157077618.443        -845.889          31.000  
J02  37216654.246   195574706.598       -1070.001          35.000  
J03  36087634.650   189641590.466       -1528.792          30.000  
> 2020 11 13  3  0  6.9995533  0 14
C06  36238414.368   188702943.418       -1530.692          38.000  
C08  36069995.162   187825929.287        -932.384          35.000  
C13  35782727.433   186330083.243        -575.867          33.000  
C16  36233260.636   188676075.657       -1441.066          35.000  
C32  23592311.083   122851392.909       -2117.250          35.000  
G02  23653796.118   124301420.090       -4336.168          30.000  
G05  23187023.158   121848559.936       -2642.760          31.000  
G13  22135472.331   116322780.397       -4004.910          29.000  
G15  20423332.721   107325391.096       -2296.867          36.000  
G18  21709351.529   114083412.036        1435.791          18.000  
G24  21255853.379   111700150.354        1356.623          29.000  
J01  40027838.704   210347754.305       -1131.816          33.000  
J02  37216707.909   195574989.591       -1071.434          36.000  
J03  36087776.452   189642332.786       -1530.316          29.000  
> 2020 11 13  3  0  7.9995523  0 14
C06  36238408.672   188702912.701       -1530.305          38.000  
C08  36069876.144   187825302.066        -939.165          31.000  
C13  35782541.562                        -574.439          34.000  
C16  36233236.053   188675956.293       -1441.637          28.000  
C32  23592416.310   122851948.180       -2115.523          32.000  
G02  23654320.155   124304180.709       -4336.293          31.000  
G05  23187229.115   121849629.599       -2646.887          30.000  
G13  22135934.012   116325211.404       -4006.879          29.000  
G15  20423468.527   107326112.567       -2297.197          35.000  
G18  21708772.629   114080396.911        1443.229          18.000  
G24  21255296.365   111697217.052        1358.473          29.000  
J01  40027755.362   210347312.158       -1133.695          29.000  
J02  37216617.072   195574486.902       -1069.255          37.000  
J03  36087769.557   189642285.927       -1527.921          26.000  
> 2020 11 13  3  0  8.9995515  0 13
C06  36238463.234   188703194.427       -1531.401          37.000  
C08  36069815.286   187824986.621        -932.321          31.000  
C13  35782410.852   186328409.2381       -577.944          32.000  
C16  36233272.028   188676149.427       -1442.525          39.000  
C32  23592581.795   122852812.911       -2112.408          33.000  
G02  23654905.949   124307257.370       -4336.049          33.000  
G13  22136454.751   116327956.521       -4004.878          33.000  
G15  20423671.187   107327151.371       -2300.958          35.000  
G18  21708243.496   114077690.482        1450.295          19.000  
G24  21254799.908   111694599.087        1358.125          27.000  
J01  40027730.479   210347184.786       -1131.962          32.000  
J02  37216580.198   195574296.651       -1071.580          31.000  
J03  36087821.121   189642552.604       -1527.298          27.000  
> 2020 11 13  3  0  9.9995507  0 13
C06  36238519.295   188703476.293       -1529.264          38.000  
C08  36069753.829   187824669.611        -931.726          32.000  
C13  35782282.241   186327735.016        -576.149          32.000  
C16  36233307.703   188676343.352       -1442.914          39.000  
C32  23592747.881   122853676.985       -2112.891          34.000  
G02  23655489.945   124310332.511       -4334.640          30.000  
G05  23187760.348   121852398.2381      -2639.988          26.000  
G13  22136976.390   116330700.960       -4008.083          32.000  
G15  20423869.949                       -2298.481          36.000  
G24  21254303.452   111691981.319        1358.060          25.000  
J01  40027704.697   210347056.267       -1132.356          33.000  
J02  37216544.522   195574108.409       -1072.683          31.000  
J03  36087872.086   189642818.773       -1526.467          26.000  
> 2020 11 13  3  0 10.9995502  0 13
C06  36238662.596   188704226.822       -1530.089          37.000  
C08  36069784.108   187824820.385        -929.767          34.000  
C13  35782242.669   186327529.304        -579.753          34.000  
C16  36233434.815   188677005.551       -1442.717          39.000  
C32  23593003.903   122855009.338       -2113.016          33.000  
G02  23656162.979   124313878.620       -4334.170          28.000  
G05  23188114.103   121854250.186       -2639.106          27.000  
G13  22137588.566   116333920.342       -4005.707          31.000  
G15  20424158.949   107329671.8431      -2297.088          33.000  
G24  21253896.034   111689837.664        1355.650          28.000  
J01  40027769.152   210347398.257       -1129.327          32.000  
J02  37216598.185   195574393.877       -1073.504          34.000  
J03  36088016.886   189643560.036       -1528.703          27.000  
> 2020 11 13  3  0 11.9995494  0 11
C06  36238717.458   188704509.151       -1533.032          37.000  
C08  36069722.351   187824501.947        -931.386          34.000  
C13  35782112.559   186326855.746        -574.839          32.000  
C16  36233474.987   188677199.034       -1442.893          39.000  
C32  23593169.389   122855874.047       -2114.325          31.000  
G02  23656743.078   124316951.381       -4329.241          27.000  
G05  23188378.520   121855626.952       -2637.205          27.000  
G15  20424356.212   107330711.303       -2298.790          35.000  
G24  21253400.177   111687220.474        1358.947          27.000  
J01  40027742.171   210347268.523       -1131.570          31.000  
J03  36088066.951   189643828.167       -1527.067          26.000  
> 2020 11 13  3  0 12.9995484  0 14
C06  36238710.563   188704479.960       -1532.377          37.000  
C08  36069602.134   187823874.399        -934.710          30.000  
C13  35781921.591   186325870.555        -578.677          32.000  
C16  36233452.803                       -1443.011          40.000  
C32  23593275.515   122856430.265       -2119.636          30.000  
G02  23657262.018   124319703.978       -4328.703          29.000  
G05  23188582.079   121856691.766       -2644.690          31.000  
G13  22138572.785   116339098.1091      -4010.184          30.000  
G15  20424492.318   107331439.228       -2306.989          34.000  
G18  21706162.037   114066651.0621       1439.056          20.000  
G24  21252841.664   111684285.434        1359.653          28.000  
J01  40027657.629   210346823.259       -1132.466          30.000  
J02  37216469.574   195573702.7901      -1071.111          31.000  
J03  36088057.658   189643779.144       -1524.567          26.000  
> 2020 11 13  3  0 13.9995476  0 13
C06  36238766.624   188704763.268       -1531.137          36.000  
C08  36069541.576   187823560.365        -934.697          30.000  
C13  35781792.980   186325200.715        -580.321          31.000  
C16  36233487.579                       -1444.930          39.000  
C32  23593442.799   122857302.683       -2122.475          31.000  
G05  23188844.097   121858076.900       -2647.005          29.000  
G13  22139096.223   116341849.462       -4013.863          30.000  
G15  20424690.781   107332486.203       -2310.254          25.000  
G18  21705642.796   114063951.979        1439.591          19.000  
G24  21252343.409   111681664.718        1361.324          31.000  
J01  40027635.145   210346698.978       -1137.789          29.000  
J02  37216435.098   195573513.612       -1070.287          31.000  
J03  36088108.322   189644042.555       -1522.692          28.000  
> 2020 11 13  3  0 14.9995469  0 12
C06  36238850.866   188705204.596       -1534.047          32.000  
C08  36069510.997   187823402.187        -934.964          30.000  
C13  35781695.548   186324687.927        -580.621          30.000  
C16  36233553.533   188677640.6391      -1442.650          35.000  
C32  23593641.262   122858335.388       -2128.974          33.000  
G05  23189137.294   121859622.490       -2651.419          29.000  
G13  22139650.539   116344763.716       -4020.523          30.000  
G15  20424919.522   107333686.351       -2300.815          25.000  
G24  21251874.833   111679200.272        1361.937          29.000  
J01  40027640.541   210346736.626       -1142.335          34.000  
J02  37216428.203   195573476.132       -1063.297          28.000  
J03  36088190.166   189644460.544       -1518.099          27.000  
> 2020 11 13  3  0 15.9995464  0 12
C06  36238992.967   188705957.902       -1534.048          36.000  
C08  36069539.477   187823556.685        -935.157          33.000  
C13  35781661.071                        -577.631          34.000  
C16  36233681.244   188678303.616       -1446.351          36.000  
G02  23659142.317   124329533.9031      -4316.235          28.000  
G05  23189492.548   121861488.842       -2657.269          32.000  
G13  22140269.610   116348001.183       -4028.548          28.000  
G15  20425208.522   107335203.007       -2307.243          29.000  
G18  21704723.033   114059183.2381       1444.688          19.000  
G24  21251465.916   111677049.690        1363.306          30.000  
J01  40027708.294   210347093.540       -1148.392          30.000  
J03  36088330.768   189645458.183       -1513.472          28.000  
> 2020 11 13  3  0 16.9995453  0 12
C06  36238956.393   188705772.966       -1531.987          33.000  
C08  36069388.382   187822775.130        -936.320          32.000  
C13  35781443.422   186323363.5741       -583.538          30.000  
C16  36233629.380   188678030.902       -1443.319          28.000  
G02  23659632.777   124332115.741       -4312.958          25.000  
G05  23189668.826   121862416.599       -2665.687          33.000  
G13  22140709.406   116350300.045       -4034.605          30.000  
G18  21704110.257   114056005.608        1444.162          20.000  
G24  21250876.524   111673947.648        1372.116          29.000  
J01  40027598.570   210346510.118       -1151.575          30.000  
J02  37216348.158   195573074.9641      -1056.381          33.000  
J03  36088286.999   189645235.674       -1508.045          32.000  
> 2020 11 13  3  0 17.9995446  0 13
C06  36239040.334   188706213.557       -1534.761          32.000  
C08  36069358.703   187822618.922        -936.710          32.000  
C13  35781344.491   186322855.501        -586.323          31.000  
C16  36233697.133   188678380.853       -1442.767          27.000  
G02  23660242.255   124335320.413       -4306.427          26.000  
G05  23189966.220   121863978.479       -2664.730          35.000  
G13  22141268.519   116353237.123       -4044.692          31.000  
G15  20425550.286   107336992.8231      -2318.482          35.000  
G18  21703615.899   114053460.597        1439.336          26.000  
G24  21250406.150   111671467.420        1380.498          29.000  
J01  40027608.163   210346560.287       -1154.351          31.000  
J02  37216342.462                       -1057.813          37.000  
J03  36088363.146   189645637.745       -1502.227          32.000  
> 2020 11 13  3  0 18.9995438  0 12
C06  36239095.196   188706500.796       -1536.237          34.000  
C08  36069299.943   187822306.796        -936.984          31.000  
C13  35781216.779   186322194.169        -588.948          33.000  
C16  36233733.708   188678573.771       -1441.952          29.000  
G02  23660822.354   124338364.735       -4303.932          27.000  
G05  23190232.136   121865385.707       -2668.004          34.000  
G13  22141799.751   116356023.324       -4048.656          32.000  
G15  20425756.243   107338051.518       -2320.797          34.000  
G18  21703093.661   114050763.219        1434.367          34.000  
G24  21249905.796   111668825.022        1380.654          29.000  
J02  37216301.391   195572992.3841      -1053.935          39.000  
J03  36088406.916   189645875.728       -1498.110          29.000  
> 2020 11 13  3  0 19.9995433  0 14
C01  37489890.789   195219543.2831      -1197.928          30.000  
C06  36239239.696   188707256.000       -1535.328          35.000  
C08  36069331.721   187822463.543        -937.611          31.000  
C13  35781178.406   186322002.707        -590.467          33.000  
C16  36233860.221   188679234.448       -1440.645          30.000  
G02  23661493.289   124341881.545       -4304.544          30.000  
G05  23190589.789   121867266.007       -2667.704          36.000  
G13  22142419.122   116359282.164       -4045.426          30.000  
G15  20426047.042   107339585.127       -2320.329          33.000  
G18  21702667.356   114048542.702        1432.678          36.000  
G24  21249494.781   111666657.133        1378.990          29.000  
J01  40027663.325   210346823.8781      -1156.770          33.000  
J02  37216348.158   195573252.147       -1048.455          33.000  
J03  36088540.923   189646584.690       -1497.063          30.000  
> 2020 11 13  3  0 20.9995425  0 15
C01  37489880.896   195219491.874       -1197.289          30.000  
C04  38357741.988   199738875.2721      -1209.686          30.000  
C06  36239297.257   188707542.447       -1536.337          35.000  
C08  36069272.962   187822153.185        -938.809          34.000  
C13  35781051.294   186321343.635        -590.121          33.000  
C16  36233898.294   188679426.738       -1441.642          28.000  
G02  23662073.387   124344926.029       -4304.407          30.000  
G05  23190855.705   121868674.128       -2669.962          34.000  
G13  22142950.354   116362067.067       -4045.568          31.000  
G18  21702155.311   114045851.312        1429.559          36.000  
G24  21248994.427   111664018.404        1376.897          31.000  
J01  40027644.738   210346720.952       -1158.521          32.000  
J02  37216308.885   195573041.518       -1051.432          32.000  
J03  36088584.693   189646821.436       -1496.797          30.000  
R23  20929620.125   111959353.8651       1308.314          42.000  
> 2020 11 13  3  0 21.9995415  0 16
C04  38357677.532   199738523.821       -1209.815          34.000  
C06  36239290.661                       -1534.261          34.000  
C08  36069154.244   187821530.605        -939.028          26.000  
C13  35780866.921   186320373.040        -590.555          29.000  
C16  36233876.110   188679308.076       -1443.127          30.000  
C20  23527764.268   122515241.7241       -693.495          38.000  
C23  24891798.367   129618125.8831      -1150.217          30.000  
G05  23191067.658   121869769.364       -2671.225          34.000  
G13  22143420.429   116364538.176       -4047.419          34.000  
G15  20426388.805   107341392.1381      -2323.106          35.000  
G18  21701585.105                        1427.376          34.000  
G24  21248431.417   111661066.103        1378.641          32.000  
J01  40027566.792   210346304.348       -1159.269          29.000  
J02  37216209.354   195572516.047       -1049.762          30.000  
J03  36088568.504   189646741.975       -1495.086          29.000  
R23  20929076.902   111956443.106        1304.691          41.000  
> 2020 11 13  3  0 22.9995407  0 15
C04  38357673.036   199738484.588       -1209.701          37.000  
C06  36239352.718   188707783.3311      -1537.282          34.000  
C08  36069096.084   187821220.885        -939.987          32.000  
C16  36233913.883   188679502.710       -1443.915          34.000  
C20  23527653.944                        -693.402          38.000  
C23  24891782.178   129618026.403       -1149.834          29.000  
G05  23191335.672                       -2672.356          37.000  
G13  22143949.563   116367326.678       -4049.830          36.000  
G15  20426591.765   107342455.481       -2325.089          30.000  
G18  21701077.856   114039911.7681       1425.868          36.000  
G24  21247929.265                        1375.985          36.000  
J01  40027546.406   210346202.972       -1158.655          34.000  
J02  37216167.683   195572305.104       -1048.710          31.000  
J03  36088610.775   189646976.058       -1493.908          31.000  
R23  20928590.039   111953856.133        1303.686          40.000  
> 2020 11 13  3  0 23.9995400  0 15
C04  38357700.916   199738602.071       -1211.517          35.000  
C06  36239439.058   188708227.345       -1538.044          37.000  
C08  36069068.204   187821067.970        -938.627          32.000  
C16  36233981.936   188679853.896       -1444.246          34.000  
C20  23527578.696   122514268.2801       -693.501          38.000  
C23  24891795.369   129618083.541       -1150.082          32.000  
G05  23191632.167   121872860.6841      -2672.774          37.000  
G13  22144512.873   116370274.286       -4049.893          38.000  
G15  20426824.404   107343678.188       -2326.235          29.000  
G18  21700596.090   114037382.121        1425.951          41.000  
G24  21247457.391   111656142.7051       1376.203          38.000  
J01  40027556.299   210346258.514       -1158.213          33.000  
J02  37216154.492   195572251.138       -1048.827          29.000  
J03  36088683.924   189647366.618       -1493.045          30.000  
R23  20928136.453   111951429.622        1303.741          41.000  
> 2020 11 13  3  0 24.9995395  0 16
C04  38357784.259   199739033.568       -1212.229          35.000  
C06  36239584.458   188708983.633       -1537.361          37.000  
C08  36069102.980                        -940.280          32.000  
C13  35780595.909   186319027.7321       -593.503          28.000  
C16  36234108.449   188680517.714       -1443.905          34.000  
C20  23527561.908   122514181.401        -693.335          38.000  
C23  24891867.918   129618453.163       -1148.798          33.000  
G05  23191988.920   121874745.770       -2672.855          36.000  
G13  22145136.141                       -4050.419          38.000  
G15  20427119.400   107345218.051       -2328.536          28.000  
G18  21700175.781   114035167.920        1426.479          41.000  
G24  21247045.476   111653979.130        1376.271          38.000  
J01  40027624.052   210346629.582       -1158.313          34.000    40027630.948   157077024.0251       -865.568          33.000  
J02  37216202.759   195572512.101       -1048.832          29.000  
J03  36088817.631   189648072.130       -1493.871          31.000  
R23  20927745.523   111949324.576        1302.242          40.000  
> 2020 11 13  3  0 25.9995387  0 17
C04  38357777.064   199738997.023       -1212.513          35.000  
C06  36239638.420   188709271.657       -1536.913          37.000  
C08  36069043.321   187820974.4541       -940.507          33.000  
C13  35780469.097   186318372.044        -593.029          29.000  
C16  36234145.623                       -1440.287          34.000  
C20  23527455.182   122513626.197        -693.456          39.000  
C23  24891845.434                       -1151.739          32.000  
G02  23665050.626   124360471.2811      -4307.471          30.000  
G05  23192253.037   121876158.266       -2671.862          37.000  
G13  22145668.273                       -4050.095          38.000  
G15  20427322.659   107346286.291       -2328.485          29.000  
G18  21699662.836   114032481.347        1425.693          41.000  
G24  21246542.725                        1375.468          37.000  
J01  40027605.166                       -1158.001          35.000    40027611.161   157076947.733        -863.822          34.000  
J02  37216161.687   195572300.676       -1049.115          29.000  
J03  36088862.301   189648306.154       -1494.694          32.000  
R23  20927260.159   111946739.395        1301.714          41.000  
> 2020 11 13  3  0 26.9995377  0 17
C04  38357710.210   199738648.571       -1212.830          35.000  
C06  36239634.223   188709247.503       -1537.769          37.000  
C08  36068919.207                        -939.271          33.000  
C13  35780282.926   186317403.772        -592.026          28.000  
C16  36234120.740                       -1444.319          34.000  
C20  23527289.696   122512758.750        -694.771          39.000  
C23  24891767.788                       -1148.324          30.000  
G02  23665573.764   124363203.510       -4308.643          31.000  
G05  23192462.892   121877255.774       -2673.437          36.000  
G13  22146136.848   116378740.9861      -4051.932          37.000  
G15  20427464.461   107347039.554       -2329.401          27.000  
G18  21699092.031   114029479.975        1425.701          41.000  
G24  21245983.012   111648392.2451       1374.168          37.000  
J01  40027530.517   210346066.9161      -1156.377          35.000    40027531.417                        -865.510          34.000  
J02  37216059.458   195571774.553       -1049.057          29.000  
J03  36088846.112   189648226.257       -1494.218          31.000  
R23  20926715.137   111943833.750        1301.558          40.000  
> 2020 11 13  3  0 27.9995369  0 22
C04  38357704.514   199738612.575       -1212.946          36.000  
C06  36239689.085   188709535.642       -1537.797          37.000  
C08  36068863.745   187820044.0641       -940.359          32.000  
C09  36525051.333   190195526.1621      -1074.386          24.000  
C13  35780155.514   186316747.057        -592.279          28.000  
C16  36234159.713   188680783.8271      -1444.359          34.000  
C20  23527183.570   122512203.553        -694.340          38.000  
C23  24891750.400   129617862.7521      -1152.349          29.000  
C27  24914904.570   129738445.7671      -4377.662          29.000  
C30  22526351.032   117300620.1781      -2821.169          30.000  
C32  23596016.218   122870648.2361      -2151.252          30.000  
C37  24166163.313   125839553.7711        905.037          35.000  
G02  23666157.760   124366251.984       -4309.027          31.000  
G05  23192733.005   121878668.386       -2674.041          37.000  
G13  22146667.781   116381531.399       -4051.687          38.000  
G15  20427668.319   107348108.236       -2329.035          29.000  
G18  21698581.485   114026793.976        1425.718          41.000  
G24  21245482.359   111645757.203        1373.968          37.000  
J01  40027508.932   210345964.223       -1157.453          34.000    40027512.230   157076553.4161       -864.539          34.000  
J02  37216018.087   195571563.495       -1049.544          29.000  
J03  36088890.181                       -1495.284          32.000  
R23  20926233.370   111941249.701        1300.952          41.000  
> 2020 11 13  3  0 28.9995364  0 23
C04  38357787.556   199739044.901       -1212.946          36.000  
C06  36239833.885   188710292.035       -1537.598          37.000  
C08  36068893.425   187820203.628        -940.167          33.000  
C09  36525107.095   190195818.281       -1072.255          24.000  
C13  35780118.639   186316558.366        -591.459          28.000  
C16  36234289.823   188681447.535       -1444.576          34.000  
C20  23527167.081   122512116.573        -693.409          38.000  
C23  24891825.648   129618233.638       -1152.617          30.000  
C27  24915598.890   129742043.100       -4377.750          30.000  
C30  22526744.060   117302660.696       -2821.151          30.000  
C32  23596276.738   122872020.332       -2153.343          30.000  
C37  24165835.640   125837868.774         904.955          34.000  
G02  23666831.094   124370036.636       -4309.409          31.000  
G05  23193090.657   121880553.609       -2673.316          36.000  
G13  22147288.351   116384794.544       -4051.603          37.000  
G15  20427961.816   107349649.263       -2329.089          28.000  
G18  21698158.777   114024580.785        1425.150          41.000  
G20  23548998.568   123750822.4641        993.574          30.000  
G24  21245069.844   111643595.090        1373.978          38.000  
J01  40027578.784   210346333.873       -1157.617          33.000    40027583.281   157076829.427        -864.787          33.000  
J02  37216066.953   195571824.629       -1047.812          29.000  
J03  36089025.987   189649104.8461      -1494.271          32.000  
R23  20925838.843   111939147.005        1300.232          40.000  
> 2020 11 13  3  0 29.9995356  0 23
C04  38357780.661   199739008.699       -1212.694          36.000  
C06  36239890.846   188710580.168       -1537.673          36.000  
C08  36068829.569   187819894.964        -940.713          33.000  
C09  36525075.616   190195643.010       -1074.506          24.000  
C13  35779992.726   186315900.638        -591.202          29.000  
C16  36234326.398   188681643.013       -1443.441          34.000  
C20  23527063.053   122511561.293        -693.680          39.000  
C23  24891807.061   129618136.593       -1151.376          30.000  
C27  24916202.372   129745171.748       -4376.459          29.000  
C30  22527046.250   117304233.661       -2822.558          30.000  
C32  23596447.619   122872924.169       -2152.436          31.000  
C37  24165422.526   125835715.651         904.213          34.000  
G02  23667406.995   124373085.865       -4309.365          31.000  
G05  23193356.573   121881966.284       -2673.751          36.000  
G13  22147819.584   116387585.165       -4051.693          37.000  
G15  20428165.675   107350717.864       -2328.800          29.000  
G18  21697647.931   114021895.271        1424.977          41.000  
G20  23548568.365   123748568.485         993.728          29.000  
G24  21244568.891   111640960.749        1373.496          37.000  
J01  40027557.798   210346230.741       -1157.596          33.000    40027563.494   157076752.485        -864.081          34.000  
J02  37216024.982   195571612.510       -1049.006          30.000  
J03  36089075.453   189649339.438       -1496.164          31.000  
R23  20925355.578   111936563.985        1299.549          40.000  
> 2020 11 13  3  0 30.9995348  0 23
C04  38357774.066   199738972.309       -1212.568          35.000  
C06  36239945.408   188710868.328       -1536.791          37.000  
C08  36068774.407   187819586.379        -940.800          33.000  
C09  36525041.440   190195470.303       -1077.164          23.000  
C13  35779865.914   186315243.080        -591.476          28.000  
C16  36234367.170   188681838.509       -1443.496          34.000  
C20  23526954.828   122511005.955        -692.520          39.000  
C23  24891786.075   129618039.984       -1153.768          31.000  
C27  24916805.255   129748298.987       -4375.882          29.000  
C30  22527349.341   117305807.072       -2822.087          30.000  
C32  23596622.098   122873827.667       -2152.911          31.000  
C37  24165011.211   125833562.672         904.334          35.000  
G02  23667981.098   124376133.917       -4307.914          30.000  
G05  23193628.485   121883379.014       -2673.961          36.000  
G13  22148349.317   116390375.909       -4051.100          39.000  
G15  20428369.834   107351786.222       -2328.391          30.000  
G18  21697137.085   114019210.019        1424.133          42.000  
G20  23548136.364   123746313.846         994.010          30.000  
G24  21244064.040   111638326.726        1372.636          37.000    21244067.638    83366283.6851       1024.980          33.000  
J01  40027537.412   210346127.485       -1157.092          33.000    40027543.408   157076675.354        -864.164          33.000  
J02                                                                  37216021.984   146043663.1991       -785.270          26.000  
J03  36089116.525   189649573.876       -1495.839          31.000  
R23  20924877.109   111933981.571        1299.354          41.000  
> 2020 11 13  3  0 31.9995338  0 22
C04  38357706.612   199738623.710       -1212.568          35.000  
C06  36239942.410   188710844.492       -1536.632          37.000  
C08  36068655.090   187818965.940        -939.913          32.000  
C09  36524949.404   190194987.775       -1078.861          25.000  
C13  35779679.743   186314274.387        -593.323          28.000  
C16  36234338.989   188681722.025       -1443.737          33.000  
C20  23526783.946   122510138.578        -694.099          38.000  
C23  24891706.030   129617631.716       -1153.151          30.000  
C27  24917347.879   129751114.376       -4376.706          27.000  
C30  22527590.973   117307068.321       -2823.266          31.000  
C32  23596734.820   122874419.314       -2153.357          30.000  
C37  24164534.541   125831097.828         903.642          34.000  
G02  23668498.240   124378866.343       -4308.143          29.000  
G05  23193834.443   121884476.870       -2673.044          37.000  
G13  22148819.991   116392851.865       -4050.551          37.000  
G15  20428511.935   107352539.110       -2328.560          29.000  
G18  21696566.879   114016210.115        1423.806          41.000  
G24  21243504.628   111635378.259        1371.935          36.000    21243506.427    83364081.880        1025.969          33.000  
J01  40027458.567   210345709.134       -1157.548          33.000    40027464.563   157076362.976        -865.312          33.000  
J02                                                                  37215923.053   146043271.891        -784.375          27.000  
J03  36089100.636   189649493.496       -1495.280          31.000  
R23  20924337.483   111931079.622        1297.629          41.000  
> 2020 11 13  3  0 32.9995331  0 21
C04  38357729.097   199738743.500       -1212.689          35.000  
C06  36240026.652   188711289.171       -1537.582          37.000  
C08  36068625.410   187818813.960        -941.086          33.000  
C09  36524947.305   190194972.957       -1078.874          24.000  
C13  35779583.210   186313775.239        -594.142          28.000  
C16  36234409.740   188682074.080       -1444.181          33.000  
C20  23526709.298   122509739.608        -693.858          38.000  
C23  24891713.226   129617692.160       -1153.610          30.000  
C27  24917979.242   129754398.932       -4376.827          28.000  
C30  22527922.544   117308799.047       -2823.972          30.000  
C32  23596935.681   122875479.240       -2152.332          31.000  
C37  24164146.909   125829101.572         903.497          34.000  
G05  23194137.233   121886047.475       -2674.099          37.000  
G13  22149380.003   116395800.705       -4051.444          38.000  
G18  21696084.813   114013683.235        1423.570          42.000  
G20  23547241.484   123741647.7421        994.030          29.000  
G24  21243032.155   111632902.825        1371.941          38.000    21243035.752    83362233.381        1025.298          34.000  
J01  40027472.957   210345763.340       -1156.097          33.000    40027474.156   157076403.439        -864.690          34.000  
J02                                                                  37215910.461   146043230.915        -781.362          27.000  
J03  36089177.982   189649886.005       -1495.764          31.000  
R23  20923884.196   111928659.446        1297.549          41.000  
> 2020 11 13  3  0 33.9995325  0 21
C04  38357782.160   199739019.615       -1212.973          34.000  
C06  36240143.271   188711890.044       -1538.062          37.000  
C08  36068628.408   187818818.296        -939.448          33.000  
C09  36524972.488   190195115.503       -1079.251          23.000  
C13  35779517.855   186313432.533        -593.386          28.000  
C16  36234508.072   188682582.336       -1446.475          34.000  
C20  23526662.830   122509496.809        -693.999          39.000  
C23  24891748.301   129617909.299       -1153.548          29.000  
C27  24918640.284   129757839.263       -4376.943          28.000  
C30  22528284.093   117310686.679       -2824.597          30.000  
C32  23597170.119   122876695.348       -2151.207          31.000  
C37  24163778.164   125827261.653         901.873          33.000  
G02  23669749.573   124385436.6431      -4310.038          30.000  
G05  23194463.707   121887775.754       -2673.141          38.000  
G13  22149970.295   116398907.239       -4051.983          38.000  
G18  21695635.424   114011314.228        1424.262          41.000  
G20  23546871.240   123739708.691         993.084          29.000  
G24  21242593.558   111630585.492        1371.703          37.000    21242595.657    83360502.936        1023.321          34.000  
J01  40027514.928   210345974.956       -1155.594          34.000    40027514.928   157076561.543        -863.435          34.000  
J02                                                                  37215927.849   146043307.781        -782.711          26.000  
R23  20923465.986   111926400.565        1296.226          41.000  
> 2020 11 13  3  0 34.9995318  0 21
C04  38357804.944   199739139.826       -1213.098          33.000  
C06  36240226.014   188712334.646       -1537.132          37.000  
C08  36068597.829   187818666.496        -940.583          31.000  
C13  35779424.920   186312932.668        -593.166          30.000  
C16  36234573.427   188682934.503       -1444.559          34.000  
C20  23526581.287   122509097.867        -693.559          40.000  
C23  24891764.790   129617970.583       -1153.901          31.000  
C27  24919271.347   129761124.392       -4380.344          28.000  
C30  22528615.964   117312418.437       -2823.882          31.000  
C32  23597370.680   122877754.854       -2152.988          32.000  
G02  23670359.051   124388644.299       -4310.912          31.000  
G05  23194767.696   121889346.456       -2673.942          40.000  
G13  22150531.806   116401856.070       -4051.905          36.000  
G15  20429241.930   107356376.2921      -2329.961          36.000  
G18  21695147.662   114008787.728        1422.935          40.000  
G20  23546472.216   123737613.077         992.206          30.000  
G24  21242115.090   111628111.234        1370.868          35.000    21242122.884    83358655.231        1023.967          33.000  
J01                                                                  40027524.821   157076601.673        -863.592          34.000  
J02                                                                  37215916.157   146043266.981        -779.175          25.000  
J03  36089373.147   189650828.8661      -1496.879          36.000  
R23  20923013.299   111923981.818        1295.491          42.000  
> 2020 11 13  3  0 35.9995310  0 18
C04  38357798.948   199739103.848       -1214.684          32.000  
C06  36240279.377   188712623.510       -1538.867          33.000  
C08  36068535.472   187818358.968        -942.073          31.000  
C13  35779303.504   186312276.986        -592.884          31.000  
C16  36234619.895   188683130.877       -1445.050          33.000  
C20  23526476.359   122508542.880        -694.186          41.000  
C23  24891741.706   129617876.257       -1155.682          36.000  
C30  22528916.955   117313994.674       -2825.438          26.000  
G02  23670937.951   124391694.977       -4311.350          34.000  
G05  23195038.709   121890759.506       -2671.578          39.000  
G13  22151065.137   116404647.401       -4051.585          34.000  
G15  20429441.292                       -2330.584          35.000  
G18  21694636.815   114006104.184        1422.145          36.000  
G24  21241617.434   111625480.085        1371.196          35.000    21241623.730    83356690.267        1023.610          33.000  
J01  40027495.142   210345924.8531      -1155.368          38.000    40027503.836   157076524.058        -864.139          32.000  
J02                                                                  37215873.287   146043104.969        -779.933          19.000  
J03  36089412.420   189651064.330       -1497.994          30.000  
R23  20922521.340   111921403.508        1295.211          40.000  
> 2020 11 13  3  0 36.9995300  0 19
C06  36240268.584   188712600.207       -1537.020          33.000  
C08  36068416.155   187817739.380        -941.132          32.000  
C09  36524841.179   190194444.4121      -1076.636          22.000  
C13  35779120.630   186311308.689        -592.640          31.000  
C16  36234592.314   188683015.142       -1446.523          37.000  
C20  23526312.673   122507675.592        -693.746          42.000  
C23  24891660.762   129617468.799       -1150.568          33.000  
C30  22529162.485   117315259.820       -2827.170          30.000  
C32  23597667.775   122879250.3741      -2153.333          27.000  
G02  23671463.187   124394430.686       -4310.570          35.000  
G05  23195250.962   121891857.716       -2674.263          36.000  
G13  22151531.614   116407123.867       -4052.498          40.000  
G15  20429587.891   107358193.5531      -2330.429          36.000  
G18  21694060.015   114003106.116        1420.747          38.000  
G20  23545559.948   123732792.6221        992.469          26.000  
G24  21241059.820   111622534.228        1369.632          36.000    21241062.219    83354490.507        1023.156          34.000  
J01  40027415.697   210345505.758       -1155.138          35.000    40027424.990   157076211.159        -864.537          30.000  
J03  36089396.231   189650986.347       -1497.053          34.000  
R23  20921975.118   111918504.687        1294.482          41.000  
> 2020 11 13  3  0 37.9995295  0 17
C06  36240419.979   188713357.710       -1537.294          35.000  
C08  36068445.835   187817900.539        -940.213          30.000  
C09  36524900.538   190194741.041       -1077.090          24.000  
C13  35779085.854   186311120.806        -593.041          33.000  
C16  36234722.124   188683680.203       -1445.491          34.000  
C20  23526298.582   122507589.146        -694.725          39.000  
C30  22529554.614   117317305.978       -2826.139          30.000  
C32  23597927.395   122880622.575       -2152.786          30.000  
G02  23672134.722   124397954.772       -4311.873          30.000  
G05  23195605.017   121893743.734       -2674.315          37.000  
G13  22152152.184   116410388.574       -4051.137          36.000  
G18  21693639.106   114000896.246        1422.025          31.000  
G20  23545216.086   123731012.150         992.600          27.000  
G24  21240655.700   111620376.579        1368.872          38.000    21240653.302    83352879.451        1022.791          32.000  
J01  40027490.045   210345874.472       -1156.677          31.000    40027494.842   157076486.492        -862.972          32.000  
J03  36089529.938   189651695.153       -1496.064          34.000  
R23  20921591.084   111916408.817        1293.447          43.000  
> 2020 11 13  3  0 38.9995287  0 18
C06  36240475.441   188713647.092       -1536.557          36.000  
C08  36068386.476   187817593.576        -941.587          36.000  
C13  35778963.539   186310465.023        -592.357          35.000  
C16  36234755.101   188683876.993       -1446.064          31.000  
C20  23526188.259   122507034.205        -694.420          37.000  
C23  24891718.022   129617750.6401      -1156.384          35.000  
C30  22529853.507   117318884.173       -2827.778          27.000  
C32  23598099.476   122881526.129       -2151.758          37.000  
C37  24161778.849   125816819.1631        901.498          26.000  
G02  23672714.521   124401006.591       -4312.522          30.000  
G05  23195877.528   121895157.719       -2675.862          36.000  
G13  22152684.016   116413178.260       -4046.764          31.000  
G15  20430093.341   107360807.6941      -2332.002          32.000  
G20  23544785.584   123728758.857         992.865          29.000  
G24  21240152.648   111617747.742        1368.940          40.000    21240153.847    83350916.223        1019.666          33.000  
J01  40027471.758   210345770.015       -1155.504          35.000    40027473.856   157076408.446        -861.878          33.000  
J03  36089576.106   189651932.174       -1498.183          32.000  
R23  20921108.418   111913832.380        1293.735          40.000  
> 2020 11 13  3  0 39.9995279  0 21
C06  36240532.401   188713935.889       -1538.182          37.000  
C08  36068331.614   187817286.442        -942.011          33.000  
C09  36524837.581   190194400.5781      -1080.758          20.000  
C13  35778837.626   186309809.525        -592.922          32.000  
C16  36234797.372   188684073.699       -1445.341          34.000  
C20  23526080.933   122506476.942        -688.241          38.000  
C23  24891699.435   129617657.842       -1155.131          29.000  
C27  24922279.465   129776933.5931      -4380.910          29.000  
C30  22530158.396   117320463.886       -2828.209          28.000  
C32  23598269.758   122882427.709       -2149.269          34.000  
C37  24161365.735   125814669.707         899.283          33.000  
G02  23673294.619   124404059.638       -4315.133          30.000  
G05  23196145.842   121896571.756       -2672.962          36.000  
G13  22153213.150   116415969.680       -4050.142          33.000  
G15  20430293.602   107361876.611       -2330.913          35.000  
G18  21692627.307   113995530.5681       1423.548          33.000  
G20  23544354.782   123726505.510         993.063          27.000  
G24  21239649.597   111615122.038        1361.784          37.000    21239654.393    83348955.774        1017.673          33.000  
J01  40027450.173   210345662.140       -1149.801          35.000    40027453.770   157076328.014        -858.063          33.000  
J03  36089620.176                       -1500.709          33.000  
R23  20920629.649   111911254.751        1295.536          40.000  
> 2020 11 13  3  0 40.9995269  0 19
C04  38357730.596   199738778.1851      -1216.370          30.000  
C06  36240527.005   188713912.554       -1537.651          38.000  
C08  36068213.495   187816666.825        -939.505          33.000  
C09  36524749.442   190193920.390       -1080.527          20.000  
C13  35778649.956   186308840.566        -589.744          32.000  
C16  36234774.288   188683958.822       -1446.162          38.000  
C20  23525914.548                        -693.339          38.000  
C23  24891620.889   129617251.468       -1153.844          33.000  
C27  24922815.494   129779755.729       -4386.151          29.000  
C32  23598381.580   122883014.484       -2146.521          33.000  
C37  24160892.962   125812211.145         894.715          38.000  
G02  23673808.763   124406800.771       -4320.287          27.000  
G15  20430434.804   107362628.786       -2328.104          37.000  
G18  21692056.502   113992530.586        1425.203          34.000  
G20  23543865.521   123723937.144         993.171          28.000  
G24                                                                  21239093.781    83346761.278        1018.376          27.000  
J01  40027368.330   210345240.639       -1154.686          32.000    40027373.426   157076011.953        -860.757          31.000  
J03  36089603.387   189652156.8441      -1498.768          31.000  
R23  20920089.423   111908354.407        1296.591          41.000  
> 2020 11 13  3  0 41.9995261  0 21
C04  38357721.602   199738744.799       -1215.077          34.000  
C06  36240582.467   188714201.072       -1536.230          38.000  
C08  36068152.638   187816359.965        -942.113          34.000  
C13  35778522.244   186308181.973        -590.345          33.000  
C16  36234811.162   188684156.346       -1446.963          41.000  
C20  23525808.422   122505052.8201       -687.065          38.000  
C23  24891602.302   129617156.090       -1154.419          32.000  
C27  24923415.079   129782894.550       -4390.799          31.000  
C30  22530710.014   117323316.1261      -2836.437          24.000  
C32  23598547.965   122883908.237       -2141.593          33.000  
C37  24160481.347   125810065.647         897.321          31.000  
G02  23674392.759   124409861.711       -4323.212          26.000  
G05  23196621.613   121899077.9021      -2670.741          31.000  
G13  22154211.758   116421224.2471      -4039.129          35.000  
G15  20430636.565   107363693.748       -2324.654          38.000  
G18  21691546.255   113989844.840        1425.951          34.000  
G20  23543437.118   123721683.503         992.649          27.000  
G24  21238593.128   111609557.8801       1361.536          30.000    21238594.327    83344802.140        1016.169          29.000  
J01  40027346.445   210345131.510       -1149.164          31.000    40027351.541   157075929.529        -856.254          31.000  
J03  36089648.656   189652395.838       -1501.398          27.000  
R23  20919607.057   111905773.623        1298.603          40.000  
> 2020 11 13  3  0 42.9995256  0 22
C04  38357803.145   199739178.543       -1213.892          35.000  
C06  36240727.566   188714957.716       -1536.792          38.000  
C08  36068182.317   187816520.645        -940.804          34.000  
C09  36524779.421   190194048.8671      -1079.630          18.000  
C13  35778485.370   186307991.407        -587.992          33.000  
C16  36234938.274   188684822.495       -1446.670          40.000  
C20  23525790.734   122504959.477        -686.155          38.000  
C23  24891672.154   129617530.174       -1154.125          28.000  
C27  24924107.300   129786505.245       -4392.166          32.000  
C30  22531107.839   117325374.322       -2840.894          26.000  
C32  23598807.885   122885267.932       -2137.833          34.000  
C37  24160159.670   125808388.742         894.629          31.000  
G02  23675063.095   124413399.554       -4328.422          27.000  
G05  23196977.766   121900960.939       -2670.813          29.000  
G15  20430929.462   107365230.010       -2323.023          37.000  
G18  21691124.447   113987632.438        1423.932          35.000  
G20  23543097.453   123719902.333         995.250          27.000  
G24  21238185.110   111607410.417        1358.512          32.000    21238186.310    83343200.594        1011.501          28.000  
J01  40027410.300   210345489.215       -1143.754          35.000    40027418.695   157076196.658        -853.761          34.000  
J02  37215645.445   195569521.8131      -1057.494          33.000  
J03  36089785.661   189653113.001       -1508.862          27.000  
R23  20919210.132   111903672.534        1300.169          39.000  
> 2020 11 13  3  0 43.9995249  0 20
C04  38357824.131   199739299.236       -1212.963          32.000  
C06  36240812.707   188715401.933       -1537.942          37.000  
C08  36068151.738   187816368.561        -940.615          35.000  
C09  36524775.824   190194039.709       -1085.690          18.000  
C13  35778391.535                        -588.811          34.000  
C16  36235005.428   188685176.599       -1448.079          40.000  
C20  23525712.488   122504553.511        -685.712          34.000  
C27  24924739.862   129789806.021       -4396.328          28.000  
C32  23599008.446   122886310.515       -2133.657          34.000  
C37  24159780.132   125806403.674         888.739          32.000  
G02  23675675.271   124416627.009       -4332.437          25.000  
G05  23197276.360   121902530.453       -2672.447          27.000  
G13  22155389.943   116427408.9091      -4032.937          35.000  
G15  20431160.902   107366448.896       -2320.753          35.000  
G18  21690641.781   113985099.948        1430.779          33.000  
G24  21237719.533   111604951.991        1353.909          30.000    21237717.734    83341366.161        1011.104          29.000  
J01  40027415.997   210345527.884       -1142.153          32.000    40027426.189   157076226.347        -853.174          34.000  
J02  37215637.051   195569478.468       -1060.496          31.000  
J03  36089863.308   189653522.176       -1515.296          30.000  
R23  20918756.246   111901250.275        1298.559          38.000  
> 2020 11 13  3  0 44.9995241  0 22
C04  38357815.437   199739262.819       -1212.010          32.000  
C06  36240866.670   188715690.272       -1536.650          37.000  
C08  36068093.279                        -941.221          36.000  
C09  36524742.847   190193877.796       -1088.718          19.000  
C13  35778263.524                        -586.070          33.000  
C16  36235045.600   188685375.174       -1447.978          41.000  
C20  23525603.663                        -688.664          37.000  
C23  24891666.758   129617495.5501      -1151.613          24.000  
C27  24925345.143   129792955.874       -4401.426          29.000  
C30  22531755.990   117328713.6631      -2839.826          20.000  
C32  23599181.127                       -2136.119          35.000  
C37  24159367.318   125804267.342         887.673          32.000  
G02  23676260.466   124419700.820       -4335.691          29.000  
G05  23197543.775   121903941.791       -2668.438          27.000  
G13  22155916.978   116430181.350       -4032.508          31.000  
G15  20431363.262                       -2323.537          37.000  
G18  21690132.134                        1426.157          32.000  
G24  21237222.477   111602338.016        1352.351          30.000    21237221.577    83339415.642        1007.773          28.000  
J01  40027393.812   210345409.012       -1140.300          35.000    40027403.705                        -852.959          33.000  
J02  37215598.377   195569280.266       -1063.126          35.000  
J03  36089911.874   189653778.331       -1517.841          28.000  
R23  20918275.979   111898667.327        1300.600          37.000  
> 2020 11 13  3  0 45.9995231  0 22
C04  38357747.084   199738913.503       -1212.552          33.000  
C06  36240861.873   188715666.315       -1536.534          38.000  
C08  36067975.460   187815405.0421       -938.216          36.000  
C09  36524648.412   190193408.570       -1094.288          31.000  
C13  35778071.656   186305833.6541       -589.447          35.000  
C16  36235023.115   188685261.715       -1447.896          40.000  
C20  23525434.281   122503115.5011       -686.551          37.000  
C23  24891587.912   129617084.033       -1147.783          26.000  
C27  24925891.065   129795799.076       -4407.527          31.000  
C30  22532004.518   117329994.805       -2845.883          22.000  
C32  23599291.450   122887699.1581      -2131.486          32.000  
C37  24158893.046   125801818.330         888.796          31.000  
G02  23676788.700   124422460.856       -4334.975          28.000  
G05  23197748.233   121905031.511       -2659.797          27.000  
G13  22156382.855   116432637.349       -4029.342          33.000  
G15  20431505.663   107368283.4911      -2321.259          39.000  
G18  21689566.126   113979420.9851       1413.175          31.000  
G20  23541763.676   123712965.4991        999.593          32.000  
G24  21236666.662   111599411.558        1350.023          30.000    21236665.762    83337232.781        1005.578          29.000  
J01  40027311.069   210344973.657       -1140.026          30.000    40027320.363   157075803.6221       -851.349          33.000  
J02  37215499.746   195568769.240       -1065.234          39.000  
R23  20917741.749   111895764.186        1299.194          37.000  
> 2020 11 13  3  0 46.9995226  0 21
