% program   : RTKLIB ver.2.4.2
% inp file  : /home/wws/FGO-GNSSV1.0/src/global_fusion/dataset/HuaweiPhone20201113/P40pro_InsideCar/2020_11_13_10_47_33_GMT_08_00_best/part2/GEOP318D.20o
% inp file  : /home/wws/FGO-GNSSV1.0/src/global_fusion/dataset/HuaweiPhone20201113/P40pro_InsideCar/2020_11_13_10_47_33_GMT_08_00_best/part2/hksc318e.20o
% inp file  : /home/wws/FGO-GNSSV1.0/src/global_fusion/dataset/HuaweiPhone20201113/P40pro_InsideCar/2020_11_13_10_47_33_GMT_08_00_best/part2/hksc318e.20b
% inp file  : /home/wws/FGO-GNSSV1.0/src/global_fusion/dataset/HuaweiPhone20201113/P40pro_InsideCar/2020_11_13_10_47_33_GMT_08_00_best/part2/hksc318e.20n
% obs start : 2020/11/13 03:00:01.0 GPST (week2131 442801.0s)
% obs end   : 2020/11/13 03:14:11.0 GPST (week2131 443651.0s)
% pos mode  : kinematic
% freqs     : L1+L2
% solution  : combined
% elev mask : 15.0 deg
% dynamics  : off
% tidecorr  : off
% ionos opt : broadcast
% tropo opt : saastamoinen
% ephemeris : broadcast
% navi sys  : gps glonass galileo qzss sbas
% amb res   : instantaneous
% amb glo   : on
% val thres : 3.0
% antenna1  :                       ( 0.0000  0.0000  0.0000)
% antenna2  :                       ( 0.0000  0.0000  0.0000)
% ref pos   : 22.322172082, 114.141187963,   20.2386
%
% (lat/lon/height=WGS84/ellipsoidal,Q=1:fix,2:float,3:sbas,4:dgps,5:single,6:ppp,ns=# of satellites)
%  GPST        , latitude(deg),longitude(deg), height(m),  Q, ns,  sdn(m),  sde(m),  sdu(m), sdne(m), sdeu(m), sdun(m),age(s), ratio
2131,442804.000,  22.301113023, 114.176363913,    7.7401,  5,  7,  7.7049,  7.0553, 15.9595,  5.0408,  9.8688,  6.8319,-3596.00,   0.0
2131,442810.000,  22.301632080, 114.176431035,    1.2808,  5,  9,  2.2016,  5.4165, 10.6489, -1.1447,  6.7800, -2.2857,-3590.00,   0.0
2131,442811.000,  22.301716819, 114.176433804,   -5.9453,  5,  9,  2.2015,  5.4159, 10.6455, -1.1427,  6.7781, -2.2834,-3589.00,   0.0
2131,442812.000,  22.301757343, 114.176491820,    3.0639,  5,  8,  2.7688,  5.4216, 11.0708, -1.3185,  6.8346, -3.2135,-3588.00,   0.0
2131,442815.000,  22.302040802, 114.176570020,   -0.6613,  5,  8,  2.5110,  6.3223, 15.0125,  1.6305,  8.9697,  2.7626,-3585.00,   0.0
2131,442817.000,  22.302061027, 114.176834458,   29.0578,  5,  9,  2.1644,  3.4791, 11.4471,  1.5247,  5.0316,  2.0414,-3583.00,   0.0
2131,442818.000,  22.302109704, 114.176766286,   29.1980,  5, 10,  2.0920,  3.2765,  8.0165,  1.2942,  3.9689, -0.6095,-3582.00,   0.0
2131,442819.000,  22.302132151, 114.176668126,    3.6383,  5, 10,  2.0922,  3.2770,  8.0164,  1.2946,  3.9694, -0.6077,-3581.00,   0.0
2131,442820.000,  22.302164240, 114.176618480,    2.8677,  5, 11,  2.0642,  3.2315,  7.8159,  1.3654,  4.0908, -0.9884,-3580.00,   0.0
2131,442821.000,  22.302181032, 114.176631348,    1.4714,  5, 11,  2.0935,  3.4496,  8.6214,  1.5126,  4.7662,  0.9531,-3579.00,   0.0
2131,442822.000,  22.302175533, 114.176730389,   38.4197,  5, 12,  2.3638,  2.3522,  5.1628,  1.6242,  2.7313,  2.0147,-3578.00,   0.0
2131,442823.000,  22.302165388, 114.176711357,   30.6924,  5, 11,  2.4336,  2.3817,  5.3708,  1.6893,  2.8306,  2.2172,-3577.00,   0.0
2131,442824.000,  22.302163353, 114.176702840,   32.2514,  5, 11,  2.4339,  2.3823,  5.3719,  1.6899,  2.8316,  2.2182,-3576.00,   0.0
2131,442836.000,  22.302170529, 114.176675110,   28.8063,  5, 14,  1.7479,  1.9071,  4.3873,  0.7922,  2.0377, -0.5090,-3564.00,   0.0
2131,442839.000,  22.302165310, 114.176710113,   25.4528,  5, 13,  1.7957,  1.7768,  3.8754,  0.7033,  1.0879,  0.6579,-3561.00,   0.0
2131,442842.000,  22.302210430, 114.176729509,   23.7446,  5, 16,  1.6047,  1.5942,  3.4018,  0.7832,  1.1714, -0.9172,-3558.00,   0.0
2131,442849.000,  22.302570680, 114.176884250,   23.4168,  5, 14,  2.0407,  1.7018,  3.6998,  0.7763,  1.0015, -1.5518,-3551.00,   0.0
2131,442857.000,  22.302962579, 114.177251778,    9.2593,  5, 15,  1.8084,  1.5807,  4.0595,  0.8187,  1.1944,  1.2136,-3543.00,   0.0
2131,442858.000,  22.302974536, 114.177318407,    9.8019,  5, 15,  1.8085,  1.5808,  4.0596,  0.8188,  1.1946,  1.2137,-3542.00,   0.0
2131,442859.000,  22.302965150, 114.177368993,    4.6120,  5, 16,  1.8085,  1.4571,  3.6992,  0.8145,  0.6338,  1.2058,-3541.00,   0.0
2131,442860.000,  22.302959049, 114.177430653,   13.0697,  5, 17,  1.6336,  1.4555,  3.4641,  0.8469,  0.7016,  0.6685,-3540.00,   0.0
2131,442861.000,  22.302886111, 114.177504201,    5.2800,  5, 17,  1.7064,  1.3872,  3.6430,  0.6293,  0.3389,  1.0336,-3539.00,   0.0
2131,442862.000,  22.302868517, 114.177620991,    2.8224,  5, 17,  1.5710,  1.5067,  4.0008,  0.5390, -1.3527,  0.8817,-3538.00,   0.0
2131,442863.000,  22.302830702, 114.177695428,    2.7179,  5, 15,  1.7165,  2.2696,  4.7587,  1.1336, -2.4749, -0.7270,-3537.00,   0.0
2131,442864.000,  22.302798685, 114.177725481,   13.2611,  5, 16,  1.6961,  1.9946,  4.0705,  1.2533, -1.8591, -1.0863,-3536.00,   0.0
2131,442866.000,  22.302693663, 114.177886188,   20.1415,  5, 18,  1.5680,  1.3090,  3.4693,  0.4685, -0.5840,  0.9833,-3534.00,   0.0
2131,442868.000,  22.302618747, 114.178060995,   20.3203,  5, 17,  1.6544,  1.3892,  3.4701,  0.6817, -0.6078,  0.9665,-3532.00,   0.0
2131,442869.000,  22.302630516, 114.178085622,   31.4111,  5, 15,  1.7950,  1.7171,  3.4830,  0.6877, -0.9677, -0.3204,-3531.00,   0.0
2131,442870.000,  22.302587576, 114.178199211,   29.5224,  5, 15,  1.7146,  1.8277,  3.8141,  0.5737, -1.4968,  1.0852,-3530.00,   0.0
2131,442871.000,  22.302580512, 114.178267112,   32.3242,  5, 15,  1.7949,  1.7173,  3.4835,  0.6874, -0.9678, -0.3232,-3529.00,   0.0
2131,442873.000,  22.302468603, 114.178506948,   14.8116,  5, 15,  1.7850,  1.6429,  4.7539,  0.8184, -1.4636,  1.4343,-3527.00,   0.0
2131,442874.000,  22.302540748, 114.178647136,   18.9099,  5, 12,  2.3394,  2.2791,  5.0894,  1.6991, -1.9283,  0.5603,-3526.00,   0.0
2131,442882.999,  22.302404121, 114.179184680,   29.3952,  5, 11,  2.4195,  2.2142,  5.8530,  1.3821, -1.3698, -2.5301,-3517.00,   0.0
2131,442883.999,  22.302380592, 114.179185886,   38.1188,  5, 11,  2.4555,  2.2857,  7.6962,  1.1163,  1.0016, -3.3678,-3516.00,   0.0
2131,442885.999,  22.302363392, 114.179173890,   58.5469,  5, 11,  2.5127,  2.7369,  5.4233,  2.0623, -1.5216, -2.0994,-3514.00,   0.0
2131,442900.999,  22.302207813, 114.179630223,   44.0084,  5, 11,  2.4167,  2.2169,  5.8489,  1.3812, -1.3730, -2.5253,-3499.00,   0.0
2131,442901.999,  22.302296269, 114.179638334,    4.4557,  5,  9,  3.5277,  2.7264, 10.1490,  0.4303, -0.7132, -5.1510,-3498.00,   0.0
2131,442902.999,  22.302178217, 114.179781371,   26.8466,  5,  8,  2.4165,  2.4683,  5.5041, -0.6710,  1.5282, -1.7544,-3497.00,   0.0
2131,442903.999,  22.302070887, 114.179689234,   15.6500,  5,  8,  3.0759,  2.9364,  5.5781,  1.7330,  1.3195, -2.0095,-3496.00,   0.0
2131,442904.999,  22.302188546, 114.179584038,  -27.8146,  5,  9,  4.8044,  3.3555, 12.1487, -2.3497,  5.1338, -6.7991,-3495.00,   0.0
2131,442905.999,  22.301948164, 114.179718097,   53.2569,  5, 11,  2.4616,  2.2870,  7.7020,  1.1197,  0.9753, -3.3790,-3494.00,   0.0
2131,442906.999,  22.301902811, 114.179690365,   55.9534,  5, 11,  1.9163,  2.3241,  7.2075, -0.5501,  1.3699, -2.3519,-3493.00,   0.0
2131,442907.999,  22.301896866, 114.179689671,   39.1542,  5, 12,  1.9089,  2.1050,  6.8389, -0.3692,  2.0288, -2.4318,-3492.00,   0.0
2131,442908.999,  22.301899161, 114.179673391,   18.1900,  5, 12,  1.9089,  2.1050,  6.8382, -0.3692,  2.0286, -2.4316,-3491.00,   0.0
2131,442909.999,  22.301860798, 114.179646247,   13.5055,  5, 11,  1.9164,  2.3245,  7.2049, -0.5504,  1.3694, -2.3511,-3490.00,   0.0
2131,442910.999,  22.301806606, 114.179673141,   -5.2949,  5, 10,  1.9774,  2.6142,  9.2080, -0.9409, -2.2322, -1.6536,-3489.00,   0.0
2131,442911.999,  22.301788364, 114.179607293,   10.2091,  5, 12,  1.7312,  2.1306,  5.6755,  0.6794, -1.5005, -1.3706,-3488.00,   0.0
2131,442912.999,  22.301729576, 114.179542956,   10.5830,  5, 12,  1.8589,  1.8834,  5.8345, -0.5447, -1.1103,  0.7912,-3487.00,   0.0
2131,442913.999,  22.301694062, 114.179512630,    8.1830,  5, 12,  1.8589,  1.8834,  5.8346, -0.5446, -1.1100,  0.7912,-3486.00,   0.0
2131,442914.999,  22.301634733, 114.179492647,    8.7692,  5, 12,  2.2114,  1.8304,  5.9210, -0.6347,  1.1510, -2.2659,-3485.00,   0.0
2131,442915.999,  22.301577492, 114.179509010,   18.9885,  5, 11,  2.8437,  2.3865,  8.7962, -1.7720,  3.3593, -4.0944,-3484.00,   0.0
2131,442917.999,  22.301507201, 114.179477721,   19.7401,  5, 13,  2.1627,  1.7837,  5.7660, -0.7718,  0.8776, -2.4031,-3482.00,   0.0
2131,442922.999,  22.300916854, 114.179452300,   94.4194,  5,  9,  2.8422,  2.5241,  6.0935, -1.6304, -1.0636, -2.2363,-3477.00,   0.0
2131,442926.999,  22.301474366, 114.178924514,  -56.3815,  5,  8,  8.3307,  5.0976, 29.4982,  1.8373, -8.0218,-14.7675,-3473.00,   0.0
2131,442929.999,  22.301293515, 114.178920540,  -13.1815,  5, 11,  2.4407,  2.8543,  6.4955, -2.0244,  2.0154, -2.4616,-3470.00,   0.0
2131,442930.999,  22.301288313, 114.178933546,    5.6834,  5, 10,  2.9279,  3.7542,  7.6766, -2.3232,  3.8777, -3.9068,-3469.00,   0.0
2131,442992.999,  22.300864212, 114.178996269,   46.0641,  5,  7,  3.3159,  4.1676, 17.2455,  2.8086,  6.3533,  4.6108,-3407.00,   0.0
2131,442993.999,  22.300876805, 114.179053310,   26.2119,  5, 11,  1.7629,  2.3669,  5.7336,  0.6228, -1.4437, -1.2039,-3406.00,   0.0
2131,442994.999,  22.300842090, 114.179155364,   14.5718,  5, 10,  3.5623,  3.8214,  6.3995,  3.3230,  2.1230,  2.4775,-3405.00,   0.0
2131,443002.999,  22.300620185, 114.179440426,    1.3782,  5, 12,  2.6467,  3.2834,  4.7921,  2.5701, -1.8848, -1.6599,-3397.00,   0.0
2131,443003.999,  22.300472824, 114.179190320,   41.1210,  5, 10,  2.2286,  4.4528,  8.7051,  2.0162, -5.4441, -1.9646,-3396.00,   0.0
2131,443004.999,  22.300584549, 114.179639212,   -7.6749,  5, 11,  2.2273,  3.0150,  5.4379,  1.9523, -2.7134, -1.8258,-3395.00,   0.0
2131,443007.999,  22.300061020, 114.179460078,   20.0978,  5, 10,  3.2377,  2.7704,  6.8006,  2.2792, -2.7677, -2.4477,-3392.00,   0.0
2131,443011.999,  22.300140542, 114.179796539,   15.4699,  5, 12,  3.3821,  4.0462,  4.4443,  3.4488, -2.7139, -2.5090,-3388.00,   0.0
2131,443015.999,  22.300136017, 114.179871260,   25.1921,  5, 10,  3.0494,  3.7695,  6.1383,  2.9742,  1.8153,  0.9178,-3384.00,   0.0
2131,443072.999,  22.299083863, 114.178644126,  -22.0117,  5,  9,  5.7103,  5.2154, 24.7500,  2.9595, -9.0897,-10.9402,-3327.00,   0.0
2131,443077.999,  22.298677626, 114.178360224,    8.1722,  5, 10,  2.6623,  2.4442,  6.7064, -0.3957, -2.0564, -2.8727,-3322.00,   0.0
2131,443079.999,  22.298805716, 114.178045034,  -35.8350,  5, 11,  2.7012,  2.3595,  6.9444, -1.5713,  2.2544, -3.3668,-3320.00,   0.0
2131,443086.999,  22.298150314, 114.178070455,  182.6122,  5, 10,  3.3437,  4.7747,  8.9789, -1.1264, -5.7811, -1.7166,-3313.00,   0.0
2131,443128.999,  22.298385116, 114.177856237,  -20.2401,  5, 10,  3.8744,  2.6822,  9.0821, -0.8232, -1.9958, -4.3705,-3271.00,   0.0
2131,443141.999,  22.297679996, 114.177082875,    1.0173,  5,  9,  3.4545,  3.7034, 10.0951, -2.8543,  2.5287, -4.0208,-3258.00,   0.0
2131,443154.999,  22.297146732, 114.175996291,   31.6391,  5, 11,  2.1758,  2.1475,  7.2082, -0.8423,  0.3199, -2.5482,-3245.00,   0.0
2131,443155.999,  22.297171515, 114.176056538,  -12.7801,  5, 11,  2.1040,  2.9297,  8.1082, -1.4750, -2.4197, -1.9884,-3244.00,   0.0
2131,443168.999,  22.297117829, 114.175758534,   25.9978,  5, 12,  1.9877,  2.4974,  7.1461,  1.4122, -2.2423, -1.7480,-3231.00,   0.0
2131,443262.999,  22.299634116, 114.176365535,  665.1193,  5,  5, 19.5064, 14.1560, 30.8501, 15.5085, 14.5508, 22.2946,-3137.00,   0.0
2131,443263.999,  22.298935712, 114.175550369,    2.7237,  5,  7,  2.2686,  6.9400,  9.8880, -1.5153,  5.7363, -1.0733,-3136.00,   0.0
2131,443281.999,  22.300069956, 114.175884237,   -2.5277,  5,  9,  2.2212,  4.4067,  6.3410, -0.9631,  4.1503, -2.1013,-3118.00,   0.0
2131,443287.999,  22.300302036, 114.176047167,  351.7761,  5,  7,  3.8029,  6.2132, 14.7773,  3.1657, -7.5784,  3.1464,-3112.00,   0.0
2131,443288.999,  22.300407194, 114.176154016,  187.6334,  5,  6, 14.7223, 10.8629,168.0580, 11.9202, 36.8451, 48.1548,-3111.00,   0.0
2131,443289.999,  22.300510948, 114.176153536,   41.2626,  5, 10,  2.2537,  3.6129,  5.9281,  0.4760,  3.5799, -2.2146,-3110.00,   0.0
2131,443311.999,  22.300533502, 114.176336490,   40.9872,  5,  9,  4.6040,  3.5824,  7.7480, -3.2109,  4.5786, -5.0532,-3088.00,   0.0
2131,443313.999,  22.300712706, 114.176105093,    7.8283,  5, 11,  2.0599,  3.3382,  5.4194, -1.4237,  3.4617, -2.2279,-3086.00,   0.0
2131,443325.999,  22.301877026, 114.176434850,  -19.9366,  5,  7,  3.0890, 15.6367, 29.3354,  4.9317, 21.0228,  7.0018,-3074.00,   0.0
2131,443327.999,  22.302073217, 114.176732740,    1.2613,  5,  7,  2.2992, 13.0884, 14.9802, -0.7206, 13.1613, -1.9738,-3072.00,   0.0
2131,443328.999,  22.302154696, 114.176511033,  -15.7103,  5,  7,  3.0935, 15.6244, 29.2999,  4.9408, 21.0009,  7.0129,-3071.00,   0.0
2131,443330.999,  22.302240740, 114.176547769,  -20.9919,  5,  7,  3.0965, 15.6162, 29.2763,  4.9470, 20.9864,  7.0204,-3069.00,   0.0
2131,443331.999,  22.302286549, 114.176818292,   -2.0195,  5,  6,  3.1036, 18.3297, 30.1162,  5.1286, 22.5482,  7.1183,-3068.00,   0.0
2131,443332.999,  22.302351199, 114.176664595,    4.7395,  5,  7,  3.0994, 15.6081, 29.2528,  4.9531, 20.9719,  7.0278,-3067.00,   0.0
2131,443333.999,  22.302392434, 114.176743911,   24.1374,  5,  8,  2.8461,  4.5871, 12.1292,  2.4902,  6.5337,  4.0846,-3066.00,   0.0
2131,443334.999,  22.302425622, 114.176730206,   25.5155,  5,  8,  2.8468,  4.5885, 12.1312,  2.4916,  6.5358,  4.0866,-3065.00,   0.0
2131,443335.999,  22.302449088, 114.176722328,   19.8820,  5,  8,  2.8476,  4.5899, 12.1333,  2.4929,  6.5379,  4.0887,-3064.00,   0.0
2131,443336.999,  22.302446203, 114.176615881,   -5.8997,  5,  7,  3.1055, 15.5920, 29.2059,  4.9655, 20.9432,  7.0428,-3063.00,   0.0
2131,443337.999,  22.302424610, 114.176814859,   35.1179,  5,  9,  2.4901,  2.3573,  5.1522,  1.1135,  1.3737,  1.4847,-3062.00,   0.0
2131,443345.999,  22.302475616, 114.176762788,   -2.0876,  5, 12,  2.1535,  2.1132,  4.5621,  0.5569,  1.7241,  1.6567,-3054.00,   0.0
2131,443356.999,  22.302459467, 114.176674236,  -12.6627,  5, 13,  1.8778,  2.4760,  4.9119, -0.5781,  2.6856, -1.2408,-3043.00,   0.0
2131,443358.999,  22.302460487, 114.176814855,   15.9903,  5, 11,  2.2895,  2.5883,  4.1525,  1.2589, -0.4183, -1.9326,-3041.00,   0.0
2131,443361.999,  22.302516261, 114.176830103,   15.8346,  5, 13,  1.8473,  1.9583,  3.7498,  0.8998,  0.9457,  0.5434,-3038.00,   0.0
2131,443368.999,  22.302859636, 114.177059275,    8.8630,  5, 13,  1.9148,  1.8761,  4.4312,  0.4541,  0.4697,  1.4634,-3031.00,   0.0
2131,443369.999,  22.302920917, 114.177096900,   11.1805,  5, 15,  1.6785,  1.7426,  3.5740,  0.5816,  1.1424, -0.2298,-3030.00,   0.0
2131,443370.999,  22.302971516, 114.177172737,   12.9312,  5, 15,  1.6786,  1.7427,  3.5740,  0.5816,  1.1426, -0.2298,-3029.00,   0.0
2131,443371.999,  22.302988846, 114.177194066,   10.7035,  5, 16,  1.5356,  1.5809,  3.4814, -0.3991,  0.8445, -0.7752,-3028.00,   0.0
2131,443372.999,  22.302977437, 114.177287432,    8.1863,  5, 14,  1.9043,  1.7429,  4.1377,  0.5883,  1.1510,  1.3498,-3027.00,   0.0
2131,443373.999,  22.302943696, 114.177322966,    7.4102,  5, 14,  1.9044,  1.7430,  4.1376,  0.5882,  1.1512,  1.3497,-3026.00,   0.0
2131,443374.999,  22.302918950, 114.177360135,   10.4016,  5, 14,  1.6810,  1.7676,  4.1642, -0.6107, -0.8557,  0.8672,-3025.00,   0.0
2131,443375.999,  22.302901403, 114.177451896,    6.1931,  5, 17,  1.5488,  1.5457,  3.8369, -0.5609,  0.2798,  0.7370,-3024.00,   0.0
2131,443376.999,  22.302901345, 114.177496320,   14.5777,  5, 19,  1.4184,  1.4177,  3.4017,  0.1434, -0.3126,  0.4125,-3023.00,   0.0
2131,443377.999,  22.302869884, 114.177556972,   16.3473,  5, 19,  1.3954,  1.5203,  3.4327,  0.3606, -0.9829,  0.5862,-3022.00,   0.0
2131,443378.999,  22.302847677, 114.177625240,   15.6831,  5, 17,  1.4863,  2.0230,  4.3426,  0.7384, -2.0745, -0.2583,-3021.00,   0.0
2131,443379.999,  22.302828081, 114.177660212,   13.2211,  5, 18,  1.4155,  2.0102,  4.3175,  0.6647, -2.0998, -0.5273,-3020.00,   0.0
2131,443380.999,  22.302813708, 114.177664060,   16.9635,  5, 17,  1.7109,  1.8409,  4.3380,  0.6315, -1.8075,  1.1033,-3019.00,   0.0
2131,443381.999,  22.302792712, 114.177597749,   30.7236,  5, 16,  1.6137,  2.2576,  5.0967,  0.9190, -2.6728, -0.5971,-3018.00,   0.0
2131,443382.999,  22.302784368, 114.177584730,   33.0693,  5, 16,  1.7837,  2.0713,  4.5367,  0.9370, -2.1276,  0.7395,-3017.00,   0.0
2131,443383.999,  22.302787832, 114.177537744,   48.5220,  5, 17,  1.5493,  1.8129,  3.9120,  0.2736, -1.6302,  0.9743,-3016.00,   0.0
2131,443395.999,  22.302787011, 114.177786307,   11.7838,  5, 18,  1.6034,  1.5928,  3.6188,  0.8190, -1.2858, -1.1442,-3004.00,   0.0
2131,443396.999,  22.302809158, 114.177854245,    2.7895,  5, 15,  1.9344,  2.2042,  4.1725,  1.3881, -2.1537, -1.5714,-3003.00,   0.0
2131,443418.999,  22.302511030, 114.178670819,    1.0645,  5, 12,  2.1303,  2.3822,  5.7099,  1.2725, -2.7002, -1.6625,-2981.00,   0.0
2131,443448.999,  22.301844654, 114.179651831,   36.6684,  5,  9,  2.9743,  3.1458,  7.8737,  2.4580, -0.7015,  1.2741,-2951.00,   0.0
2131,443449.999,  22.301839362, 114.179694203,   38.3559,  5, 10,  2.4210,  2.6377,  7.2506,  1.7550, -2.3991, -1.9192,-2950.00,   0.0
2131,443450.999,  22.301709432, 114.179587895,   26.6400,  5, 10,  2.6223,  3.0547,  6.9576,  2.1931,  2.6778,  2.5644,-2949.00,   0.0
2131,443451.999,  22.301548170, 114.179449141,   17.7149,  5,  9,  6.2796,  3.6437,  5.2805,  4.4108,  0.8951,  1.6011,-2948.00,   0.0
2131,443452.999,  22.301853693, 114.179477212,   31.2712,  5, 14,  1.9124,  2.0292,  4.6479,  0.8173, -2.0581,  1.1761,-2947.00,   0.0
2131,443453.999,  22.301857190, 114.179567480,   16.9930,  5, 11,  2.2576,  4.8411,  8.9879,  2.1571, -6.1015, -2.3320,-2946.00,   0.0
2131,443454.999,  22.301840971, 114.179585586,    9.5457,  5, 12,  2.1783,  4.7434,  8.4459,  2.0193, -5.8525, -1.9011,-2945.00,   0.0
2131,443455.999,  22.301843356, 114.179690052,   -5.4932,  5, 13,  2.1727,  2.8568,  5.2608,  1.8675, -3.0384, -1.6078,-2944.00,   0.0
2131,443459.999,  22.301819954, 114.179548850,   26.3262,  5, 11,  1.9579,  4.7007,  9.2378,  1.5776, -6.0650, -1.0217,-2940.00,   0.0
2131,443490.999,  22.301571627, 114.179595117,   10.5418,  5, 12,  1.7221,  2.6351,  5.8383, -0.5886, -2.9386,  0.8975,-2909.00,   0.0
2131,443491.999,  22.301526956, 114.179414603,   24.6013,  5, 12,  1.7816,  2.0559,  5.0618, -0.6970, -1.8219,  1.1886,-2908.00,   0.0
2131,443506.999,  22.301053272, 114.179006714,  -56.9038,  5,  8,  2.8170,  2.5496,  7.6752, -1.4782,  1.5742, -2.6896,-2893.00,   0.0
2131,443529.999,  22.301089847, 114.178940118,   48.9508,  5,  9,  2.5898,  3.2972,  5.6207, -1.4144,  3.2176, -2.2262,-2870.00,   0.0
2131,443530.999,  22.300888499, 114.179072875,   27.8070,  5,  7,  3.7212,  6.8278, 12.1610,  4.0149, -7.8577, -3.6704,-2869.00,   0.0
2131,443531.999,  22.300818750, 114.178911616,   66.2653,  5,  9,  3.6836,  5.7791,  6.3527,  4.1667, -5.1948, -3.8881,-2868.00,   0.0
2131,443533.999,  22.300735315, 114.179256729,   29.4021,  5, 11,  2.3930,  2.6002,  6.6819,  0.7859, -2.7488,  2.1146,-2866.00,   0.0
2131,443536.999,  22.300518805, 114.179541188,   17.5878,  5, 11,  2.5692,  4.4048,  8.3248,  2.0754, -5.1905, -0.3806,-2863.00,   0.0
2131,443537.999,  22.300402678, 114.179579133,   21.4458,  5, 11,  2.5694,  4.4047,  8.3255,  2.0751, -5.1904, -0.3727,-2862.00,   0.0
2131,443544.999,  22.300015267, 114.179849657,   35.1714,  5, 11,  2.5705,  4.4037,  8.3305,  2.0724, -5.1898, -0.3122,-2855.00,   0.0
2131,443545.999,  22.299974718, 114.179736533,   65.8563,  5,  9,  4.3421,  4.7476,  9.8443, -1.3315, -5.9065,  3.6333,-2854.00,   0.0
2131,443546.999,  22.299987042, 114.179772859,   45.2158,  5,  8,  3.5147,  6.3252, 33.7319,  3.8891,-13.1985, -8.7487,-2853.00,   0.0
2131,443547.999,  22.300037555, 114.179647878,  -90.3420,  5,  6,  8.8051,  6.8452,187.6873,  3.9419, -7.0068,-38.8335,-2852.00,   0.0
2131,443548.999,  22.299957628, 114.179610717,  196.0462,  5,  6, 13.5181,  8.7673, 16.9583,  9.3137,  4.2159, 12.1327,-2851.00,   0.0
2131,443552.999,  22.299697964, 114.179632915,  114.1952,  5,  9,  5.6750,  6.1376,  6.4699,  5.6312,  1.9959,  2.9493,-2847.00,   0.0
2131,443553.999,  22.299590475, 114.179419355,  120.7957,  5,  8,  3.0858,  4.6192, 11.9793,  2.4555, -5.8084,  1.3534,-2846.00,   0.0
2131,443555.999,  22.299751315, 114.179452835,   62.8720,  5,  8,  3.3482,  3.3113, 15.1835,  1.0952,  4.0465, -5.3526,-2844.00,   0.0
2131,443568.999,  22.299530522, 114.179455732,   76.5939,  5,  9,  2.9040,  2.6056, 10.4077,  1.6750, -2.3752, -4.0488,-2831.00,   0.0
2131,443606.999,  22.299374944, 114.179481640,  155.0778,  5, 12,  3.3828,  2.3084,  8.4488, -2.1035,  3.4476, -4.7997,-2793.00,   0.0
