% program   : RTKPOST ver.demo5 b33e
% inp file  : C:\Users\Administrator\Dropbox\1. Research Papers && UC Berkeley\63. 3D Vision Adied GNSS-RTK in Urban Canyons\20210610\extracted\3_klt_3\10hz\f9p\spp\20210610.klt3.ublox.f9p.10Hz.obs
% inp file  : C:\Users\Administrator\Dropbox\1. Research Papers && UC Berkeley\63. 3D Vision Adied GNSS-RTK in Urban Canyons\20210610\extracted\3_klt_3\10hz\f9p\spp\hksc1610.21n
% inp file  : C:\Users\Administrator\Dropbox\1. Research Papers && UC Berkeley\63. 3D Vision Adied GNSS-RTK in Urban Canyons\20210610\extracted\3_klt_3\10hz\f9p\spp\hksc1610.21f
% obs start : 2021/06/10 03:52:31.0 GPST (week2161 359551.0s)
% obs end   : 2021/06/10 03:59:17.0 GPST (week2161 359957.0s)
% pos mode  : single
% elev mask : 15.0 deg
% ionos opt : broadcast
% tropo opt : saastamoinen
% ephemeris : broadcast
% navi sys  : gps glonass galileo qzss beidou
%
% (lat/lon/height=WGS84/ellipsoidal,Q=1:fix,2:float,3:sbas,4:dgps,5:single,6:ppp,ns=# of satellites)
%  GPST          latitude(deg) longitude(deg)  height(m)   Q  ns   sdn(m)   sde(m)   sdu(m)  sdne(m)  sdeu(m)  sdun(m) age(s)  ratio
2161 359551.000   22.330449844  114.180878818    21.4445   5  14   2.0212   2.0144   8.4404  -1.0434  -1.4818   2.2482   0.00    0.0
2161 359551.100   22.330449597  114.180878937    21.7966   5  14   2.0212   2.0144   8.4403  -1.0435  -1.4817   2.2481   0.00    0.0
2161 359551.200   22.330449713  114.180878356    20.7423   5  14   2.0212   2.0144   8.4403  -1.0435  -1.4817   2.2481   0.00    0.0
2161 359551.300   22.330452683  114.180876296    19.8593   5  14   2.0212   2.0144   8.4402  -1.0435  -1.4816   2.2481   0.00    0.0
2161 359551.400   22.330452243  114.180875945    19.7262   5  14   2.0212   2.0144   8.4402  -1.0435  -1.4816   2.2480   0.00    0.0
2161 359551.500   22.330451257  114.180878306    19.4208   5  14   2.0212   2.0144   8.4401  -1.0435  -1.4815   2.2480   0.00    0.0
2161 359551.600   22.330450596  114.180876329    19.2716   5  14   2.0212   2.0144   8.4401  -1.0435  -1.4814   2.2479   0.00    0.0
2161 359551.700   22.330450134  114.180878025    20.2384   5  14   2.0212   2.0144   8.4400  -1.0435  -1.4814   2.2479   0.00    0.0
2161 359551.800   22.330451936  114.180876368    20.7244   5  14   2.0212   2.0144   8.4400  -1.0435  -1.4813   2.2478   0.00    0.0
2161 359551.900   22.330451742  114.180876694    21.4504   5  14   2.0212   2.0145   8.4399  -1.0435  -1.4813   2.2478   0.00    0.0
2161 359552.000   22.330451610  114.180878391    20.4627   5  14   2.0212   2.0145   8.4399  -1.0435  -1.4812   2.2478   0.00    0.0
2161 359552.100   22.330451211  114.180879243    20.5932   5  14   2.0212   2.0145   8.4398  -1.0435  -1.4811   2.2477   0.00    0.0
2161 359552.200   22.330452359  114.180879540    19.5298   5  14   2.0211   2.0145   8.4398  -1.0435  -1.4811   2.2477   0.00    0.0
2161 359552.300   22.330452819  114.180878718    20.6628   5  14   2.0211   2.0145   8.4397  -1.0435  -1.4810   2.2476   0.00    0.0
2161 359552.400   22.330452949  114.180877015    21.3608   5  14   2.0211   2.0145   8.4397  -1.0435  -1.4810   2.2476   0.00    0.0
2161 359552.500   22.330454155  114.180877148    21.3386   5  14   2.0211   2.0145   8.4396  -1.0436  -1.4809   2.2475   0.00    0.0
2161 359552.600   22.330453878  114.180876649    20.3730   5  14   2.0211   2.0145   8.4396  -1.0436  -1.4808   2.2475   0.00    0.0
2161 359552.700   22.330455483  114.180875333    19.9938   5  14   2.0211   2.0145   8.4395  -1.0436  -1.4808   2.2475   0.00    0.0
2161 359552.800   22.330454685  114.180878504    20.5447   5  14   2.0211   2.0145   8.4395  -1.0436  -1.4807   2.2474   0.00    0.0
2161 359552.900   22.330454767  114.180878131    20.2682   5  14   2.0211   2.0145   8.4394  -1.0436  -1.4806   2.2474   0.00    0.0
2161 359553.000   22.330454824  114.180878811    19.6600   5  14   2.0211   2.0145   8.4394  -1.0436  -1.4806   2.2473   0.00    0.0
2161 359553.100   22.330455687  114.180878367    19.4527   5  14   2.0211   2.0145   8.4393  -1.0436  -1.4805   2.2473   0.00    0.0
2161 359553.200   22.330454761  114.180873890    21.0313   5  14   2.0211   2.0145   8.4393  -1.0436  -1.4805   2.2472   0.00    0.0
2161 359553.300   22.330454425  114.180875146    20.3628   5  14   2.0211   2.0146   8.4392  -1.0436  -1.4804   2.2472   0.00    0.0
2161 359553.400   22.330453856  114.180875065    20.7857   5  14   2.0211   2.0146   8.4392  -1.0436  -1.4803   2.2472   0.00    0.0
2161 359553.500   22.330453961  114.180874171    20.8078   5  14   2.0211   2.0146   8.4391  -1.0436  -1.4803   2.2471   0.00    0.0
2161 359553.600   22.330455599  114.180870742    21.9408   5  14   2.0211   2.0146   8.4391  -1.0436  -1.4802   2.2471   0.00    0.0
2161 359553.700   22.330455687  114.180871918    21.8202   5  14   2.0211   2.0146   8.4390  -1.0436  -1.4802   2.2470   0.00    0.0
2161 359553.800   22.330455161  114.180875060    21.4928   5  14   2.0211   2.0146   8.4390  -1.0436  -1.4801   2.2470   0.00    0.0
2161 359553.900   22.330455066  114.180875145    22.3441   5  14   2.0211   2.0146   8.4389  -1.0437  -1.4800   2.2469   0.00    0.0
2161 359554.000   22.330455219  114.180875956    23.2068   5  14   2.0211   2.0146   8.4389  -1.0437  -1.4800   2.2469   0.00    0.0
2161 359554.100   22.330455992  114.180874509    23.2656   5  14   2.0211   2.0146   8.4388  -1.0437  -1.4799   2.2469   0.00    0.0
2161 359554.200   22.330455663  114.180875810    23.0337   5  14   2.0211   2.0146   8.4388  -1.0437  -1.4799   2.2468   0.00    0.0
2161 359554.300   22.330454768  114.180879296    21.5201   5  14   2.0211   2.0146   8.4387  -1.0437  -1.4798   2.2468   0.00    0.0
2161 359554.400   22.330455794  114.180880702    20.6659   5  14   2.0211   2.0146   8.4387  -1.0437  -1.4797   2.2467   0.00    0.0
2161 359554.500   22.330456536  114.180881527    19.7729   5  14   2.0211   2.0146   8.4386  -1.0437  -1.4797   2.2467   0.00    0.0
2161 359554.600   22.330455212  114.180883598    18.8118   5  14   2.0211   2.0147   8.4386  -1.0437  -1.4796   2.2466   0.00    0.0
2161 359554.700   22.330455448  114.180885696    17.7949   5  14   2.0211   2.0147   8.4385  -1.0437  -1.4796   2.2466   0.00    0.0
2161 359554.800   22.330454534  114.180885479    19.2142   5  14   2.0211   2.0147   8.4385  -1.0437  -1.4795   2.2466   0.00    0.0
2161 359554.900   22.330452947  114.180884582    20.0216   5  14   2.0211   2.0147   8.4384  -1.0437  -1.4794   2.2465   0.00    0.0
2161 359555.000   22.330453778  114.180883122    21.0041   5  14   2.0211   2.0147   8.4383  -1.0437  -1.4794   2.2465   0.00    0.0
2161 359555.100   22.330453807  114.180885007    19.6471   5  14   2.0211   2.0147   8.4383  -1.0437  -1.4793   2.2464   0.00    0.0
2161 359555.200   22.330454528  114.180887702    18.8303   5  14   2.0211   2.0147   8.4382  -1.0437  -1.4793   2.2464   0.00    0.0
2161 359555.300   22.330454513  114.180884755    18.3386   5  14   2.0211   2.0147   8.4382  -1.0438  -1.4792   2.2463   0.00    0.0
2161 359555.400   22.330457259  114.180886879    16.6738   5  14   2.0211   2.0147   8.4381  -1.0438  -1.4791   2.2463   0.00    0.0
2161 359555.500   22.330455644  114.180888808    16.3187   5  14   2.0211   2.0147   8.4381  -1.0438  -1.4791   2.2463   0.00    0.0
2161 359555.600   22.330456054  114.180888260    15.6867   5  14   2.0211   2.0147   8.4380  -1.0438  -1.4790   2.2462   0.00    0.0
2161 359555.700   22.330454947  114.180888614    16.0107   5  14   2.0211   2.0147   8.4380  -1.0438  -1.4789   2.2462   0.00    0.0
2161 359555.800   22.330453765  114.180891972    14.8181   5  14   2.0211   2.0147   8.4379  -1.0438  -1.4789   2.2461   0.00    0.0
2161 359555.900   22.330451550  114.180894377    13.4370   5  14   2.0210   2.0147   8.4379  -1.0438  -1.4788   2.2461   0.00    0.0
2161 359556.000   22.330450214  114.180895647    13.4416   5  14   2.0210   2.0148   8.4378  -1.0438  -1.4788   2.2460   0.00    0.0
2161 359556.100   22.330449076  114.180896744    12.7057   5  14   2.0210   2.0148   8.4378  -1.0438  -1.4787   2.2460   0.00    0.0
2161 359556.200   22.330449530  114.180895160    14.0057   5  14   2.0210   2.0148   8.4377  -1.0438  -1.4786   2.2460   0.00    0.0
2161 359556.300   22.330448883  114.180896872    12.8258   5  14   2.0210   2.0148   8.4377  -1.0438  -1.4786   2.2459   0.00    0.0
2161 359556.400   22.330447101  114.180897760    12.7975   5  14   2.0210   2.0148   8.4376  -1.0438  -1.4785   2.2459   0.00    0.0
2161 359556.500   22.330448621  114.180897305    12.7497   5  14   2.0210   2.0148   8.4376  -1.0438  -1.4785   2.2458   0.00    0.0
2161 359556.600   22.330449104  114.180897382    12.0064   5  14   2.0210   2.0148   8.4375  -1.0438  -1.4784   2.2458   0.00    0.0
2161 359556.700   22.330449399  114.180898319     9.5357   5  14   2.0210   2.0148   8.4375  -1.0439  -1.4783   2.2457   0.00    0.0
2161 359556.800   22.330447080  114.180899800     9.7987   5  14   2.0210   2.0148   8.4374  -1.0439  -1.4783   2.2457   0.00    0.0
2161 359556.900   22.330447115  114.180902429     8.3602   5  14   2.0210   2.0148   8.4374  -1.0439  -1.4782   2.2457   0.00    0.0
2161 359557.000   22.330448067  114.180901546     8.6751   5  14   2.0210   2.0148   8.4373  -1.0439  -1.4782   2.2456   0.00    0.0
2161 359557.100   22.330448817  114.180901043     9.6019   5  14   2.0210   2.0148   8.4373  -1.0439  -1.4781   2.2456   0.00    0.0
2161 359557.200   22.330446870  114.180903573     8.8710   5  14   2.0210   2.0148   8.4372  -1.0439  -1.4780   2.2455   0.00    0.0
2161 359557.300   22.330445442  114.180903993    10.7594   5  14   2.0210   2.0148   8.4372  -1.0439  -1.4780   2.2455   0.00    0.0
2161 359557.400   22.330444361  114.180904441    10.6129   5  14   2.0210   2.0149   8.4371  -1.0439  -1.4779   2.2454   0.00    0.0
2161 359557.500   22.330445740  114.180906707     9.3498   5  14   2.0210   2.0149   8.4371  -1.0439  -1.4779   2.2454   0.00    0.0
2161 359557.600   22.330444609  114.180907345     8.6727   5  14   2.0210   2.0149   8.4370  -1.0439  -1.4778   2.2454   0.00    0.0
2161 359557.700   22.330444700  114.180903260     6.9174   5  14   2.0210   2.0149   8.4370  -1.0439  -1.4777   2.2453   0.00    0.0
2161 359557.800   22.330444624  114.180899868    36.6098   5  13   2.0210   2.0150   9.1007  -1.0440  -1.5038   2.2477   0.00    0.0
2161 359557.900   22.330445560  114.180900195    36.9167   5  13   2.0210   2.0150   9.1007  -1.0440  -1.5038   2.2476   0.00    0.0
2161 359558.000   22.330444558  114.180902395    36.9676   5  13   2.0210   2.0150   9.1006  -1.0440  -1.5037   2.2476   0.00    0.0
2161 359558.100   22.330446099  114.180903129    37.1240   5  13   2.0210   2.0150   9.1006  -1.0440  -1.5037   2.2476   0.00    0.0
2161 359558.200   22.330445463  114.180900547    36.3503   5  13   2.0210   2.0150   9.1006  -1.0440  -1.5036   2.2475   0.00    0.0
2161 359558.300   22.330445947  114.180902042    36.7886   5  13   2.0210   2.0150   9.1005  -1.0440  -1.5035   2.2475   0.00    0.0
2161 359558.400   22.330447797  114.180900654    36.5104   5  13   2.0210   2.0151   9.1005  -1.0440  -1.5035   2.2475   0.00    0.0
2161 359558.500   22.330447973  114.180900716    36.0377   5  13   2.0210   2.0151   9.1004  -1.0440  -1.5034   2.2474   0.00    0.0
2161 359558.600   22.330447823  114.180901650    34.9670   5  13   2.0210   2.0151   9.1004  -1.0440  -1.5034   2.2474   0.00    0.0
2161 359558.700   22.330447184  114.180903534    34.4791   5  13   2.0210   2.0151   9.1004  -1.0440  -1.5033   2.2473   0.00    0.0
2161 359558.800   22.330448122  114.180903608    33.3246   5  13   2.0210   2.0151   9.1003  -1.0440  -1.5032   2.2473   0.00    0.0
2161 359558.900   22.330447201  114.180905220    34.1151   5  13   2.0210   2.0151   9.1003  -1.0440  -1.5032   2.2473   0.00    0.0
2161 359559.000   22.330446483  114.180903470    34.4698   5  13   2.0210   2.0151   9.1003  -1.0440  -1.5031   2.2472   0.00    0.0
2161 359559.100   22.330445518  114.180903363    33.8862   5  13   2.0210   2.0151   9.1002  -1.0441  -1.5031   2.2472   0.00    0.0
2161 359559.200   22.330444481  114.180904706    34.1485   5  13   2.0210   2.0151   9.1002  -1.0441  -1.5030   2.2472   0.00    0.0
2161 359559.300   22.330450602  114.180889044    32.6968   5  12   2.0817   2.2744   9.2518  -1.2714  -0.7066   2.0535   0.00    0.0
2161 359559.400   22.330449944  114.180886792    32.6724   5  12   2.0817   2.2744   9.2519  -1.2714  -0.7062   2.0535   0.00    0.0
2161 359559.500   22.330449997  114.180884644    32.8185   5  12   2.0817   2.2744   9.2519  -1.2714  -0.7059   2.0534   0.00    0.0
2161 359559.600   22.330449469  114.180885489    32.5830   5  12   2.0817   2.2745   9.2519  -1.2714  -0.7055   2.0533   0.00    0.0
2161 359559.700   22.330451125  114.180882958    32.0899   5  12   2.0816   2.2745   9.2519  -1.2714  -0.7052   2.0533   0.00    0.0
2161 359559.800   22.330450272  114.180884070    31.7893   5  12   2.0816   2.2745   9.2519  -1.2714  -0.7048   2.0532   0.00    0.0
2161 359559.900   22.330450698  114.180883178    31.2767   5  12   2.0816   2.2745   9.2519  -1.2714  -0.7045   2.0531   0.00    0.0
2161 359560.000   22.330451602  114.180884180    31.4720   5  12   2.0816   2.2745   9.2520  -1.2714  -0.7041   2.0531   0.00    0.0
2161 359560.100   22.330452492  114.180882120    31.3725   5  12   2.0816   2.2745   9.2520  -1.2714  -0.7038   2.0530   0.00    0.0
2161 359560.200   22.330452333  114.180881909    31.5152   5  12   2.0816   2.2745   9.2520  -1.2714  -0.7034   2.0529   0.00    0.0
2161 359560.300   22.330452681  114.180881643    32.2087   5  12   2.0816   2.2745   9.2520  -1.2714  -0.7031   2.0529   0.00    0.0
2161 359560.400   22.330452629  114.180880458    32.2331   5  12   2.0816   2.2745   9.2520  -1.2714  -0.7027   2.0528   0.00    0.0
2161 359560.500   22.330451444  114.180882995    32.2155   5  12   2.0816   2.2746   9.2520  -1.2714  -0.7024   2.0527   0.00    0.0
2161 359560.600   22.330451159  114.180884489    32.4250   5  12   2.0816   2.2746   9.2521  -1.2714  -0.7020   2.0527   0.00    0.0
2161 359560.700   22.330450433  114.180885408    32.0407   5  12   2.0816   2.2746   9.2521  -1.2714  -0.7017   2.0526   0.00    0.0
2161 359560.800   22.330450339  114.180885429    32.5634   5  12   2.0816   2.2746   9.2521  -1.2714  -0.7014   2.0525   0.00    0.0
2161 359560.900   22.330450079  114.180887099    32.6861   5  12   2.0816   2.2746   9.2521  -1.2714  -0.7010   2.0525   0.00    0.0
2161 359561.000   22.330444722  114.180904348    35.5903   5  13   2.0209   2.0152   9.0996  -1.0442  -1.5019   2.2465   0.00    0.0
2161 359561.100   22.330444427  114.180907042    35.0395   5  13   2.0209   2.0153   9.0995  -1.0442  -1.5019   2.2465   0.00    0.0
2161 359561.200   22.330446052  114.180908040    35.6588   5  13   2.0209   2.0153   9.0995  -1.0442  -1.5018   2.2465   0.00    0.0
2161 359561.300   22.330444765  114.180909071    36.0361   5  13   2.0209   2.0153   9.0995  -1.0442  -1.5018   2.2464   0.00    0.0
2161 359561.400   22.330445570  114.180907676    36.8385   5  13   2.0209   2.0153   9.0994  -1.0442  -1.5017   2.2464   0.00    0.0
2161 359561.500   22.330445322  114.180907512    37.5603   5  13   2.0209   2.0153   9.0994  -1.0442  -1.5016   2.2464   0.00    0.0
2161 359561.600   22.330445476  114.180905975    37.6639   5  13   2.0209   2.0153   9.0993  -1.0442  -1.5016   2.2463   0.00    0.0
2161 359561.700   22.330447570  114.180904733    37.4704   5  13   2.0209   2.0153   9.0993  -1.0442  -1.5015   2.2463   0.00    0.0
2161 359561.800   22.330449888  114.180902333    36.9845   5  13   2.0209   2.0153   9.0993  -1.0443  -1.5015   2.2463   0.00    0.0
2161 359561.900   22.330449030  114.180904746    37.3626   5  13   2.0209   2.0153   9.0992  -1.0443  -1.5014   2.2462   0.00    0.0
2161 359562.000   22.330447576  114.180904971    37.5400   5  13   2.0209   2.0153   9.0992  -1.0443  -1.5013   2.2462   0.00    0.0
2161 359562.100   22.330448134  114.180904803    36.7969   5  13   2.0209   2.0153   9.0992  -1.0443  -1.5013   2.2462   0.00    0.0
2161 359562.200   22.330448410  114.180903465    37.2662   5  13   2.0209   2.0153   9.0991  -1.0443  -1.5012   2.2461   0.00    0.0
2161 359562.300   22.330450154  114.180899773    36.5416   5  13   2.0209   2.0153   9.0991  -1.0443  -1.5012   2.2461   0.00    0.0
2161 359562.400   22.330449635  114.180900061    35.9996   5  13   2.0209   2.0153   9.0991  -1.0443  -1.5011   2.2461   0.00    0.0
2161 359562.500   22.330450724  114.180898290    36.0065   5  13   2.0209   2.0154   9.0990  -1.0443  -1.5010   2.2460   0.00    0.0
2161 359562.600   22.330453070  114.180895755    35.4039   5  13   2.0209   2.0154   9.0990  -1.0443  -1.5010   2.2460   0.00    0.0
2161 359562.700   22.330454872  114.180895418    36.2012   5  13   2.0209   2.0154   9.0990  -1.0443  -1.5009   2.2459   0.00    0.0
2161 359562.800   22.330456279  114.180894254    36.4443   5  13   2.0209   2.0154   9.0989  -1.0443  -1.5009   2.2459   0.00    0.0
2161 359562.900   22.330455877  114.180893255    36.4787   5  13   2.0209   2.0154   9.0989  -1.0443  -1.5008   2.2459   0.00    0.0
2161 359563.000   22.330456433  114.180893166    37.1510   5  13   2.0209   2.0154   9.0988  -1.0443  -1.5007   2.2458   0.00    0.0
2161 359563.100   22.330450194  114.180893419    33.7941   5  14   1.9292   2.0042   8.8623  -0.9813  -1.3470   1.9503   0.00    0.0
2161 359563.200   22.330448081  114.180892836    33.0486   5  14   1.9292   2.0042   8.8622  -0.9813  -1.3469   1.9503   0.00    0.0
2161 359563.300   22.330449789  114.180893653    33.9260   5  14   1.9292   2.0042   8.8622  -0.9813  -1.3468   1.9502   0.00    0.0
2161 359563.400   22.330449570  114.180893785    33.6728   5  14   1.9292   2.0042   8.8621  -0.9813  -1.3468   1.9502   0.00    0.0
2161 359563.500   22.330447547  114.180895908    32.8151   5  14   1.9292   2.0042   8.8621  -0.9813  -1.3467   1.9501   0.00    0.0
2161 359563.600   22.330449970  114.180895547    33.3624   5  14   1.9292   2.0042   8.8621  -0.9813  -1.3466   1.9501   0.00    0.0
2161 359563.700   22.330451965  114.180894064    33.1651   5  14   1.9292   2.0042   8.8620  -0.9813  -1.3466   1.9500   0.00    0.0
2161 359563.800   22.330451095  114.180895537    33.3933   5  14   1.9292   2.0042   8.8620  -0.9813  -1.3465   1.9500   0.00    0.0
2161 359563.900   22.330449283  114.180896548    32.6205   5  14   1.9292   2.0042   8.8619  -0.9813  -1.3464   1.9500   0.00    0.0
2161 359564.000   22.330452236  114.180894750    32.2838   5  14   1.9292   2.0042   8.8619  -0.9813  -1.3464   1.9499   0.00    0.0
2161 359564.100   22.330449829  114.180897377    32.7328   5  14   1.9292   2.0042   8.8618  -0.9813  -1.3463   1.9499   0.00    0.0
2161 359564.200   22.330449795  114.180897383    31.7161   5  14   1.9292   2.0043   8.8618  -0.9814  -1.3462   1.9498   0.00    0.0
2161 359564.300   22.330461456  114.180892375    35.5963   5  13   2.0208   2.0155   9.0984  -1.0444  -1.5000   2.2454   0.00    0.0
2161 359564.400   22.330461061  114.180894361    36.2011   5  13   2.0208   2.0155   9.0983  -1.0444  -1.4999   2.2453   0.00    0.0
2161 359564.500   22.330462213  114.180891276    36.0953   5  13   2.0208   2.0155   9.0983  -1.0444  -1.4999   2.2453   0.00    0.0
2161 359564.600   22.330461522  114.180890804    35.3941   5  13   2.0208   2.0155   9.0983  -1.0445  -1.4998   2.2453   0.00    0.0
2161 359564.700   22.330462746  114.180887433    35.7908   5  13   2.0208   2.0155   9.0982  -1.0445  -1.4997   2.2452   0.00    0.0
2161 359564.800   22.330462292  114.180887684    36.2899   5  13   2.0208   2.0155   9.0982  -1.0445  -1.4997   2.2452   0.00    0.0
2161 359564.900   22.330462998  114.180888024    36.8000   5  13   2.0208   2.0155   9.0982  -1.0445  -1.4996   2.2452   0.00    0.0
2161 359565.000   22.330463033  114.180888883    36.5266   5  13   2.0208   2.0155   9.0981  -1.0445  -1.4996   2.2451   0.00    0.0
2161 359565.100   22.330465433  114.180885779    36.3525   5  13   2.0208   2.0155   9.0981  -1.0445  -1.4995   2.2451   0.00    0.0
2161 359565.200   22.330464945  114.180886808    36.8815   5  13   2.0208   2.0155   9.0980  -1.0445  -1.4994   2.2451   0.00    0.0
2161 359565.300   22.330466709  114.180886540    36.9683   5  13   2.0208   2.0156   9.0980  -1.0445  -1.4994   2.2450   0.00    0.0
2161 359565.400   22.330465608  114.180886427    37.1455   5  13   2.0208   2.0156   9.0980  -1.0445  -1.4993   2.2450   0.00    0.0
2161 359565.500   22.330465632  114.180887013    37.6057   5  13   2.0208   2.0156   9.0979  -1.0445  -1.4993   2.2450   0.00    0.0
2161 359565.600   22.330468542  114.180884620    37.0162   5  13   2.0208   2.0156   9.0979  -1.0445  -1.4992   2.2449   0.00    0.0
2161 359565.700   22.330467774  114.180884380    37.2283   5  13   2.0208   2.0156   9.0979  -1.0445  -1.4991   2.2449   0.00    0.0
2161 359565.800   22.330468368  114.180886074    37.4886   5  13   2.0208   2.0156   9.0978  -1.0445  -1.4991   2.2449   0.00    0.0
2161 359565.900   22.330469391  114.180885727    37.8820   5  13   2.0208   2.0156   9.0978  -1.0445  -1.4990   2.2448   0.00    0.0
2161 359566.000   22.330469436  114.180886199    38.3261   5  13   2.0208   2.0156   9.0978  -1.0446  -1.4990   2.2448   0.00    0.0
2161 359566.100   22.330468544  114.180887239    38.1376   5  13   2.0208   2.0156   9.0977  -1.0446  -1.4989   2.2447   0.00    0.0
2161 359566.200   22.330470960  114.180885308    39.3190   5  13   2.0208   2.0156   9.0977  -1.0446  -1.4988   2.2447   0.00    0.0
2161 359566.300   22.330469223  114.180885281    39.2621   5  13   2.0208   2.0156   9.0976  -1.0446  -1.4988   2.2447   0.00    0.0
2161 359566.400   22.330467681  114.180886424    38.4571   5  13   2.0208   2.0156   9.0976  -1.0446  -1.4987   2.2446   0.00    0.0
2161 359566.500   22.330468994  114.180884895    38.6092   5  13   2.0208   2.0156   9.0976  -1.0446  -1.4987   2.2446   0.00    0.0
2161 359566.600   22.330469772  114.180883989    38.2414   5  13   2.0208   2.0157   9.0975  -1.0446  -1.4986   2.2446   0.00    0.0
2161 359566.700   22.330471088  114.180882983    39.2332   5  13   2.0208   2.0157   9.0975  -1.0446  -1.4985   2.2445   0.00    0.0
2161 359566.800   22.330471449  114.180881072    38.4830   5  13   2.0208   2.0157   9.0975  -1.0446  -1.4985   2.2445   0.00    0.0
2161 359566.900   22.330472126  114.180879526    38.8654   5  13   2.0208   2.0157   9.0974  -1.0446  -1.4984   2.2445   0.00    0.0
2161 359567.000   22.330473677  114.180878712    38.4440   5  13   2.0208   2.0157   9.0974  -1.0446  -1.4984   2.2444   0.00    0.0
2161 359567.100   22.330473449  114.180876956    38.2325   5  13   2.0207   2.0157   9.0973  -1.0446  -1.4983   2.2444   0.00    0.0
2161 359567.200   22.330473795  114.180876780    38.9852   5  13   2.0207   2.0157   9.0973  -1.0446  -1.4982   2.2444   0.00    0.0
2161 359567.300   22.330473234  114.180877359    39.2713   5  13   2.0207   2.0157   9.0973  -1.0446  -1.4982   2.2443   0.00    0.0
2161 359567.400   22.330472492  114.180875245    39.7553   5  13   2.0207   2.0157   9.0972  -1.0447  -1.4981   2.2443   0.00    0.0
2161 359567.500   22.330470203  114.180877256    39.7025   5  13   2.0207   2.0157   9.0972  -1.0447  -1.4981   2.2442   0.00    0.0
2161 359567.600   22.330467752  114.180878884    39.9539   5  13   2.0207   2.0157   9.0972  -1.0447  -1.4980   2.2442   0.00    0.0
2161 359567.700   22.330467517  114.180878835    39.6466   5  13   2.0207   2.0157   9.0971  -1.0447  -1.4979   2.2442   0.00    0.0
2161 359567.800   22.330467222  114.180879760    40.4684   5  13   2.0207   2.0157   9.0971  -1.0447  -1.4979   2.2441   0.00    0.0
2161 359567.900   22.330467528  114.180878129    39.4191   5  13   2.0207   2.0157   9.0971  -1.0447  -1.4978   2.2441   0.00    0.0
2161 359568.000   22.330465633  114.180878130    39.3291   5  13   2.0207   2.0158   9.0970  -1.0447  -1.4978   2.2441   0.00    0.0
2161 359568.100   22.330464366  114.180878932    39.7016   5  13   2.0207   2.0158   9.0970  -1.0447  -1.4977   2.2440   0.00    0.0
2161 359568.200   22.330462584  114.180878993    40.3548   5  13   2.0207   2.0158   9.0969  -1.0447  -1.4976   2.2440   0.00    0.0
2161 359568.300   22.330461845  114.180880833    39.7251   5  13   2.0207   2.0158   9.0969  -1.0447  -1.4976   2.2440   0.00    0.0
2161 359568.400   22.330462336  114.180878048    38.9081   5  13   2.0207   2.0158   9.0969  -1.0447  -1.4975   2.2439   0.00    0.0
2161 359568.500   22.330461521  114.180877950    38.1991   5  13   2.0207   2.0158   9.0968  -1.0447  -1.4975   2.2439   0.00    0.0
2161 359568.600   22.330458709  114.180878422    37.8833   5  13   2.0207   2.0158   9.0968  -1.0447  -1.4974   2.2439   0.00    0.0
2161 359568.700   22.330458703  114.180878203    38.4329   5  13   2.0207   2.0158   9.0968  -1.0447  -1.4973   2.2438   0.00    0.0
2161 359568.800   22.330458772  114.180877901    39.0021   5  13   2.0207   2.0158   9.0967  -1.0448  -1.4973   2.2438   0.00    0.0
2161 359568.900   22.330458573  114.180877062    39.4995   5  13   2.0207   2.0158   9.0967  -1.0448  -1.4972   2.2438   0.00    0.0
2161 359569.000   22.330456966  114.180878831    40.2454   5  13   2.0207   2.0158   9.0966  -1.0448  -1.4972   2.2437   0.00    0.0
2161 359569.100   22.330456651  114.180878770    40.6674   5  13   2.0207   2.0158   9.0966  -1.0448  -1.4971   2.2437   0.00    0.0
2161 359569.200   22.330457308  114.180879361    40.4527   5  13   2.0207   2.0158   9.0966  -1.0448  -1.4970   2.2436   0.00    0.0
2161 359569.300   22.330467153  114.180838610    32.2457   5  11   2.0996   2.3879  11.6523  -1.2385   1.0856   1.0182   0.00    0.0
2161 359569.400   22.330467205  114.180839307    31.9927   5  11   2.0996   2.3880  11.6521  -1.2385   1.0856   1.0182   0.00    0.0
2161 359569.500   22.330465688  114.180841515    32.6894   5  11   2.0996   2.3880  11.6520  -1.2385   1.0856   1.0181   0.00    0.0
2161 359569.600   22.330463561  114.180843378    32.0994   5  11   2.0996   2.3880  11.6519  -1.2386   1.0856   1.0180   0.00    0.0
2161 359569.700   22.330461915  114.180843756    31.6509   5  11   2.0996   2.3880  11.6518  -1.2386   1.0856   1.0179   0.00    0.0
2161 359569.800   22.330460496  114.180843628    32.2115   5  11   2.0996   2.3880  11.6516  -1.2386   1.0857   1.0179   0.00    0.0
2161 359569.900   22.330434005  114.180878278    28.2062   5  10   2.4030   2.8181  11.7002  -1.8119  -0.6459   1.5108   0.00    0.0
2161 359570.000   22.330432926  114.180875793    28.0878   5  10   2.4030   2.8181  11.7001  -1.8119  -0.6462   1.5108   0.00    0.0
2161 359570.100   22.330433387  114.180870977    25.7341   5  11   2.3469   2.8180   9.9243  -1.8158  -0.4997   2.3417   0.00    0.0
2161 359570.200   22.330422203  114.180883723    23.1319   5  12   2.1346   2.5814   9.7261  -1.4815   1.4072   1.8866   0.00    0.0
2161 359570.300   22.330419848  114.180883665    23.7382   5  12   2.1347   2.5814   9.7260  -1.4816   1.4072   1.8866   0.00    0.0
2161 359570.400   22.330419864  114.180872127    24.6072   5  12   2.1347   2.5814   9.7258  -1.4816   1.4072   1.8865   0.00    0.0
2161 359570.500   22.330421101  114.180869392    25.1121   5  12   2.1347   2.5815   9.7257  -1.4816   1.4072   1.8864   0.00    0.0
2161 359570.600   22.330420579  114.180869227    24.5505   5  12   2.1347   2.5815   9.7256  -1.4817   1.4072   1.8864   0.00    0.0
2161 359570.700   22.330414723  114.180867306    25.1474   5  12   2.1347   2.5815   9.7255  -1.4817   1.4072   1.8863   0.00    0.0
2161 359570.800   22.330384349  114.180887946     1.5156   5  13   1.9618   2.4949   7.8211  -1.2796   2.4112  -1.1432   0.00    0.0
2161 359570.900   22.330386290  114.180880607     4.3188   5  13   1.9618   2.4949   7.8210  -1.2796   2.4112  -1.1433   0.00    0.0
2161 359571.000   22.330384392  114.180875386     4.3937   5  13   1.9618   2.4949   7.8208  -1.2797   2.4112  -1.1433   0.00    0.0
2161 359571.100   22.330382549  114.180877899     4.2730   5  13   1.9618   2.4950   7.8206  -1.2797   2.4112  -1.1434   0.00    0.0
2161 359571.200   22.330381365  114.180875763     2.3737   5  13   1.9618   2.4950   7.8205  -1.2798   2.4112  -1.1435   0.00    0.0
2161 359571.300   22.330404889  114.180837481    -0.3974   5  14   1.8713   2.2750   7.7706  -1.0170   2.2163  -0.8883   0.00    0.0
2161 359571.400   22.330406642  114.180834635     2.4169   5  14   1.8713   2.2750   7.7704  -1.0170   2.2163  -0.8884   0.00    0.0
2161 359571.500   22.330403283  114.180835087     5.2322   5  14   1.8713   2.2750   7.7703  -1.0170   2.2163  -0.8884   0.00    0.0
2161 359571.600   22.330401287  114.180830590     2.9709   5  14   1.8713   2.2751   7.7701  -1.0171   2.2163  -0.8885   0.00    0.0
2161 359571.700   22.330393064  114.180864367    14.5636   5  15   1.8407   1.9369   6.8828  -0.7950   0.7804   0.6529   0.00    0.0
2161 359571.800   22.330398780  114.180825882     1.3439   5  14   1.8713   2.2751   7.7698  -1.0171   2.2163  -0.8887   0.00    0.0
2161 359571.900   22.330402936  114.180821872     4.3606   5  14   1.8713   2.2751   7.7696  -1.0172   2.2163  -0.8888   0.00    0.0
2161 359572.000   22.330398922  114.180824005     9.7280   5  14   1.8713   2.2751   7.7695  -1.0172   2.2163  -0.8889   0.00    0.0
2161 359572.100   22.330398945  114.180829371     9.9223   5  14   1.8713   2.2752   7.7693  -1.0173   2.2163  -0.8890   0.00    0.0
2161 359572.200   22.330399914  114.180832808    10.1065   5  14   1.8714   2.2752   7.7691  -1.0173   2.2164  -0.8891   0.00    0.0
2161 359572.300   22.330397713  114.180832124    12.1132   5  14   1.8714   2.2752   7.7690  -1.0173   2.2164  -0.8892   0.00    0.0
2161 359572.400   22.330394933  114.180830540    12.8877   5  14   1.8714   2.2752   7.7688  -1.0174   2.2164  -0.8893   0.00    0.0
2161 359572.500   22.330390630  114.180831070    12.8314   5  14   1.8714   2.2752   7.7686  -1.0174   2.2164  -0.8894   0.00    0.0
2161 359572.600   22.330387806  114.180832497    12.5286   5  14   1.8714   2.2753   7.7685  -1.0174   2.2164  -0.8895   0.00    0.0
2161 359572.700   22.330388442  114.180830257    13.5413   5  14   1.8714   2.2753   7.7683  -1.0175   2.2164  -0.8896   0.00    0.0
2161 359572.800   22.330388761  114.180829551    13.0008   5  14   1.8714   2.2753   7.7682  -1.0175   2.2164  -0.8897   0.00    0.0
2161 359572.900   22.330387477  114.180830022    13.1255   5  14   1.8714   2.2753   7.7680  -1.0176   2.2164  -0.8898   0.00    0.0
2161 359573.000   22.330386906  114.180832070    14.5657   5  14   1.8714   2.2753   7.7678  -1.0176   2.2164  -0.8899   0.00    0.0
2161 359573.100   22.330384676  114.180829705    13.6082   5  14   1.8714   2.2753   7.7677  -1.0176   2.2164  -0.8900   0.00    0.0
2161 359573.200   22.330380341  114.180834945    18.0556   5  15   1.8578   2.2554   7.2531  -0.9837   2.0191  -0.4051   0.00    0.0
2161 359573.300   22.330376179  114.180837301    17.8047   5  15   1.8578   2.2554   7.2530  -0.9838   2.0191  -0.4053   0.00    0.0
2161 359573.400   22.330377228  114.180836194    16.3145   5  15   1.8578   2.2555   7.2529  -0.9838   2.0191  -0.4056   0.00    0.0
2161 359573.500   22.330376116  114.180834990    15.8927   5  15   1.8578   2.2555   7.2527  -0.9838   2.0191  -0.4058   0.00    0.0
2161 359573.600   22.330379720  114.180837253    17.6457   5  15   1.8578   2.2555   7.2526  -0.9839   2.0191  -0.4061   0.00    0.0
2161 359573.700   22.330375177  114.180839931    17.4688   5  15   1.8578   2.2555   7.2524  -0.9839   2.0192  -0.4063   0.00    0.0
2161 359573.800   22.330375013  114.180839505    18.6170   5  15   1.8578   2.2555   7.2523  -0.9839   2.0192  -0.4065   0.00    0.0
2161 359573.900   22.330372959  114.180844625    19.1477   5  15   1.8578   2.2555   7.2521  -0.9840   2.0192  -0.4068   0.00    0.0
2161 359574.000   22.330370955  114.180843160    19.4598   5  15   1.8578   2.2556   7.2520  -0.9840   2.0192  -0.4070   0.00    0.0
2161 359574.100   22.330366862  114.180843105    19.3372   5  15   1.8578   2.2556   7.2519  -0.9841   2.0192  -0.4072   0.00    0.0
2161 359574.200   22.330366896  114.180845607    18.7259   5  15   1.8579   2.2556   7.2517  -0.9841   2.0192  -0.4075   0.00    0.0
2161 359574.300   22.330367020  114.180845844    19.9646   5  15   1.8579   2.2556   7.2516  -0.9841   2.0192  -0.4077   0.00    0.0
2161 359574.400   22.330366010  114.180844463    19.6292   5  15   1.8579   2.2556   7.2514  -0.9842   2.0192  -0.4079   0.00    0.0
2161 359574.500   22.330362788  114.180841070    21.2176   5  15   1.8579   2.2557   7.2513  -0.9842   2.0193  -0.4082   0.00    0.0
2161 359574.600   22.330363096  114.180840378    24.3514   5  15   1.8579   2.2557   7.2511  -0.9843   2.0193  -0.4084   0.00    0.0
2161 359574.700   22.330359934  114.180838977    24.6302   5  15   1.8579   2.2557   7.2510  -0.9843   2.0193  -0.4086   0.00    0.0
2161 359574.800   22.330359363  114.180840827    24.4639   5  15   1.8579   2.2557   7.2509  -0.9843   2.0193  -0.4089   0.00    0.0
2161 359574.900   22.330357512  114.180837621    22.6205   5  15   1.8579   2.2557   7.2507  -0.9844   2.0193  -0.4091   0.00    0.0
2161 359575.000   22.330357248  114.180834260    20.6229   5  15   1.8579   2.2558   7.2506  -0.9844   2.0193  -0.4094   0.00    0.0
2161 359575.100   22.330362378  114.180840141    25.3891   5  16   1.8218   2.0907   6.5098  -1.1306   1.1720  -1.1543   0.00    0.0
2161 359575.200   22.330359537  114.180837178    23.9536   5  16   1.8218   2.0907   6.5097  -1.1306   1.1721  -1.1543   0.00    0.0
2161 359575.300   22.330358190  114.180839606    23.5433   5  16   1.8218   2.0907   6.5097  -1.1306   1.1722  -1.1544   0.00    0.0
2161 359575.400   22.330358349  114.180835646    22.4649   5  16   1.8218   2.0908   6.5096  -1.1306   1.1722  -1.1544   0.00    0.0
2161 359575.500   22.330356094  114.180834596    22.3994   5  16   1.8218   2.0908   6.5095  -1.1307   1.1723  -1.1544   0.00    0.0
2161 359575.600   22.330352450  114.180831865    20.9005   5  16   1.8218   2.0908   6.5095  -1.1307   1.1724  -1.1545   0.00    0.0
2161 359575.700   22.330348394  114.180825205    17.6419   5  16   1.8219   2.0908   6.5094  -1.1307   1.1724  -1.1545   0.00    0.0
2161 359575.800   22.330345141  114.180821810    16.1303   5  16   1.8219   2.0908   6.5093  -1.1308   1.1725  -1.1545   0.00    0.0
2161 359575.900   22.330342889  114.180813626    16.8200   5  16   1.8219   2.0908   6.5092  -1.1308   1.1726  -1.1545   0.00    0.0
2161 359576.000   22.330339776  114.180811588    17.2941   5  16   1.8219   2.0908   6.5092  -1.1308   1.1726  -1.1546   0.00    0.0
2161 359576.100   22.330337764  114.180815082    17.1616   5  16   1.8219   2.0909   6.5091  -1.1309   1.1727  -1.1546   0.00    0.0
2161 359576.200   22.330335901  114.180811683    16.5456   5  16   1.8219   2.0909   6.5090  -1.1309   1.1728  -1.1546   0.00    0.0
2161 359576.300   22.330333414  114.180809351    16.2873   5  16   1.8219   2.0909   6.5090  -1.1309   1.1729  -1.1547   0.00    0.0
2161 359576.400   22.330331580  114.180807352    15.0372   5  16   1.8220   2.0909   6.5089  -1.1309   1.1729  -1.1547   0.00    0.0
2161 359576.500   22.330333428  114.180807675    16.1893   5  16   1.8220   2.0909   6.5088  -1.1310   1.1730  -1.1547   0.00    0.0
2161 359576.600   22.330330473  114.180807116    16.3132   5  16   1.8220   2.0909   6.5088  -1.1310   1.1731  -1.1548   0.00    0.0
2161 359576.700   22.330326916  114.180807550    15.7840   5  16   1.8220   2.0909   6.5087  -1.1310   1.1731  -1.1548   0.00    0.0
2161 359576.800   22.330327733  114.180801838    15.3552   5  16   1.8220   2.0910   6.5086  -1.1311   1.1732  -1.1548   0.00    0.0
2161 359576.900   22.330329906  114.180795686    13.5468   5  16   1.8220   2.0910   6.5086  -1.1311   1.1733  -1.1549   0.00    0.0
2161 359577.000   22.330328809  114.180796209    15.1364   5  16   1.8220   2.0910   6.5085  -1.1311   1.1733  -1.1549   0.00    0.0
2161 359577.100   22.330329089  114.180793982    14.4329   5  16   1.8221   2.0910   6.5084  -1.1311   1.1734  -1.1549   0.00    0.0
2161 359577.200   22.330327847  114.180790889    13.6942   5  16   1.8221   2.0910   6.5084  -1.1312   1.1735  -1.1550   0.00    0.0
2161 359577.300   22.330327850  114.180791226    12.7649   5  16   1.8221   2.0910   6.5083  -1.1312   1.1736  -1.1550   0.00    0.0
2161 359577.400   22.330330196  114.180788221    14.5817   5  15   1.9099   2.1430   7.8917  -1.2443  -0.8467   1.1050   0.00    0.0
2161 359577.500   22.330330810  114.180789326    15.1947   5  15   1.9099   2.1431   7.8917  -1.2443  -0.8465   1.1049   0.00    0.0
2161 359577.600   22.330332183  114.180789767    16.4228   5  15   1.9099   2.1431   7.8916  -1.2443  -0.8464   1.1049   0.00    0.0
2161 359577.700   22.330330438  114.180792014    17.1750   5  15   1.9099   2.1431   7.8916  -1.2444  -0.8463   1.1049   0.00    0.0
2161 359577.800   22.330331738  114.180787529    17.8580   5  15   1.9099   2.1431   7.8916  -1.2444  -0.8462   1.1048   0.00    0.0
2161 359577.900   22.330330899  114.180788367    17.7840   5  15   1.9100   2.1431   7.8916  -1.2444  -0.8460   1.1048   0.00    0.0
2161 359578.000   22.330329706  114.180787585    17.6367   5  15   1.9100   2.1431   7.8916  -1.2444  -0.8459   1.1047   0.00    0.0
2161 359578.100   22.330326387  114.180791226    16.3895   5  14   2.0146   2.2308   8.0347  -1.3948  -1.2847   1.4792   0.00    0.0
2161 359578.200   22.330325912  114.180791925    15.4234   5  14   2.0146   2.2308   8.0347  -1.3949  -1.2847   1.4792   0.00    0.0
2161 359578.300   22.330324496  114.180789763    16.7305   5  15   1.8789   2.1424   6.5113  -1.2221   1.1301  -1.1112   0.00    0.0
2161 359578.400   22.330324447  114.180786270    16.5621   5  15   1.8789   2.1424   6.5112  -1.2221   1.1301  -1.1112   0.00    0.0
2161 359578.500   22.330325671  114.180782672    17.2148   5  15   1.8789   2.1425   6.5111  -1.2222   1.1302  -1.1112   0.00    0.0
2161 359578.600   22.330325864  114.180782719    16.8982   5  15   1.8789   2.1425   6.5111  -1.2222   1.1303  -1.1112   0.00    0.0
2161 359578.700   22.330327391  114.180780561    16.2633   5  15   1.8789   2.1425   6.5110  -1.2222   1.1303  -1.1112   0.00    0.0
2161 359578.800   22.330326779  114.180777149    15.5849   5  15   1.8789   2.1425   6.5109  -1.2223   1.1304  -1.1113   0.00    0.0
2161 359578.900   22.330334207  114.180771058    15.6933   5  16   1.8132   2.1286   6.5073  -1.1720   1.1535  -1.1581   0.00    0.0
2161 359579.000   22.330331961  114.180774205    15.6387   5  16   1.8132   2.1286   6.5072  -1.1721   1.1536  -1.1581   0.00    0.0
2161 359579.100   22.330332704  114.180770889    15.8318   5  16   1.8132   2.1286   6.5072  -1.1721   1.1536  -1.1581   0.00    0.0
2161 359579.200   22.330333250  114.180770320    16.4169   5  16   1.8132   2.1286   6.5071  -1.1721   1.1537  -1.1581   0.00    0.0
2161 359579.300   22.330332962  114.180772764    16.8413   5  16   1.8133   2.1286   6.5070  -1.1721   1.1538  -1.1582   0.00    0.0
2161 359579.400   22.330330716  114.180776298    17.6707   5  16   1.8133   2.1286   6.5070  -1.1722   1.1538  -1.1582   0.00    0.0
2161 359579.500   22.330332418  114.180772250    17.5225   5  16   1.8133   2.1286   6.5069  -1.1722   1.1539  -1.1582   0.00    0.0
2161 359579.600   22.330332236  114.180768492    17.5570   5  16   1.8133   2.1287   6.5068  -1.1722   1.1539  -1.1582   0.00    0.0
2161 359579.700   22.330334085  114.180767903    18.3453   5  16   1.8133   2.1287   6.5068  -1.1723   1.1540  -1.1583   0.00    0.0
2161 359579.800   22.330333543  114.180770306    18.2064   5  16   1.8133   2.1287   6.5067  -1.1723   1.1541  -1.1583   0.00    0.0
2161 359579.900   22.330333046  114.180771645    18.4450   5  16   1.8133   2.1287   6.5066  -1.1723   1.1541  -1.1583   0.00    0.0
2161 359580.000   22.330334365  114.180767989    17.8940   5  16   1.8133   2.1287   6.5066  -1.1723   1.1542  -1.1583   0.00    0.0
2161 359580.100   22.330335383  114.180768123    18.8758   5  16   1.8134   2.1287   6.5065  -1.1724   1.1543  -1.1584   0.00    0.0
2161 359580.200   22.330336347  114.180765350    18.7642   5  16   1.8134   2.1287   6.5064  -1.1724   1.1543  -1.1584   0.00    0.0
2161 359580.300   22.330335475  114.180765446    18.5347   5  16   1.8134   2.1288   6.5064  -1.1724   1.1544  -1.1584   0.00    0.0
2161 359580.400   22.330336020  114.180763852    18.4053   5  16   1.8134   2.1288   6.5063  -1.1724   1.1544  -1.1584   0.00    0.0
2161 359580.500   22.330337089  114.180759145    17.2824   5  16   1.8134   2.1288   6.5062  -1.1725   1.1545  -1.1585   0.00    0.0
2161 359580.600   22.330335521  114.180761863    17.7940   5  16   1.8134   2.1288   6.5062  -1.1725   1.1546  -1.1585   0.00    0.0
2161 359580.700   22.330335673  114.180761657    18.0151   5  16   1.8134   2.1288   6.5061  -1.1725   1.1546  -1.1585   0.00    0.0
2161 359580.800   22.330337561  114.180756255    17.3034   5  16   1.8135   2.1288   6.5060  -1.1726   1.1547  -1.1585   0.00    0.0
2161 359580.900   22.330338394  114.180756494    18.1371   5  16   1.8135   2.1288   6.5060  -1.1726   1.1548  -1.1586   0.00    0.0
2161 359581.000   22.330337727  114.180756207    18.1418   5  16   1.8135   2.1289   6.5059  -1.1726   1.1548  -1.1586   0.00    0.0
2161 359581.100   22.330337766  114.180756367    18.2923   5  16   1.8135   2.1289   6.5058  -1.1726   1.1549  -1.1586   0.00    0.0
2161 359581.200   22.330338221  114.180753351    18.2906   5  16   1.8135   2.1289   6.5058  -1.1727   1.1549  -1.1586   0.00    0.0
2161 359581.300   22.330338958  114.180751444    18.6395   5  16   1.8135   2.1289   6.5057  -1.1727   1.1550  -1.1587   0.00    0.0
2161 359581.400   22.330338841  114.180754489    19.9068   5  16   1.8135   2.1289   6.5056  -1.1727   1.1551  -1.1587   0.00    0.0
2161 359581.500   22.330340219  114.180753686    19.9292   5  16   1.8135   2.1289   6.5056  -1.1728   1.1551  -1.1587   0.00    0.0
2161 359581.600   22.330340075  114.180753240    19.7651   5  16   1.8136   2.1290   6.5055  -1.1728   1.1552  -1.1587   0.00    0.0
2161 359581.700   22.330340478  114.180751519    20.1235   5  16   1.8136   2.1290   6.5054  -1.1728   1.1553  -1.1588   0.00    0.0
2161 359581.800   22.330343121  114.180748524    20.3673   5  16   1.8136   2.1290   6.5054  -1.1728   1.1553  -1.1588   0.00    0.0
2161 359581.900   22.330343591  114.180747045    20.1965   5  16   1.8136   2.1290   6.5053  -1.1729   1.1554  -1.1588   0.00    0.0
2161 359582.000   22.330341786  114.180746879    19.7876   5  16   1.8136   2.1290   6.5052  -1.1729   1.1554  -1.1588   0.00    0.0
2161 359582.100   22.330341199  114.180747028    19.9163   5  16   1.8136   2.1290   6.5052  -1.1729   1.1555  -1.1589   0.00    0.0
2161 359582.200   22.330341496  114.180746216    19.8138   5  16   1.8136   2.1290   6.5051  -1.1730   1.1556  -1.1589   0.00    0.0
2161 359582.300   22.330340614  114.180747488    19.9206   5  16   1.8137   2.1291   6.5050  -1.1730   1.1556  -1.1589   0.00    0.0
2161 359582.400   22.330340509  114.180748295    19.7502   5  16   1.8137   2.1291   6.5049  -1.1730   1.1557  -1.1589   0.00    0.0
2161 359582.500   22.330338960  114.180748732    20.5904   5  16   1.8137   2.1291   6.5049  -1.1730   1.1557  -1.1590   0.00    0.0
2161 359582.600   22.330337900  114.180750283    20.9645   5  16   1.8137   2.1291   6.5048  -1.1731   1.1558  -1.1590   0.00    0.0
2161 359582.700   22.330336863  114.180750901    20.8055   5  16   1.8137   2.1291   6.5047  -1.1731   1.1559  -1.1590   0.00    0.0
2161 359582.800   22.330336642  114.180750929    21.2193   5  16   1.8137   2.1291   6.5047  -1.1731   1.1559  -1.1590   0.00    0.0
2161 359582.900   22.330336626  114.180750373    21.4237   5  16   1.8137   2.1291   6.5046  -1.1732   1.1560  -1.1591   0.00    0.0
2161 359583.000   22.330336731  114.180751368    21.5664   5  16   1.8137   2.1292   6.5045  -1.1732   1.1561  -1.1591   0.00    0.0
2161 359583.100   22.330337200  114.180748002    21.1684   5  16   1.8138   2.1292   6.5045  -1.1732   1.1561  -1.1591   0.00    0.0
2161 359583.200   22.330338283  114.180746505    21.9412   5  16   1.8138   2.1292   6.5044  -1.1732   1.1562  -1.1591   0.00    0.0
2161 359583.300   22.330338014  114.180747588    21.6536   5  16   1.8138   2.1292   6.5043  -1.1733   1.1562  -1.1592   0.00    0.0
2161 359583.400   22.330337880  114.180748011    21.8547   5  16   1.8138   2.1292   6.5043  -1.1733   1.1563  -1.1592   0.00    0.0
2161 359583.500   22.330338901  114.180748020    22.3879   5  16   1.8138   2.1292   6.5042  -1.1733   1.1564  -1.1592   0.00    0.0
2161 359583.600   22.330338172  114.180748038    22.3464   5  16   1.8138   2.1292   6.5041  -1.1734   1.1564  -1.1592   0.00    0.0
2161 359583.700   22.330338159  114.180747903    22.2317   5  16   1.8138   2.1293   6.5041  -1.1734   1.1565  -1.1593   0.00    0.0
2161 359583.800   22.330338814  114.180747050    22.5076   5  16   1.8139   2.1293   6.5040  -1.1734   1.1566  -1.1593   0.00    0.0
2161 359583.900   22.330338658  114.180746643    23.0469   5  16   1.8139   2.1293   6.5039  -1.1734   1.1566  -1.1593   0.00    0.0
2161 359584.000   22.330339116  114.180745393    23.1807   5  16   1.8139   2.1293   6.5039  -1.1735   1.1567  -1.1593   0.00    0.0
2161 359584.100   22.330339524  114.180745887    23.6542   5  16   1.8139   2.1293   6.5038  -1.1735   1.1567  -1.1594   0.00    0.0
2161 359584.200   22.330338629  114.180744791    23.7484   5  16   1.8139   2.1293   6.5037  -1.1735   1.1568  -1.1594   0.00    0.0
2161 359584.300   22.330372393  114.180675857     7.6218   5  17   1.7459   1.8950   6.1468  -0.9484  -0.8516  -0.5466   0.00    0.0
2161 359584.400   22.330371603  114.180677759     9.3726   5  17   1.7459   1.8950   6.1467  -0.9484  -0.8515  -0.5467   0.00    0.0
2161 359584.500   22.330370156  114.180681296    10.6525   5  17   1.7459   1.8950   6.1467  -0.9484  -0.8514  -0.5467   0.00    0.0
2161 359584.600   22.330369229  114.180685733    12.2686   5  17   1.7459   1.8950   6.1466  -0.9484  -0.8513  -0.5467   0.00    0.0
2161 359584.700   22.330364552  114.180691268    13.3173   5  17   1.7460   1.8950   6.1466  -0.9484  -0.8512  -0.5468   0.00    0.0
2161 359584.800   22.330362976  114.180692774    13.5546   5  17   1.7460   1.8950   6.1465  -0.9485  -0.8511  -0.5468   0.00    0.0
2161 359584.900   22.330363882  114.180689693    13.0790   5  17   1.7460   1.8950   6.1465  -0.9485  -0.8510  -0.5468   0.00    0.0
2161 359585.000   22.330363177  114.180693128    13.7403   5  17   1.7460   1.8950   6.1464  -0.9485  -0.8509  -0.5469   0.00    0.0
2161 359585.100   22.330361207  114.180695291    13.9247   5  17   1.7460   1.8950   6.1464  -0.9485  -0.8508  -0.5469   0.00    0.0
2161 359585.200   22.330359653  114.180697892    14.5855   5  17   1.7460   1.8950   6.1463  -0.9485  -0.8508  -0.5469   0.00    0.0
2161 359585.300   22.330356349  114.180703819    15.4320   5  17   1.7460   1.8950   6.1463  -0.9485  -0.8507  -0.5470   0.00    0.0
2161 359585.400   22.330355658  114.180705753    15.4147   5  17   1.7460   1.8951   6.1462  -0.9486  -0.8506  -0.5470   0.00    0.0
2161 359585.500   22.330353247  114.180708780    16.2984   5  17   1.7460   1.8951   6.1461  -0.9486  -0.8505  -0.5470   0.00    0.0
2161 359585.600   22.330351981  114.180710138    17.3854   5  17   1.7460   1.8951   6.1461  -0.9486  -0.8504  -0.5471   0.00    0.0
2161 359585.700   22.330350203  114.180711955    17.8644   5  17   1.7460   1.8951   6.1460  -0.9486  -0.8503  -0.5471   0.00    0.0
2161 359585.800   22.330349383  114.180714745    19.2053   5  17   1.7460   1.8951   6.1460  -0.9486  -0.8502  -0.5471   0.00    0.0
2161 359585.900   22.330347964  114.180714160    19.3706   5  17   1.7460   1.8951   6.1459  -0.9487  -0.8501  -0.5471   0.00    0.0
2161 359586.000   22.330346485  114.180715648    20.4711   5  17   1.7461   1.8951   6.1459  -0.9487  -0.8500  -0.5472   0.00    0.0
2161 359586.100   22.330344940  114.180715978    21.7534   5  17   1.7461   1.8951   6.1458  -0.9487  -0.8499  -0.5472   0.00    0.0
2161 359586.200   22.330344095  114.180714267    21.2257   5  17   1.7461   1.8951   6.1458  -0.9487  -0.8499  -0.5472   0.00    0.0
2161 359586.300   22.330341223  114.180715468    20.3722   5  17   1.7461   1.8951   6.1457  -0.9487  -0.8498  -0.5473   0.00    0.0
2161 359586.400   22.330339183  114.180715416    21.3392   5  17   1.7461   1.8951   6.1457  -0.9488  -0.8497  -0.5473   0.00    0.0
2161 359586.500   22.330338812  114.180717608    21.8130   5  17   1.7461   1.8951   6.1456  -0.9488  -0.8496  -0.5473   0.00    0.0
2161 359586.600   22.330337002  114.180718925    22.0759   5  17   1.7461   1.8951   6.1456  -0.9488  -0.8495  -0.5474   0.00    0.0
2161 359586.700   22.330334440  114.180722914    22.9942   5  17   1.7461   1.8951   6.1455  -0.9488  -0.8494  -0.5474   0.00    0.0
2161 359586.800   22.330335048  114.180722766    22.8865   5  17   1.7461   1.8951   6.1454  -0.9488  -0.8493  -0.5474   0.00    0.0
2161 359586.900   22.330335982  114.180722246    23.5095   5  17   1.7461   1.8952   6.1454  -0.9488  -0.8492  -0.5475   0.00    0.0
2161 359587.000   22.330328501  114.180741158    27.0175   5  16   1.8143   2.1297   6.5018  -1.1743   1.1585  -1.1601   0.00    0.0
2161 359587.100   22.330327851  114.180741964    27.6803   5  16   1.8143   2.1298   6.5018  -1.1743   1.1586  -1.1601   0.00    0.0
2161 359587.200   22.330325682  114.180745208    26.3611   5  16   1.8143   2.1298   6.5017  -1.1744   1.1587  -1.1601   0.00    0.0
2161 359587.300   22.330325592  114.180746868    25.8427   5  16   1.8143   2.1298   6.5016  -1.1744   1.1587  -1.1601   0.00    0.0
2161 359587.400   22.330325959  114.180746310    25.4080   5  16   1.8143   2.1298   6.5016  -1.1744   1.1588  -1.1602   0.00    0.0
2161 359587.500   22.330324648  114.180747220    24.6564   5  16   1.8144   2.1298   6.5015  -1.1744   1.1588  -1.1602   0.00    0.0
2161 359587.600   22.330326285  114.180746401    24.9759   5  16   1.8144   2.1298   6.5014  -1.1745   1.1589  -1.1602   0.00    0.0
2161 359587.700   22.330327480  114.180744788    25.2719   5  16   1.8144   2.1298   6.5014  -1.1745   1.1590  -1.1602   0.00    0.0
2161 359587.800   22.330326708  114.180745165    24.5721   5  16   1.8144   2.1299   6.5013  -1.1745   1.1590  -1.1603   0.00    0.0
2161 359587.900   22.330326022  114.180746273    24.1679   5  16   1.8144   2.1299   6.5012  -1.1746   1.1591  -1.1603   0.00    0.0
2161 359588.000   22.330326684  114.180745007    24.5229   5  16   1.8144   2.1299   6.5012  -1.1746   1.1592  -1.1603   0.00    0.0
2161 359588.100   22.330325463  114.180743870    24.0775   5  16   1.8144   2.1299   6.5011  -1.1746   1.1592  -1.1603   0.00    0.0
2161 359588.200   22.330320628  114.180745987    22.4501   5  16   1.8144   2.1299   6.5010  -1.1746   1.1593  -1.1604   0.00    0.0
2161 359588.300   22.330319479  114.180746865    22.5216   5  16   1.8145   2.1299   6.5010  -1.1747   1.1593  -1.1604   0.00    0.0
2161 359588.400   22.330324577  114.180737644    21.7764   5  17   1.7462   1.8953   6.1446  -0.9491  -0.8479  -0.5480   0.00    0.0
2161 359588.500   22.330318441  114.180731155    18.8460   5  16   1.8035   1.9597   6.5202  -0.8224   0.6068   0.8264   0.00    0.0
2161 359588.600   22.330317871  114.180728837    18.1630   5  16   1.8035   1.9597   6.5201  -0.8224   0.6069   0.8264   0.00    0.0
2161 359588.700   22.330318390  114.180728829    17.8731   5  16   1.8035   1.9597   6.5200  -0.8224   0.6070   0.8263   0.00    0.0
2161 359588.800   22.330317044  114.180729774    17.1033   5  16   1.8035   1.9597   6.5199  -0.8224   0.6071   0.8262   0.00    0.0
2161 359588.900   22.330316560  114.180731197    17.7532   5  16   1.8035   1.9597   6.5199  -0.8224   0.6072   0.8261   0.00    0.0
2161 359589.200   22.330316585  114.180728922    17.5016   5  16   1.8035   1.9597   6.5196  -0.8225   0.6075   0.8259   0.00    0.0
2161 359589.300   22.330317536  114.180726652    17.5879   5  16   1.8035   1.9598   6.5195  -0.8225   0.6076   0.8259   0.00    0.0
2161 359589.400   22.330314640  114.180725434    17.5660   5  16   1.8035   1.9598   6.5194  -0.8225   0.6077   0.8258   0.00    0.0
2161 359589.700   22.330310741  114.180731469    17.6240   5  15   1.8384   2.3133   7.2172  -1.0558   2.0434  -0.6499   0.00    0.0
2161 359589.800   22.330310146  114.180731115    17.6590   5  15   1.8385   2.3133   7.2170  -1.0559   2.0434  -0.6500   0.00    0.0
2161 359589.900   22.330310719  114.180728367    18.5840   5  15   1.8385   2.3133   7.2169  -1.0559   2.0434  -0.6501   0.00    0.0
2161 359590.000   22.330307496  114.180729770    18.8693   5  16   1.8036   1.9598   6.5188  -0.8227   0.6083   0.8254   0.00    0.0
2161 359590.300   22.330306845  114.180722631    20.0413   5  16   1.8036   1.9599   6.5185  -0.8227   0.6086   0.8251   0.00    0.0
2161 359590.400   22.330307068  114.180720928    20.1298   5  16   1.8036   1.9599   6.5184  -0.8227   0.6087   0.8251   0.00    0.0
2161 359590.500   22.330307099  114.180717202    18.9467   5  16   1.8036   1.9599   6.5183  -0.8228   0.6088   0.8250   0.00    0.0
2161 359590.600   22.330305480  114.180716194    19.3826   5  16   1.8036   1.9599   6.5182  -0.8228   0.6089   0.8249   0.00    0.0
2161 359591.000   22.330297323  114.180697264    25.6135   5  15   1.8412   2.0098   7.2340  -0.7159  -1.0121  -0.6936   0.00    0.0
2161 359591.100   22.330297271  114.180694874    25.8599   5  15   1.8412   2.0098   7.2339  -0.7159  -1.0120  -0.6937   0.00    0.0
2161 359591.200   22.330297271  114.180693862    25.1322   5  15   1.8412   2.0098   7.2338  -0.7160  -1.0119  -0.6938   0.00    0.0
2161 359591.600   22.330299638  114.180688599    25.2345   5  15   1.8412   2.0098   7.2333  -0.7161  -1.0116  -0.6941   0.00    0.0
2161 359591.700   22.330298290  114.180685039    24.8540   5  15   1.8412   2.0098   7.2332  -0.7161  -1.0115  -0.6941   0.00    0.0
2161 359591.800   22.330298158  114.180684087    24.4363   5  15   1.8412   2.0098   7.2331  -0.7161  -1.0114  -0.6942   0.00    0.0
2161 359591.900   22.330297046  114.180681817    24.1561   5  15   1.8412   2.0098   7.2330  -0.7162  -1.0113  -0.6943   0.00    0.0
2161 359592.000   22.330297887  114.180682145    23.8182   5  15   1.8412   2.0098   7.2329  -0.7162  -1.0112  -0.6944   0.00    0.0
2161 359592.100   22.330297685  114.180680529    22.4820   5  15   1.8412   2.0099   7.2328  -0.7162  -1.0111  -0.6944   0.00    0.0
2161 359592.200   22.330298355  114.180680173    22.6815   5  16   1.8060   1.9868   7.2240  -0.6358  -0.9562  -0.7807   0.00    0.0
2161 359592.300   22.330298225  114.180678453    22.0995   5  16   1.8060   1.9868   7.2239  -0.6358  -0.9561  -0.7808   0.00    0.0
2161 359592.600   22.330292890  114.180677845    22.2907   5  16   1.8061   1.9868   7.2236  -0.6359  -0.9558  -0.7810   0.00    0.0
2161 359592.700   22.330293522  114.180683550    21.3793   5  17   1.7706   1.9336   6.4987  -0.7531   0.7260   0.7165   0.00    0.0
2161 359592.800   22.330291519  114.180684014    20.4845   5  17   1.7706   1.9336   6.4986  -0.7531   0.7261   0.7165   0.00    0.0
2161 359593.000   22.330289569  114.180681689    21.1363   5  17   1.7706   1.9337   6.4984  -0.7531   0.7263   0.7163   0.00    0.0
2161 359593.100   22.330288534  114.180683199    21.3691   5  17   1.7706   1.9337   6.4983  -0.7532   0.7263   0.7162   0.00    0.0
2161 359593.200   22.330289015  114.180680763    21.1242   5  17   1.7706   1.9337   6.4982  -0.7532   0.7264   0.7161   0.00    0.0
2161 359593.400   22.330287442  114.180680440    19.9740   5  17   1.7706   1.9337   6.4980  -0.7532   0.7266   0.7159   0.00    0.0
2161 359593.500   22.330288586  114.180677220    20.3884   5  17   1.7706   1.9337   6.4979  -0.7533   0.7267   0.7158   0.00    0.0
2161 359593.600   22.330290283  114.180676899    21.4875   5  17   1.7706   1.9337   6.4978  -0.7533   0.7268   0.7157   0.00    0.0
2161 359593.800   22.330290154  114.180674657    21.4486   5  17   1.7706   1.9337   6.4976  -0.7533   0.7270   0.7155   0.00    0.0
2161 359593.900   22.330289298  114.180672408    21.4789   5  17   1.7706   1.9338   6.4975  -0.7533   0.7271   0.7154   0.00    0.0
2161 359594.000   22.330291037  114.180667767    21.6165   5  17   1.7706   1.9338   6.4974  -0.7534   0.7272   0.7153   0.00    0.0
2161 359594.100   22.330290200  114.180662714    20.9888   5  16   1.7951   2.2544   7.2107  -0.9537   2.0378  -0.6415   0.00    0.0
2161 359594.300   22.330287202  114.180660612    22.4925   5  16   1.7951   2.2544   7.2104  -0.9538   2.0379  -0.6418   0.00    0.0
2161 359594.400   22.330284570  114.180662565    22.8561   5  16   1.7951   2.2544   7.2103  -0.9539   2.0379  -0.6419   0.00    0.0
2161 359594.500   22.330287472  114.180662487    23.1127   5  16   1.7951   2.2545   7.2102  -0.9539   2.0379  -0.6421   0.00    0.0
2161 359594.700   22.330288732  114.180654357    21.6819   5  17   1.7707   1.9338   6.4967  -0.7535   0.7279   0.7147   0.00    0.0
2161 359594.800   22.330287893  114.180653774    23.3588   5  17   1.7707   1.9339   6.4966  -0.7535   0.7280   0.7146   0.00    0.0
2161 359594.900   22.330289745  114.180651343    23.3317   5  17   1.7707   1.9339   6.4965  -0.7536   0.7281   0.7145   0.00    0.0
2161 359595.000   22.330288957  114.180643865    23.0438   5  17   1.7707   1.9339   6.4964  -0.7536   0.7282   0.7144   0.00    0.0
2161 359595.100   22.330288256  114.180638551    22.6741   5  17   1.7707   1.9339   6.4963  -0.7536   0.7283   0.7143   0.00    0.0
2161 359595.200   22.330284150  114.180636353    24.1409   5  17   1.7707   1.9339   6.4962  -0.7536   0.7283   0.7142   0.00    0.0
2161 359595.300   22.330283605  114.180632985    23.8291   5  16   1.7952   2.2546   7.2090  -0.9542   2.0380  -0.6433   0.00    0.0
2161 359595.500   22.330281771  114.180623767    23.7580   5  16   1.7952   2.2546   7.2087  -0.9543   2.0380  -0.6436   0.00    0.0
2161 359595.600   22.330286122  114.180617618    25.3306   5  16   1.7952   2.2547   7.2086  -0.9543   2.0381  -0.6437   0.00    0.0
2161 359595.700   22.330289943  114.180609435    23.8887   5  17   1.7707   1.9339   6.4957  -0.7537   0.7288   0.7137   0.00    0.0
2161 359595.800   22.330288566  114.180603379    24.6235   5  17   1.7707   1.9340   6.4956  -0.7538   0.7289   0.7136   0.00    0.0
2161 359595.900   22.330289059  114.180598428    24.3038   5  17   1.7707   1.9340   6.4955  -0.7538   0.7290   0.7135   0.00    0.0
2161 359596.000   22.330287131  114.180594709    24.3913   5  17   1.7708   1.9340   6.4954  -0.7538   0.7291   0.7135   0.00    0.0
2161 359596.100   22.330284247  114.180592228    24.9250   5  17   1.7708   1.9340   6.4953  -0.7538   0.7292   0.7134   0.00    0.0
2161 359596.200   22.330284105  114.180587262    23.9274   5  17   1.7708   1.9340   6.4952  -0.7539   0.7293   0.7133   0.00    0.0
2161 359596.300   22.330286272  114.180583215    23.5226   5  17   1.7708   1.9340   6.4951  -0.7539   0.7294   0.7132   0.00    0.0
2161 359596.400   22.330288462  114.180577174    23.0026   5  17   1.7708   1.9340   6.4950  -0.7539   0.7295   0.7131   0.00    0.0
2161 359596.500   22.330287966  114.180573211    22.5926   5  17   1.7708   1.9340   6.4949  -0.7539   0.7296   0.7130   0.00    0.0
2161 359596.600   22.330290091  114.180565233    21.7504   5  17   1.7708   1.9340   6.4948  -0.7539   0.7297   0.7129   0.00    0.0
2161 359596.700   22.330290757  114.180558615    21.7503   5  17   1.7708   1.9341   6.4947  -0.7540   0.7298   0.7128   0.00    0.0
2161 359596.800   22.330290654  114.180550046    20.5423   5  17   1.7708   1.9341   6.4946  -0.7540   0.7299   0.7127   0.00    0.0
