     3.03           OBSERVATION DATA    M: Mixed            RINEX VERSION / TYPE
Geo++ RINEX Logger  Geo++               20210930 111416 UTC PGM / RUN BY / DATE
************************************************************COMMENT
This file was generated by the Geo++ RINEX Logger App       COMMENT
for Android devices (Version 2.1.6). If you encounter       COMMENT
any issues, please send an email to android@geopp.de        COMMENT
Filtering Mode: MORE                                        COMMENT
************************************************************COMMENT
Geo++                                                       MARKER NAME
GEODETIC                                                    MARKER TYPE
Geo++               Geo++                                   OBSERVER / AGENCY
unknown             HUAWEI              ELS-AN00            REC # / TYPE / VERS
unknown             ELS-AN00                                ANT # / TYPE
 -2418848.8919  5385589.6291  2405517.4731                  APPROX POSITION XYZ
        0.0000        0.0000        0.0000                  ANTENNA: DELTA H/E/N
G    8 C1C L1C D1C S1C C5Q L5Q D5Q S5Q                      SYS / # / OBS TYPES
R    4 C1C L1C D1C S1C                                      SYS / # / OBS TYPES
E   12 C1B L1B D1B S1B C1C L1C D1C S1C C5Q L5Q D5Q S5Q      SYS / # / OBS TYPES
C    4 C2I L2I D2I S2I                                      SYS / # / OBS TYPES
J    8 C1C L1C D1C S1C C5Q L5Q D5Q S5Q                      SYS / # / OBS TYPES
  2021     9    30    11    14   34.8456259     GPS         TIME OF FIRST OBS
 24 R01  1 R02 -4 R03  5 R04  6 R05  1 R06 -4 R07  5 R08  6 GLONASS SLOT / FRQ #
    R09 -2 R10 -5 R11  0 R12 -1 R13 -2 R14 -7 R15  0 R16 -1 GLONASS SLOT / FRQ #
    R17  4 R18 -3 R19  3 R20  2 R21  4 R22 -3 R23  3 R24  2 GLONASS SLOT / FRQ #
G L1C                                                       SYS / PHASE SHIFT
G L5Q -0.25000                                              SYS / PHASE SHIFT
R L1C                                                       SYS / PHASE SHIFT
E L1B                                                       SYS / PHASE SHIFT
E L1C +0.50000                                              SYS / PHASE SHIFT
E L5Q -0.25000                                              SYS / PHASE SHIFT
C L2I                                                       SYS / PHASE SHIFT
J L1C                                                       SYS / PHASE SHIFT
J L5Q -0.25000                                              SYS / PHASE SHIFT
 C1C    0.000 C1P    0.000 C2C    0.000 C2P    0.000        GLONASS COD/PHS/BIS
                                                            END OF HEADER
> 2021  9 30 11 14 34.8456259  2  0
> 2021  9 30 11 14 34.8456259  0 12
C06  35552670.898   185132086.4281       -769.397          28.000  
C19  20855694.303   108601073.0491      -2985.270          15.000  
C36  21396722.857   111418349.8501      -2278.169          27.000  
G10  21634848.906                        -396.027          17.000  
G25  22260696.840   116980751.2511      -4673.557          25.000  
G26  19603063.382   103014792.5941        548.793          23.000  
G29  22778819.451   119703503.1521       -398.858          23.000  
G32  19715169.272   103603913.1111      -1330.605          29.000  
J01                                                                  35579117.090   139620097.0851       -299.134          23.000  
J02  37804142.837   198662110.6781      -2095.008          23.000  
R04  18365171.756    98344660.5671      -2295.799          25.000  
R14  21190021.953   112954740.8161      -4610.642          22.000  
> 2021  9 30 11 14 35.8456259  0 10
C01  36434114.088   189721992.1461      -1259.025          29.000  
C06  35552817.796   185132855.044        -768.840          29.000  
C36  21397162.053   111420628.016       -2278.041          30.000  
G10  21634848.906                        -396.027          17.000  
G25  22261592.021   116985423.120       -4670.564          23.000  
G29  22778893.200   119703903.376        -400.903          23.000  
G32  19715425.895   103605243.314       -1330.458          31.000  
J01                                                                  35579192.637   139620395.003        -298.001          23.000  
J02  37804540.661   198664204.936       -2093.839          30.000  
R04  18365598.061    98346943.174       -2294.571          26.000  
> 2021  9 30 11 14 36.8456259  0 10
C01  36434355.720   189723250.973       -1258.844          32.000  
C06  35552964.994   185133623.770        -769.157          29.000  
C19  20856847.005   108607044.3961      -2985.814          26.000  
C36  21397600.949   111422905.939       -2277.891          32.000  
G10  21634848.906                        -396.027          17.000  
G25  22262483.903   116990093.538       -4670.581          25.000  
G29  22778974.444   119704303.661        -399.910          17.000  
G32  19715683.416   103606574.321       -1331.837          32.000  
R04  18366025.565    98349232.241       -2294.508          25.000  
R14  21191759.550   112964002.7471      -4613.147          17.000  
> 2021  9 30 11 14 37.8456259  0 10
C01  36434596.754   189724509.489       -1258.332          30.000  
C06  35553111.293   185134392.310        -768.276          29.000  
C36  21398039.246   111425184.556       -2279.014          31.000  
G25  22263376.085   116994764.061       -4670.704          26.000  
G26  19602741.405   103013143.2311        550.884          25.000  
G29  22779059.285   119704703.420        -400.880          25.000  
G32  19715943.636                       -1332.225          35.000  
J02  37805333.312   198668390.1011      -2091.903          29.000  
R04  18366454.568    98351529.405       -2297.461          27.000  
R14  21192622.353   112968602.606       -4611.270          20.000  
> 2021  9 30 11 14 38.8456259  0  8
C06  35553259.091   185135160.327        -767.179          31.000  
C36  21398473.045   111427463.186       -2276.930          33.000  
G25  22264267.069   116999435.862       -4671.777          25.000  
G29  22779150.722   119705103.435        -399.524          27.000  
G32  19716196.361   103609239.0861      -1331.439          34.000  
J02  37805731.137   198670482.661       -2093.541          28.000  
R04  18366879.674    98353806.416       -2297.966          23.000  
R14  21193488.753   112973220.947       -4618.090          19.000  
> 2021  9 30 11 14 39.8456259  0  8
C01  36435077.920   189727024.9121      -1256.996          31.000  
C06  35553406.889   185135927.739        -767.862          31.000  
C36  21398907.445                       -2278.828          34.000  
G25  22265155.354   117004107.837       -4672.579          24.000  
G26  19602531.850   103012040.2431        551.743          22.000  
G29  22779240.360   119705502.977        -401.352          20.000  
J02  37806129.561   198672576.205       -2093.511          29.000  
R04  18367302.981    98356073.159       -2298.016          24.000  
> 2021  9 30 11 14 40.8456259  0  4
C06  35553554.386   185136696.000        -768.774          32.000  
C19  20859139.518   108618993.3761      -2986.328          17.000  
C36  21399344.242   111432005.7611      -2278.763          30.000  
G25  22266045.138   117008779.899       -4671.670          25.000  
> 2021  9 30 11 14 41.8456259  0  6
C01  36435559.687   189729538.3501      -1256.451          27.000  
C06  35553702.784   185137465.086        -769.727          31.000  
C19  20859710.923   108621979.144       -2987.927          18.000  
C36  21399780.740   111434285.162       -2281.454          27.000  
G25  22266934.622   117013451.948       -4673.182          27.000  
G29  22779411.242   119706613.2171       -401.370          25.000  
> 2021  9 30 11 14 42.8456259  0  7
C06  35553851.781   185138234.589        -769.534          29.000  
C36  21400219.037   111436566.491       -2280.998          28.000  
G25  22267826.504   117018125.056       -4673.387          26.000  
G26  19602217.667   103010385.5411        548.949          18.000  
G29  22779494.584   119707014.324        -401.641          23.000  
G32  19717196.469   103614572.4451      -1334.135          26.000  
R04  18368589.090    98362960.2731      -2303.010          24.000  
> 2021  9 30 11 14 43.8456259  0  4
C06  35554000.178   185139003.272        -769.372          28.000  
G25  22268721.085   117022799.835       -4674.700          22.000  
G26  19602114.838   103009837.056         547.730          25.000  
J02  37807719.960   198680948.1261      -2093.194          28.000  
> 2021  9 30 11 14 44.8456259  0  6
C06  35554147.976   185139772.361        -769.179          26.000  
E30  21431529.961   112623449.5491      -1546.247          24.000  
G25  22269607.272   117027476.623       -4678.214          17.000  
J02  37808117.185   198683041.941       -2094.783          26.000  
R04  18369451.593    98367578.9261      -2304.396          25.000  
R14  21198663.171   113000803.2921      -4614.634          17.000  
> 2021  9 30 11 14 45.8456259  0  5
C06  35554298.771   185140542.599        -770.328          25.000  
G25  22270493.458   117032154.599       -4677.438          18.000  
J02  37808515.310   198685137.643       -2096.317          29.000  
R04  18369880.896    98369877.743       -2304.433          27.000  
R14  21199523.275   113005387.696       -4612.319          26.000  
> 2021  9 30 11 14 46.8456259  0  5
C06  35554447.768   185141312.571        -769.482          29.000  
C36  21401970.724   111445693.8601      -2282.514          31.000  
G25  22271379.345   117036831.101       -4676.245          17.000  
G26  19601801.855   103008198.4641        545.470          24.000  
G32  19718222.659                       -1336.541          40.000  
> 2021  9 30 11 14 47.8456259  0  8
C06  35554594.966   185142081.847        -769.403          30.000  
C36  21402409.021   111447976.335       -2282.634          35.000  
E08  20747530.384   109029007.9851      -1341.071          30.000  
G25  22272269.129   117041508.007       -4675.532          16.000  
G26  19601697.827   103007652.615         546.258          19.000  
G32  19718475.683   103621295.9691      -1336.757          32.000  
J02  37809317.554   198689329.9501      -2096.055          30.000  
R04  18370755.391    98374560.8151      -2305.826          26.000  
> 2021  9 30 11 14 48.8456259  0  9
C01  36437251.116   189738337.8911      -1262.666          29.000  
C06  35554741.565   185142850.595        -768.458          30.000  
C36  21402847.617   111450259.015       -2282.769          33.000  
E08  20747788.205   109030349.442       -1342.274          31.000  
G25  22273173.303   117046184.131       -4678.718          15.000    22273342.086    87405378.1431      -3492.217          26.000  
G26  19601589.002   103007105.434         547.160          25.000    19601597.696                         408.346          28.000  
G32  19718728.109   103622633.178       -1337.922          33.000  
J02  37809716.278   198691425.928       -2096.275          31.000  
R04  18371185.293    98376862.699       -2306.269          27.000  
> 2021  9 30 11 14 49.8456259  0  9
C06  35554887.863   185143619.281        -769.694          29.000  
C36  21403284.714   111452541.961       -2283.236          31.000  
E08  20748046.027   109031691.676       -1342.874          32.000  
G25  22274075.678   117050861.921       -4676.820          15.000    22274232.170    87408870.100       -3492.203          26.000  
G26  19601485.574   103006559.219         546.291          25.000    19601493.968                         407.535          28.000  
G32  19718981.133   103623971.977       -1338.488          33.000  
J02  37810114.402   198693522.549       -2096.984          31.000  
R04  18371615.195    98379164.882       -2308.492          27.000  
R14  21202989.176   113023863.1121      -4616.232          18.000  
> 2021  9 30 11 14 50.8456259  0 11
C01  36437735.281   189740864.9431      -1264.522          31.000  
C06  35555034.762   185144388.965        -770.129          29.000  
C19  20864902.429   108648892.6721      -2997.747          23.000  
C36  21403722.711   111454825.527       -2283.758          35.000  
E08  20748301.750   109033037.189       -1346.534          26.000  
G25  22274968.460   117055539.197       -4678.089          14.000    22275121.055    87412361.902       -3493.031          28.000  
G26                                                                  19601391.739    76920065.9421        404.773          27.000  
G32  19719229.362   103625311.639       -1339.116          34.000  
J02  37810513.426   198695619.415       -2096.975          32.000  
R04  18372043.599    98381459.153       -2310.927          25.000  
R14  21203858.574   113028497.206       -4614.242          21.000  
> 2021  9 30 11 14 51.8456259  0  8
C01  36437979.612   189742129.736       -1264.962          31.000  
C06  35555182.859   185145158.776        -770.159          30.000  
C36  21404167.903   111457109.566       -2284.001          36.000  
G25                                                                  22276011.138    87415855.058       -3492.574          27.000  
G26                                                                  19601288.910    76919661.410         405.396          27.000  
G32  19719494.378   103626651.897       -1340.434          28.000  
J01  35580419.988   186976368.9441       -400.534          18.000  
J02  37810913.050   198697716.048       -2096.483          30.000  
> 2021  9 30 11 14 52.8456259  0 11
C01  36438221.544   189743394.132       -1264.138          29.000  
C06  35555329.757   185145928.343        -769.354          26.000  
C19  20866057.529   108654887.9741      -2996.436          14.000  
C36  21404604.101   111459393.235       -2283.205          29.000  
G25                                                                  22276900.922    87419347.669       -3493.364          25.000  
G26  19601162.697   103004923.9771        542.710          24.000    19601185.781    76919256.092         404.296          24.000  
G29  22780190.402   119710708.3501       -405.839          19.000  
G32  19719751.300   103627991.869       -1340.082          31.000  
J02  37811312.973   198699812.006       -2095.435          31.000  
R04  18372898.307    98386035.5181      -2313.240          23.000  
R14  21205596.171   113037759.8611      -4615.031          21.000  
> 2021  9 30 11 14 53.8456259  0 10
C01  36438463.177   189744658.343       -1264.057          30.000  
C06  35555477.855   185146699.490        -772.031          24.000  
C19  20866637.328   108657884.250       -2996.780          13.000  
C36  21405040.899   111461676.483       -2283.285          28.000  
G25  22277636.913   117069575.4701      -4676.652          17.000    22277791.006    87422840.090       -3492.516          24.000  
G26  19601058.969   103004381.324         542.068          24.000    19601083.252    76918851.725         403.533          22.000  
G32  19720003.725   103629332.676       -1340.641          33.000  
J02  37811712.296   198701907.411       -2095.581          31.000  
R04  18373332.107    98388358.390       -2313.864          26.000  
R14  21206458.075   113042354.343       -4615.195          20.000  
> 2021  9 30 11 14 54.8456259  0  8
C01  36438704.210   189745921.853       -1263.280          27.000  
C06  35555625.053   185147470.911        -770.766          26.000  
C36  21405479.495   111463960.693       -2284.868          29.000  
G25  22278525.198   117074253.279       -4678.865          17.000  
G26  19600956.140   103003840.262         539.755          27.000  
G32  19720262.147   103630673.914       -1339.297          30.000  
J02  37812111.020   198704003.286       -2096.004          33.000  
R14  21207317.879   113046937.701       -4614.249          19.000  
> 2021  9 30 11 14 55.8456259  0  7
C01  36438945.843   189747184.637       -1262.312          30.000  
C06  35555773.450   185148241.181        -770.483          29.000  
C36  21405918.391   111466246.216       -2286.064          32.000  
G25  22279416.181   117078930.813       -4676.297          17.000  
G26  19600855.410   103003301.213         537.959          24.000  
J02  37812510.943   198706099.400       -2096.670          33.000  
R14  21208182.181   113051544.671       -4614.038          18.000  
> 2021  9 30 11 14 56.8456259  0  9
C06  35555921.548   185149011.339        -770.527          28.000  
C19  20868368.029   108666882.0461      -3000.939          23.000  
C36  21406356.388   111468532.279       -2286.198          28.000  
G25  22280315.259   117083607.215       -4676.110          18.000  
G26  19600753.181   103002764.508         536.139          22.000  
G29  22780497.989   119712344.6661       -410.463          24.000  
G32  19720766.398   103633358.5211      -1342.983          33.000  
J02  37812909.068   198708194.595       -2095.256          32.000  
R04  18374641.900    98395372.0951      -2316.317          31.000  
> 2021  9 30 11 14 57.8456259  0  8
C06  35556068.746   185149781.677        -770.127          28.000  
C19  20868943.631   108669883.015       -3000.911          29.000  
C36  21406792.886   111470818.450       -2285.670          28.000  
G25  22281218.234   117088591.647       -4679.351          18.000  
G29  22780582.831   119712754.803        -410.182          17.000  
G32  19721023.619   103634701.242       -1343.035          33.000  
J02  37813305.993   198710290.662       -2096.789          30.000  
R14  21209918.279   113060798.7341      -4612.716          22.000  
> 2021  9 30 11 14 58.8456259  0  9
C06  35556216.543   185150551.822        -770.411          29.000  
C19  20869517.434   108672883.523       -3000.427          26.000  
C36  21407229.683   111473104.752       -2286.525          28.000  
G25  22282125.406   117093272.129       -4681.525          19.000  
G26  19600550.521   103001690.8141        537.344          25.000  
G29  22780658.378   119713166.164        -410.182          16.000  
G32  19721283.540   103636044.719       -1343.991          36.000  
J02  37813704.117   198712388.309       -2098.217          33.000  
R04  18375514.296    98400044.2881      -2318.431          30.000  
> 2021  9 30 11 14 59.8456259  0  9
C06  35556363.442   185151322.422        -770.579          28.000  
C36  21407668.579   111475391.405       -2287.338          30.000  
G25  22283035.276   117097954.925       -4683.123          21.000  
G26  19600449.491   103001153.616         536.014          28.000  
G29  22780732.427   119713575.829        -409.634          14.000  
G32  19721541.361   103637389.315       -1345.605          37.000  
J01  35581015.675   186979594.1791       -404.965          24.000  
J02  37814102.242   198714486.855       -2099.095          34.000  
R04  18375949.595    98402375.162       -2319.390          33.000  
> 2021  9 30 11 15  0.8456259  0  8
C06  35556511.539   185152092.546        -770.539          25.000  
C36  21408108.375   111477678.490       -2287.809          31.000  
G25  22283945.745   117102924.339       -4682.608          23.000  
G26  19600346.363   103000618.112         534.517          23.000  
G29  22780813.971   119713988.084        -412.977          13.000  
G32  19721797.384   103638734.854       -1345.898          33.000  
J02  37814503.964   198716585.678       -2097.972          32.000  
R14  21212550.157   113074828.0971      -4615.317          15.000  
> 2021  9 30 11 15  1.8456259  0  7
C01  36440400.436   189754748.9051      -1260.374          32.000  
C06  35556659.637   185152864.368        -773.019          29.000  
C36  21408548.171   111479966.841       -2288.678          29.000  
G26  19600243.834   103000084.042         534.559          24.000  
G29  22780893.416   119714400.927        -414.331          15.000  
G32  19722051.608   103640080.760       -1347.887          33.000  
J02  37814903.287                       -2099.007          31.000  
> 2021  9 30 11 15  2.8456259  0  7
C06  35556807.135   185153637.721        -773.583          27.000  
C36  21408988.266   111482256.149       -2289.538          31.000  
G26  19600142.803   102999550.214         532.954          26.000  
G29  22780974.959   119714816.208        -418.525          15.000  
G32  19722312.727   103641427.362       -1348.040          31.000  
J01  35581237.222   186980806.1741       -403.128          18.000  
J02  37815304.110   198720756.3531      -2100.395          31.000  
> 2021  9 30 11 15  3.8456259  0  8
C06  35556955.232   185154409.798        -771.214          27.000  
C36  21409429.860   111484545.659       -2289.130          32.000  
G25  22286666.662   117116976.4061      -4686.177          19.000  
G26  19600042.373   102999017.974         532.076          24.000  
J01  35581311.571   186981208.574        -402.754          18.000  
J02  37815702.534   198722855.361       -2098.926          30.000  
R04  18377697.085    98411733.2511      -2325.497          28.000  
R14  21215140.064   113088634.3911      -4617.072          22.000  
> 2021  9 30 11 15  4.8456259  0 10
C06  35557103.629   185155180.881        -771.555          28.000  
C19  20872967.745   108690892.9821      -3004.816          24.000  
C36  21409869.656   111486834.825       -2289.187          31.000  
G25  22287566.938   117121953.829       -4684.586          21.000  
G29  22781132.650   119715652.7731       -418.482          17.000  
G32  19722828.370   103644122.8601      -1348.270          32.000  
J01  35581388.317   186981611.931        -403.749          23.000  
J02  37816102.157   198724954.550       -2098.597          30.000  
R04  18378138.080    98414094.400       -2325.292          26.000  
R14  21216004.666   113093242.610       -4614.610          23.000  
> 2021  9 30 11 15  5.8456259  0  9
C06  35557252.926   185155952.244        -772.000          25.000  
C36  21410310.051   111489124.185       -2289.508          30.000  
G25  22288466.016   117126637.814       -4684.581          20.000  
G26  19599841.512   102997953.6871        531.500          26.000  
G29  22781209.697   119716072.546        -423.084          17.000  
J01  35581463.565   186982016.151        -404.395          26.000  
J02  37816496.085   198727053.869       -2099.615          31.000  
R04  18378570.380    98416409.462       -2327.001          27.000  
R14  21216865.670   113097833.293       -4616.988          27.000  
> 2021  9 30 11 15  6.8456259  0 10
C06  35557403.722   185156724.968        -773.762          26.000  
C36  21410750.746   111491413.798       -2290.681          30.000  
G25  22289361.796   117131322.492       -4684.731          20.000  
G26  19599739.882   102997422.835         527.647          23.000  
G29  22781295.437   119716496.564        -424.932          15.000  
G32  19723334.120   103646820.7901      -1349.377          33.000  
J01  35581541.212   186982420.447        -405.512          25.000  
J02  37816899.305   198729153.075       -2098.643          29.000    37816906.201   148401662.0701      -1568.001          27.000  
R04  18379003.581    98418729.180       -2327.760          28.000  
R14  21217728.172   113102431.504       -4616.333          26.000  
> 2021  9 30 11 15  7.8456259  0 11
C06  35557552.119   185157496.994        -770.967          26.000  
C19  20874694.550   108699914.4991      -3007.657          23.000  
C36  21411192.340   111493704.349       -2291.168          28.000  
E08  20752682.917   109055953.2641      -1353.202          27.000  
E30  21438329.253   112659171.0821      -1562.113          28.000  
G29  22781380.578   119716921.613        -424.173          14.000  
G32  19723596.738   103648170.749       -1348.116          31.000  
J01  35581618.558   186982825.539        -404.152          25.000  
J02  37817298.929   198731251.852       -2099.038          28.000    37817305.224   148403229.153       -1567.397          26.000  
R04  18379440.078    98421066.205       -2328.104          28.000  
R14  21218592.774   113107039.731       -4617.551          26.000  
> 2021  9 30 11 15  8.8456259  0 11
C06  35557701.416   185158268.069        -771.069          27.000  
C19  20875274.648   108702922.179       -3008.016          23.000  
C36  21411635.133   111495995.827       -2291.985          29.000  
E08  20752938.040   109057305.672       -1352.522          28.000  
E30  21438624.849   112660733.031       -1563.236          26.000  
G25  22291158.752   117140694.2551      -4687.310          20.000  
G29  22781475.013   119717346.158        -424.279          15.000  
G32  19723852.461   103649521.626       -1352.702          29.000  
J02                                                                  37817704.848   148404796.217       -1567.590          26.000  
R04  18379875.677    98423399.253       -2328.742          28.000  
R14  21219456.476   113111644.132       -4617.377          27.000  
> 2021  9 30 11 15  9.8456259  0 11
C06  35557850.712   185159040.549        -773.250          26.000  
C19  20875854.447   108705930.669       -3008.294          24.000  
C36  21412077.627   111498287.550       -2291.894          28.000  
E08  20753194.363   109058658.787       -1354.142          28.000  
E30  21438920.744   112662295.440       -1561.974          26.000  
G25  22292056.630   117145382.447       -4689.433          19.000  
G29  22781565.251   119717771.903        -428.267          16.000  
G32  19724107.884   103650873.358       -1352.614          27.000  
J01  35581766.656   186983634.8521       -404.858          19.000  
J02                                                                  37818104.171   148406363.629       -1568.144          23.000  
R14  21220316.880   113116230.778       -4618.070          27.000  
> 2021  9 30 11 15 10.8456259  0 12
C06  35558000.009   185159814.018        -773.633          27.000  
C36  21412520.421   111500580.391       -2293.449          30.000  
E08  20753451.285   109060013.322       -1354.358          29.000  
E30  21439216.639   112663858.969       -1564.300          25.000  
G25  22292953.010   117150071.930       -4689.232          18.000  
G26  19599337.561   102995304.6881        528.666          18.000  
G29  22781659.385   119718199.235        -425.616          16.000  
G32  19724361.209   103652225.399       -1351.826          26.000  
J01  35581843.103   186984040.251        -405.471          19.000  
J02  37818498.398   198737550.2701      -2100.467          29.000    37818504.094   148407931.826       -1567.226          25.000  
R04  18380754.369    98428104.9651      -2329.992          22.000  
R14  21221180.582   113120834.871       -4617.828          26.000  
> 2021  9 30 11 15 11.8456259  0 11
C06  35558147.807   185160587.832        -773.666          27.000  
C19  20877017.342   108711951.5281      -3012.540          25.000  
C36  21412960.216   111502873.419       -2293.120          33.000  
E08  20753706.108   109061368.292       -1355.479          29.000  
E30  21439511.635   112665422.386       -1563.269          29.000  
G25  22293845.492   117154760.180       -4687.897          23.000  
G26  19599239.529   102994777.070         526.974          26.000  
J01  35581919.849   186984445.762        -406.875          23.000  
J02                                                                  37818902.519   148409501.618       -1568.911          21.000  
R04  18381194.164    98430459.896       -2332.360          26.000  
R14  21222052.679   113125483.088       -4617.290          27.000  
> 2021  9 30 11 15 12.8456259  0 11
C01  36443071.587   189768722.9261      -1263.799          30.000  
C06  35558295.904   185161361.201        -773.340          26.000  
C19  20877598.639   108714964.598       -3012.536          23.000  
C36  21413399.112   111505166.440       -2292.844          29.000  
E08  20753964.230   109062723.914       -1356.086          28.000  
E30  21439806.031   112666986.157       -1564.483          27.000  
G25                                                                  22294725.083    87489285.6401      -3501.720          25.000  
G26  19599142.396   102994250.483         526.410          25.000  
G32  19724874.753   103654929.8301      -1353.904          35.000  
J01  35581992.399   186984851.306        -405.333          22.000  
J02  37819298.245   198741752.7621      -2101.196          31.000  
> 2021  9 30 11 15 13.8456259  0 10
C06  35558444.301   185162134.863        -773.998          23.000  
C19  20878176.339   108717977.613       -3012.963          23.000  
C36  21413838.308   111507459.381       -2293.239          30.000  
E08  20754223.550   109064080.859       -1356.748          26.000  
G25                                                                  22295617.565    87492787.835       -3502.622          25.000  
G26  19599043.165   102993725.130         524.645          24.000  
G32  19725132.875   103656283.526       -1355.630          32.000  
J01  35582067.048   186985258.419        -407.454          25.000  
J02  37819698.767   198743852.931       -2100.627          29.000  
R14  21223775.586   113134667.5751      -4617.693          23.000  
> 2021  9 30 11 15 14.8456259  0 11
C01  36443553.053   189771246.2581      -1259.972          29.000  
C06  35558592.699   185162908.985        -774.566          27.000  
C19  20878755.239   108720989.037       -3012.468          19.000  
C36  21414277.804   111509752.641       -2293.785          32.000  
E08  20754482.271   109065437.714       -1357.472          29.000  
G25                                                                  22296509.747    87496290.278       -3503.106          26.000  
G26  19598942.434   102993200.949         523.416          25.000  
G29  22782011.941   119720280.2021       -425.505          20.000  
J01  35582145.293   186985667.342        -410.355          23.000  
J02  37820098.091   198745954.418       -2102.398          30.000  
R14  21224639.588   113139272.537       -4618.113          26.000  
> 2021  9 30 11 15 15.8456259  0 12
C01  36443794.386   189772506.802       -1260.452          29.000  
C06  35558741.396   185163683.809        -775.815          28.000  
C19  20879332.639   108724001.417       -3012.604          20.000  
C36  21414717.000   111512046.769       -2294.605          32.000  
G25  22297415.720   117173516.6051      -4692.471          23.000    22297401.330    87499792.492       -3503.469          26.000  
G26  19598842.903   102992678.246         521.874          27.000  
G29  22782106.076   119720708.219        -430.884          21.000  
G32  19725658.711   103659035.8401      -1355.224          31.000  
J01  35582222.940   186986077.528        -410.144          22.000  
J02  37820496.215   198748057.301       -2102.769          32.000  
R04  18382935.359    98439784.1231      -2337.507          25.000  
R14  21225511.684   113143921.543       -4620.230          28.000  
> 2021  9 30 11 15 16.8456259  0  9
C06  35558891.292   185164460.031        -776.660          26.000  
C36  21415157.995   111514341.894       -2294.351          33.000  
G25  22298307.603   117178208.536       -4690.881          21.000    22298293.213    87503294.951       -3502.519          26.000  
G26  19598743.073   102992157.710         518.310          23.000  
G29  22782203.209   119721139.432        -431.388          20.000  
G32  19725915.033   103660392.300       -1357.925          32.000  
J02  37820894.939   198750160.657       -2103.755          31.000  
R04  18383372.756    98442126.247       -2339.955          25.000  
R14  21226381.082   113148556.150       -4618.919          30.000  
> 2021  9 30 11 15 17.8456259  0  9
C06  35559040.588   185165236.696        -776.831          26.000  
C36  21415593.893                       -2295.831          31.000  
G25  22299194.089   117182899.604       -4691.997          23.000    22299185.095    87506797.565       -3502.326          24.000  
G26  19598644.141   102991639.243         517.582          23.000  
G29  22782294.346   119721572.065        -433.990          20.000  
G32  19726166.859   103661749.797       -1358.055          34.000  
J01  35582385.127   186986898.1871       -409.469          18.000  
J02  37821293.963   198752264.556       -2103.821          31.000  
R14  21227249.581   113153185.671       -4619.577          27.000  
> 2021  9 30 11 15 18.8456259  0  8
C06  35559188.386   185166013.859        -776.632          24.000  
C19  20881072.035   108733045.0201      -3017.007          22.000  
C36  21416034.888   111518913.4851      -2295.603          27.000  
G29  22782386.082   119722004.871        -432.675          18.000  
G32  19726421.383   103663108.244       -1360.552          33.000  
J02  37821694.486   198754368.755       -2103.973          30.000  
R04  18384236.158    98446749.3601      -2340.886          22.000  
R14  21228119.579   113157823.211       -4622.103          27.000  
> 2021  9 30 11 15 19.8456259  0 10
C06  35559335.284   185166790.625        -776.382          24.000  
C19  20881650.034   108736061.989       -3016.462          26.000  
C36  21416475.882   111521209.831       -2297.285          30.000  
G25  22300983.251   117192289.1921      -4695.081          18.000  
G26  19598451.374   102990607.3671        515.569          25.000  
G29  22782476.620   119722721.767        -431.998          16.000  
G32  19726684.900   103664467.284       -1359.204          34.000  
J02  37822094.709   198756472.846       -2103.854          32.000  
R04  18384663.063    98449035.819       -2342.283          22.000  
R14  21228987.178   113162448.473       -4623.191          27.000  
> 2021  9 30 11 15 20.8456259  0  8
C06  35559483.682   185167567.461        -777.982          25.000  
C19  20882227.435   108739078.510       -3016.157          24.000  
C36  21416917.776   111523507.083       -2297.593          31.000  
G25  22301666.178   117196046.227       -4695.649          19.000  
G26  19598353.942   102990091.639         515.515          23.000  
G32  19726938.525   103665826.964       -1359.962          35.000  
J02  37822494.332   198758577.036       -2104.330          31.000  
R04  18385101.359    98451382.219       -2343.058          26.000  
> 2021  9 30 11 15 21.8456259  0  9
C06  35559633.578   185168345.939        -779.212          25.000  
C36  21417359.371   111525805.096       -2297.814          32.000  
G25  22302561.658   117200742.220       -4695.914          20.000  
G26  19598256.809   102989574.992         517.185          27.000  
G29  22782659.493   119723583.4181       -430.337          19.000  
G32  19727193.948   103667187.433       -1361.278          34.000  
J02  37822900.851   198760681.920       -2105.697          32.000  
R04  18385536.358    98453711.997       -2344.407          26.000  
R14  21230720.878   113171689.8541      -4622.221          29.000  
> 2021  9 30 11 15 22.8456259  0  7
C06  35559782.875   185169125.735        -779.916          25.000  
C36  21417807.261   111528102.995       -2298.265          32.000  
G32  19727459.264   103668548.455       -1358.828          32.000  
J01  35582774.258   186988951.2801       -412.323          21.000  
J02  37823299.275   198762786.761       -2104.929          28.000  
R04  18385971.657    98456042.423       -2344.844          26.000  
R14  21231586.978   113176306.057       -4621.852          29.000  
> 2021  9 30 11 15 23.8456259  0  8
C06  35559932.471   185169904.953        -778.459          25.000  
C36  21418248.855                       -2299.550          31.000  
G25  22304349.020   117210130.5501      -4692.839          24.000  
G26  19598062.244   102988543.7441        516.119          16.000  
G32  19727710.490   103669910.131       -1362.457          34.000  
J02  37823699.498   198764890.978       -2103.602          30.000  
R04  18386406.955    98458374.363       -2347.236          25.000  
R14  21232454.278   113180930.004       -4623.725          29.000  
> 2021  9 30 11 15 24.8456259  0  8
C06  35560082.067   185170682.380        -777.353          25.000  
C19  20884526.543   108751156.3431      -3020.969          25.000  
C36  21418693.447   111532741.2441      -2300.855          30.000  
G25  22305242.702   117214822.948       -4692.130          24.000  
G26  19597965.411   102988027.868         514.942          17.000  
G32  19727968.312   103671272.399       -1361.536          33.000  
J02  37824097.622   198766995.490       -2104.594          31.000  
R14  21233323.376   113185562.924       -4621.657          29.000  
> 2021  9 30 11 15 25.8456259  0  9
C06  35560230.765   185171460.273        -780.166          19.000  
C36  21419131.444   111535040.844       -2296.938          29.000  
G25  22306136.083   117219516.371       -4694.066          23.000  
G26  19597870.077   102987513.046         514.958          19.000  
G29  22783029.437   119725627.5481       -425.815          20.000  
G32  19728232.129   103672635.203       -1363.233          32.000  
J01  35583014.092   186990185.8671       -410.144          21.000  
R04  18387286.247    98463082.7361      -2347.704          16.000  
R14  21234187.978   113190170.898       -4625.106          25.000  
> 2021  9 30 11 15 26.8456259  0  9
C01  36446456.843   189786393.8431      -1264.315          28.000  
C06  35560380.361   185172240.712        -780.392          24.000  
C19  20885691.237   108757199.9871      -3023.787          23.000  
C36  21419567.342   111537340.676       -2301.826          31.000  
G25  22307030.964   117224210.648       -4695.046          23.000  
G29  22783109.781   119726053.735        -426.293          14.000  
G32  19728494.747   103673998.762       -1363.553          33.000  
R04  18387720.346    98465407.180       -2349.632          25.000  
R14  21235055.577   113194795.703       -4627.287          21.000  
> 2021  9 30 11 15 27.8456259  0  7
C06  35560529.358   185173020.927        -779.992          26.000  
C19  20886273.434   108760223.829       -3024.734          23.000  
C36  21420005.938   111539641.135       -2300.715          31.000  
G25  22307925.844   117228905.120       -4694.705          23.000  
G29  22783199.119   119726480.112        -426.138          17.000  
G32  19728753.468   103675363.057       -1363.674          36.000  
R04  18388158.942    98467755.804       -2350.174          29.000  
> 2021  9 30 11 15 28.8456259  0 10
C06  35560678.355   185173800.029        -778.526          25.000  
C19  20886854.731   108763248.091       -3024.570          25.000  
C36  21420447.233   111541941.956       -2300.931          30.000  
G25  22308821.324   117233600.535       -4696.132          23.000  
G26  19597570.884   102985971.1341        512.141          24.000  
G29  22783293.554   119726906.346        -422.818          16.000  
G32  19729009.791   103676727.976       -1365.825          35.000  
J01  35583261.721   186991424.7291       -414.935          22.000  
R04  18388600.837    98470121.861       -2350.475          29.000  
R14  21236796.472   113204076.4471      -4624.804          24.000  
> 2021  9 30 11 15 29.8456259  0  9
C06  35560828.251   185174578.173        -777.508          25.000  
C36  21420893.024   111544243.060       -2302.466          32.000  
G25  22309717.104   117238297.204       -4697.398          18.000  
G26  19597472.552   102985460.509         509.491          24.000  
G29  22783380.794   119727331.280        -428.354          16.000  
G32  19729274.507   103678093.426       -1366.272          33.000  
J02  37826107.431   198777523.8321      -2106.020          30.000  
R04  18389038.534    98472465.367       -2351.346          29.000  
R14  21237662.272   113208690.829       -4623.450          25.000  
> 2021  9 30 11 15 30.8456259  0  8
C06  35560976.948   185175354.816        -777.068          26.000  
C19  20888017.027   108769300.1191      -3025.932          20.000  
C36  21421335.818   111546545.092       -2301.621          31.000  
G26  19597374.820   102984951.728         508.057          24.000  
G29  22783468.033   119727762.052        -432.131          15.000  
G32  19729536.526   103679460.042       -1367.377          34.000  
J02  37826507.654   198779630.231       -2106.684          31.000  
R14  21238526.874   113213299.920       -4626.178          22.000  
> 2021  9 30 11 15 31.8456259  0 10
C06  35561126.245   185176133.114        -778.853          26.000  
C19  20888599.523   108772325.797       -3027.020          22.000  
C36  21421777.712   111548847.354       -2301.279          30.000  
E08  20758886.522   109088610.2501      -1366.631          30.000  
G25  22311502.668   117247699.2041      -4702.645          18.000  
G26  19597274.389   102984443.642         507.867          25.000  
G32  19729792.849   103680827.151       -1367.911          35.000  
J02  37826907.877   198781737.145       -2107.401          34.000  
R04  18389918.125    98477176.3241      -2355.032          27.000  
R14  21239391.775   113217910.425       -4625.139          25.000  
> 2021  9 30 11 15 32.8456259  0  7
C06  35561277.040   185176911.614        -778.365          27.000  
C36  21422223.503   111551149.854       -2303.090          33.000  
G26  19597175.458   102983935.064         509.336          26.000  
G29  22783644.311   119728631.3701       -436.724          17.000  
G32  19730051.570   103682194.510       -1369.082          34.000  
J02  37827308.399   198783844.626       -2107.367          32.000  
R04  18390353.723    98479508.707       -2357.213          27.000  
> 2021  9 30 11 15 33.8456259  0  9
C06  35561425.737   185177689.769        -778.379          27.000  
C36  21422663.898   111553452.991       -2302.283          31.000  
E08  20759401.865   109091346.7231      -1368.801          28.000  
G25  22313293.328   117257100.9421      -4700.510          19.000  
G26  19597075.327   102983426.179         508.442          25.000  
G32  19730319.284   103683562.964       -1369.674          28.000  
J02  37827709.522   198785952.189       -2107.561          28.000  
R04  18390796.517    98481879.547       -2357.486          28.000  
R14  21241123.976   113227144.1331      -4627.333          28.000  
> 2021  9 30 11 15 34.8456259  0  8
C06  35561576.833   185178468.714        -779.613          25.000  
C36  21423105.792   111555755.541       -2302.355          23.000  
E08  20759662.085   109092715.576       -1369.517          24.000  
G29  22783813.094   119729509.8311       -442.254          19.000  
G32  19730586.699   103684931.445       -1369.910          29.000  
J02  37828110.044   198788059.999       -2107.740          30.000  
R04  18391241.409    98484261.904       -2358.621          24.000  
R14  21241990.076   113231760.671       -4623.578          26.000  
> 2021  9 30 11 15 35.8456259  0  7
C06  35561727.029   185179248.506        -780.591          25.000  
C19  20890914.521   108784431.8201      -3028.137          20.000  
G26  19596884.359   102982413.0691        504.052          21.000  
G32  19730843.022   103686301.198       -1369.649          29.000  
J02  37828510.567   198790167.582       -2107.595          32.000  
R04  18391687.200    98486648.951       -2358.869          24.000  
R14  21242859.175   113236393.929       -4624.329          27.000  
> 2021  9 30 11 15 36.8456259  0  7
C06  35561875.426   185180028.681        -779.605          19.000  
C36  21423989.581   111560360.3211      -2304.204          19.000  
G25  22315977.370   117271197.3761      -4698.770          26.000  
G26  19596788.126   102981908.973         503.097          21.000  
G32  19731099.044   103687671.806       -1371.919          26.000  
J02  37828910.790   198792275.174       -2108.569          32.000  
R14  21243730.971   113241040.468       -4627.226          27.000  
> 2021  9 30 11 15 37.8456259  0  8
C36  21424430.276   111562665.012       -2304.314          19.000  
G25  22316871.052   117275897.175       -4700.221          25.000  
G26  19596693.391   102981405.768         503.723          21.000  
G32  19731358.964   103689044.320       -1372.370          19.000  
J01  35583973.128   186995156.8901       -418.443          28.000  
J02  37829313.111   198794384.078       -2108.209          31.000  
R04  18392578.783    98491423.7031      -2361.466          18.000  
R14  21244598.570   113245665.445       -4627.002          27.000  
> 2021  9 30 11 15 38.8456259  0  5
G32  19731612.589   103690416.359       -1371.351          18.000  
J01  35584051.374   186995574.999        -418.327          26.000  
J02  37829713.634   198796492.906       -2109.518          29.000  
R04  18393024.274    98493809.709       -2361.591          23.000  
R14  21245466.170   113250290.105       -4626.435          29.000  
> 2021  9 30 11 15 39.8456259  0  8
C06  35562320.918   185182371.5541       -782.235          24.000  
C19  20893241.510   108796554.8841      -3030.835          20.000  
G26  19596500.025   102980398.1381        501.649          25.000  
G29  22784023.249   119730849.5621       -440.470          23.000  
G32  19731874.907   103691787.668       -1372.321          20.000  
J01  35584129.020   186995993.648        -418.968          28.000  
J02  37830114.757   198798602.073       -2109.203          31.000  
R14  21246332.270   113254907.545       -4624.618          29.000  
> 2021  9 30 11 15 40.8456259  0  6
C06  35562470.514   185183153.405        -782.212          21.000  
C19  20893822.208   108799585.718       -3030.682          20.000  
G26  19596404.392   102979895.988         501.959          24.000  
J01  35584208.165   186996412.998        -419.774          28.000  
J02  37830516.778   198800710.757       -2109.170          30.000  
R14  21247202.868   113259547.499       -4626.923          28.000  
> 2021  9 30 11 15 41.8456259  0  6
G25  22320445.177   117294701.4341      -4702.401          22.000  
G29  22784190.833   119731732.6041       -442.893          24.000  
J01  35584285.812   186996832.577        -419.247          26.000  
J02  37830917.901   198802819.926       -2109.138          30.000  
R04  18394360.149    98500962.6501      -2361.461          16.000  
R14  21248071.666   113264179.469       -4628.569          27.000  
> 2021  9 30 11 15 42.8456259  0  7
C19  20894995.296   108805647.3841      -3032.544          24.000  
G25  22321338.559   117299403.560       -4702.463          25.000  
G26  19596215.822   102978897.0751        498.323          22.000  
G32  19732670.257   103695906.3461      -1373.025          27.000  
J01  35584365.556   186997251.862        -419.201          27.000  
J02  37831319.922   198804929.262       -2109.323          30.000  
R14  21248938.066   113268798.057       -4627.715          30.000  
> 2021  9 30 11 15 43.8456259  0 10
C01  36450641.046   189808047.9361      -1275.020          29.000  
C06  35562918.104   185185500.6691       -781.858          22.000  
C19  20895577.793   108808680.830       -3034.520          25.000  
C36  21427107.122   111576508.3021      -2307.928          27.000  
G25  22322231.341   117304106.093       -4702.511          26.000  
G26  19596120.488   102978398.674         498.366          23.000  
G29  22784360.515   119732619.9071       -445.631          23.000  
G32  19732931.076   103697280.601       -1374.627          25.000  
J02  37831721.344   198807038.275       -2109.128          31.000  
R14  21249806.865   113273428.653       -4625.792          29.000  
> 2021  9 30 11 15 44.8456259  0  7
C06  35563068.600   185186281.953        -781.969          23.000  
C36  21427551.415   111578816.200       -2307.542          26.000  
G25  22323125.622   117308808.687       -4701.022          24.000  
J01  35584528.643   186998090.6391       -419.326          23.000  
J02  37832121.567   198809148.243       -2111.292          27.000  
R04  18395660.649    98507926.8541      -2365.500          18.000  
R14  21250672.665   113278044.151       -4622.113          24.000  
> 2021  9 30 11 15 45.8456259  0  5
C06  35563222.393   185187064.123        -782.366          26.000  
C36  21427993.609   111581123.748       -2307.751          28.000  
G25  22324019.903   117313510.342       -4699.871          16.000  
J02  37832522.989   198811259.885       -2111.357          26.000  
R04  18396101.644    98510288.244       -2367.002          24.000  
> 2021  9 30 11 15 46.8456259  0  7
C06  35563374.388   185187846.032        -781.899          23.000  
C36  21428433.104   111583431.484       -2307.987          31.000  
G25  22324916.282   117318208.627       -4699.313          16.000  
G32  19733720.729   103701406.7851      -1376.221          26.000  
J01  35584685.735   186998931.1691       -420.206          17.000  
J02  37832925.011   198813370.589       -2110.083          25.000  
R04  18396542.039    98512646.331       -2369.363          27.000  
> 2021  9 30 11 15 47.8456259  0  9
C06  35563523.685   185188628.259        -782.817          26.000  
C36  21428873.500   111585739.061       -2307.697          30.000  
G25  22325815.360   117322909.346       -4702.178          19.000  
G26  19595743.649   102976396.3031        499.806          19.000  
G32  19733982.148   103702782.961       -1376.651          31.000  
J01  35584764.880   186999351.287        -421.086          26.000  
J02  37833324.934   198815480.017       -2109.965          29.000  
R04  18396983.034    98515007.986       -2371.937          30.000  
R14  21253257.176   113291821.2911      -4624.647          20.000  
> 2021  9 30 11 15 48.8456259  0  9
C06  35563674.780   185189410.975        -783.836          20.000  
C36  21429316.593   111588046.852       -2308.199          30.000  
G25  22326715.037   117327613.074       -4705.147          20.000  
G26  19595648.615   102975897.512         497.105          25.000  
G32  19734245.366   103704159.520       -1377.141          30.000  
J01  35584844.025   186999772.930        -422.426          25.000  
J02  37833726.656   198817590.167       -2110.208          28.000  
R04  18397424.628    98517372.578       -2375.180          28.000  
R14  21254124.176   113296442.643       -4627.011          20.000  
> 2021  9 30 11 15 49.8456259  0  8
C36  21429758.787   111590355.097       -2308.480          31.000  
G25  22327613.815   117332318.383       -4705.456          19.000  
G26  19595554.180   102975399.945         498.413          20.000  
G29  22784881.255   119735287.5021       -450.447          19.000  
G32  19734507.085   103705537.416       -1378.286          31.000  
J01  35584924.070   187000194.961        -421.881          26.000  
R04  18397864.423    98519727.837       -2375.693          31.000  
R14  21254990.276   113301059.269       -4629.110          21.000  
> 2021  9 30 11 15 50.8456259  0  7
C36  21430201.580   111592664.058       -2309.979          32.000  
G25  22328515.590   117337022.512       -4703.806          20.000  
G26  19595460.045   102974902.233         496.272          22.000  
G32  19734770.303   103706916.858       -1380.416          31.000  
J02  37834531.299   198821811.5791      -2111.068          30.000  
R04  18398305.718    98522090.944       -2374.259          32.000  
R14  21255859.075   113305690.197       -4628.144          19.000  
> 2021  9 30 11 15 51.8456259  0  7
C36  21430644.374   111594974.540       -2310.850          32.000  
G25  22329417.366   117341726.686       -4705.666          20.000  
G26  19595366.510   102974407.204         494.305          24.000  
G32  19735033.221   103708296.709       -1379.808          31.000  
J01  35585084.459   187001039.8351       -422.487          25.000  
J02  37834934.220   198823922.697       -2111.397          30.000  
R04  18398746.113    98524449.803       -2374.858          32.000  
> 2021  9 30 11 15 52.8456259  0  9
C06  35564268.369   185192535.7331       -779.723          18.000  
C36  21431087.167   111597284.503       -2309.678          31.000  
G25  22330316.144   117346433.454       -4708.454          19.000  
G26  19595273.275   102973913.968         493.441          25.000  
G32  19735297.038   103709676.278       -1379.787          30.000  
J01  35585168.101   187001463.064        -423.523          24.000  
J02  37835336.242   198826033.969       -2111.479          31.000  
R04  18399188.907    98526821.148       -2376.451          32.000  
R14  21257600.270   113314972.2351      -4634.919          18.000  
> 2021  9 30 11 15 53.8456259  0  5
C36  21431531.160   111599594.308       -2309.399          32.000  
G25  22331214.322   117351139.958       -4706.935          17.000  
G26  19595182.737   102973422.015         491.413          23.000  
J02  37835736.764   198828146.210       -2112.724          28.000  
R14  21258461.873   113319564.905       -4633.373          18.000  
> 2021  9 30 11 15 54.8456259  0  6
C36  21431973.354   111601904.116       -2310.327          30.000  
G25  22332114.299   117355843.589       -4702.927          17.000  
G26  19595091.600   102972931.412         488.867          22.000  
G32  19735823.174   103712434.6381      -1380.723          27.000  
J01  35585330.288   187002311.5301       -424.828          25.000  
J02  37836139.985   198830259.018       -2113.594          26.000  
> 2021  9 30 11 15 55.8456259  0  9
C06  35564723.454   185194881.6491       -784.074          20.000  
C36  21432415.547   111604214.806       -2311.265          32.000  
G25  22333016.974   117360546.153       -4703.265          18.000  
G29  22785395.999   119738004.9211       -452.778          20.000  
G32  19736086.092   103713816.638       -1383.649          27.000  
J01  35585410.633   187002735.404        -422.881          24.000  
J02  37836542.906   198832371.815       -2112.486          28.000  
R04  18400516.388    98533929.5281      -2378.640          33.000  
R14  21260194.673   113328801.7341      -4633.848          17.000  
> 2021  9 30 11 15 56.8456259  0  6
C06  35564876.648   185195665.423        -784.071          25.000  
C36  21432858.641   111606526.677       -2311.937          33.000  
G25  22333917.551   117365528.735       -4704.598          18.000  
J02  37836944.628   198834484.108       -2111.907          28.000  
R04  18400963.678    98536324.309       -2379.568          31.000  
R14  21261061.074   113333419.595       -4635.123          17.000  
> 2021  9 30 11 15 57.8456259  0  8
C06  35565027.744   185196448.007        -782.601          23.000  
C36  21433305.032   111608838.637       -2312.359          32.000  
G25  22334818.127   117370235.428       -4707.514          18.000  
G26  19594814.592   102971468.1511        489.037          20.000  
G29  22785569.578   119738908.0571       -452.678          21.000  
J01  35585571.921   187003582.3641       -422.758          24.000  
J02  37837345.451   198836595.985       -2111.153          28.000  
R04  18401410.968    98538720.093       -2381.195          30.000  
> 2021  9 30 11 15 58.8456259  0  8
C06  35565178.239   185197231.179        -784.567          21.000  
C36  21433748.725   111611150.933       -2313.030          32.000  
G25  22335719.903   117374943.464       -4707.332          19.000  
G26  19594720.158   102970979.122         488.777          28.000  
J01  35585651.366   187004004.750        -422.686          23.000  
J02  37837747.173   198838707.248       -2111.487          27.000  
R04  18401856.460    98541105.024       -2380.838          29.000  
R14  21262798.371   113342680.9041      -4629.504          15.000  
> 2021  9 30 11 15 59.8456259  0  6
C36  21434191.818   111613464.264       -2313.028          34.000  
G25  22336620.479   117379651.290       -4710.230          19.000  
G26  19594627.821   102970489.917         489.152          28.000  
G32  19737132.967   103719356.6631      -1384.308          20.000  
J02  37838148.295   198840819.071       -2112.001          28.000  
R04  18402307.048    98543518.559       -2382.905          26.000  
> 2021  9 30 11 16  0.8456259  0  9
C06  35565482.829   185198799.5051       -784.465          24.000  
C36  21434638.808                       -2317.396          35.000  
G25  22337521.955   117384362.093       -4711.046          19.000  
G26  19594534.286   102970001.471         488.223          29.000  
G29  22785816.907   119740273.1751       -456.107          23.000  
G32  19737393.487   103720740.411       -1383.824          26.000  
J01                                                                  35585828.544   139646400.6511       -312.894          23.000  
J02  37838550.616   198842931.497       -2112.977          29.000  
R04  18402758.535    98545936.056       -2382.331          27.000  
> 2021  9 30 11 16  1.8456259  0 10
C06  35565635.423   185199583.445        -783.380          23.000  
C36  21435081.602                       -2313.312          34.000  
G25  22338424.930   117389073.988       -4716.642          18.000  
G26  19594441.051   102969515.426         484.761          27.000  
G29  22785899.950   119740729.360        -456.031          24.000  
G32  19737655.206   103722124.518       -1386.194          29.000  
J01                                                                  35585908.588   139646714.618        -316.111          24.000  
J02  37838951.439   198845043.964       -2111.965          29.000  
R04  18403208.824    98548347.118       -2384.157          27.000  
R14  21265429.949   113356708.7491      -4627.953          20.000  
> 2021  9 30 11 16  2.8456259  0  8
C06  35565786.518   185200366.652        -783.559          23.000  
C36  21435526.494   111620416.6471      -2314.155          36.000  
G25  22339322.209   117393790.605       -4714.945          17.000  
G26  19594347.815   102969030.722         484.047          23.000  
G32  19737919.023   103723510.751       -1386.169          28.000  
J01                                                                  35585989.532   139647029.697        -315.287          25.000  
J02  37839354.360   198847155.875       -2112.268          30.000  
R04  18403653.716    98550729.881       -2384.030          29.000  
> 2021  9 30 11 16  3.8456259  0  7
C06  35565937.314   185201149.172        -782.116          23.000  
C36  21435969.887   111622730.756       -2313.252          35.000  
G25  22340221.586   117398506.037       -4717.534          15.000  
G26  19594253.980   102968546.496         484.676          26.000  
G32  19738181.941   103724897.144       -1386.513          29.000  
J01                                                                  35586069.876   139647344.547        -315.912          24.000  
J02  37839756.682   198849267.402       -2111.915          30.000  
> 2021  9 30 11 16  4.8456259  0 10
C06  35566086.311   185201931.834        -783.307          24.000  
C19  20907847.698   108872531.8531      -3046.812          25.000  
C36  21436415.378   111625045.201       -2313.835          36.000  
G25  22341123.962   117403224.975       -4720.993          14.000  
G26  19594160.445   102968062.438         483.257          26.000  
G29  22786148.478   119742096.1501       -454.828          19.000  
G32  19738445.159   103726283.615       -1386.902          28.000  
J01                                                                  35586150.820   139647660.819        -318.332          25.000  
J02  37840159.902   198851379.606       -2112.400          30.000  
R04  18404542.300    98555487.9911      -2388.198          26.000  
> 2021  9 30 11 16  5.8456259  0  8
C06  35566237.106   185202714.640        -782.984          24.000  
C19  20908434.092   108875579.011       -3047.486          25.000  
C36  21436863.568   111627359.941       -2315.163          35.000  
G26  19594067.509   102967579.167         484.037          27.000  
G32  19738706.878   103727670.216       -1387.142          29.000  
J01                                                                  35586232.964   139647979.763        -320.617          25.000  
J02  37840561.924   198853491.917       -2112.124          31.000  
