     3.03           OBSERVATION DATA    M: Mixed            RINEX VERSION / TYPE
Geo++ RINEX Logger  Geo++               20210930 115942 UTC PGM / RUN BY / DATE
************************************************************COMMENT
This file was generated by the Geo++ RINEX Logger App       COMMENT
for Android devices (Version 2.1.6). If you encounter       COMMENT
any issues, please send an email to android@geopp.de        COMMENT
Filtering Mode: MORE                                        COMMENT
************************************************************COMMENT
Geo++                                                       MARKER NAME
GEODETIC                                                    MARKER TYPE
Geo++               Geo++                                   OBSERVER / AGENCY
unknown             HUAWEI              ELS-AN00            REC # / TYPE / VERS
unknown             ELS-AN00                                ANT # / TYPE
 -2411094.0301  5386035.1321  2412211.6579                  APPROX POSITION XYZ
        0.0000        0.0000        0.0000                  ANTENNA: DELTA H/E/N
G    8 C1C L1C D1C S1C C5Q L5Q D5Q S5Q                      SYS / # / OBS TYPES
R    4 C1C L1C D1C S1C                                      SYS / # / OBS TYPES
E   12 C1B L1B D1B S1B C1C L1C D1C S1C C5Q L5Q D5Q S5Q      SYS / # / OBS TYPES
C    4 C2I L2I D2I S2I                                      SYS / # / OBS TYPES
J    8 C1C L1C D1C S1C C5Q L5Q D5Q S5Q                      SYS / # / OBS TYPES
  2021     9    30    12     0    0.9977948     GPS         TIME OF FIRST OBS
 24 R01  1 R02 -4 R03  5 R04  6 R05  1 R06 -4 R07  5 R08  6 GLONASS SLOT / FRQ #
    R09 -2 R10 -5 R11  0 R12 -1 R13 -2 R14 -7 R15  0 R16 -1 GLONASS SLOT / FRQ #
    R17  4 R18 -3 R19  3 R20  2 R21  4 R22 -3 R23  3 R24  2 GLONASS SLOT / FRQ #
G L1C                                                       SYS / PHASE SHIFT
G L5Q -0.25000                                              SYS / PHASE SHIFT
R L1C                                                       SYS / PHASE SHIFT
E L1B                                                       SYS / PHASE SHIFT
E L1C +0.50000                                              SYS / PHASE SHIFT
E L5Q -0.25000                                              SYS / PHASE SHIFT
C L2I                                                       SYS / PHASE SHIFT
J L1C                                                       SYS / PHASE SHIFT
J L5Q -0.25000                                              SYS / PHASE SHIFT
 C1C    0.000 C1P    0.000 C2C    0.000 C2P    0.000        GLONASS COD/PHS/BIS
                                                            END OF HEADER
> 2021  9 30 12  0  0.9977948  0  5
C06  36319059.139   189122883.446        -768.990          23.000  
E30  22865665.729   120159864.454       -2516.056          30.000  
G32  21111143.859   110939728.536       -2668.034          21.000  
J01  36252059.122   190505797.036        -783.746          25.000  
J02  39266801.459   206348422.835       -2104.808          28.000    39266807.155   154091352.6361      -1570.260          27.000  
> 2021  9 30 12  0  1.9977940  0  5
C06  36318965.903   189122403.188        -768.569          21.000  
E30  22865903.464   120161114.143       -2511.304          28.000  
G32  21111409.475   110941136.044       -2667.045          23.000  
J01  36251966.186   190505321.185        -784.451          26.000  
J02  39266961.548   206349267.479       -2104.649          28.000    39266966.645   154091981.870       -1570.591          29.000  
> 2021  9 30 12  0  2.9977933  0  5
C06  36318902.047   189122078.982        -768.931          25.000  
C16  36681501.625   191010159.6341       -734.364          28.000  
G32  21111705.071   110942700.458       -2666.983          28.000  
J01  36251901.431   190505003.174        -784.189          19.000  
J02  39267151.617   206350269.332       -2105.134          31.000    39267156.413   154092730.390       -1572.737          25.000  
> 2021  9 30 12  0  3.9977923  0  4
C06  36318749.153   189121285.600        -767.040          25.000  
C16  36681343.934   191009333.041        -734.635          29.000  
J01  36251747.637   190504211.964        -783.738          25.000  
J02  39267251.148   206350798.636       -2104.173          32.000    39267256.844   154093126.581       -1575.164          25.000  
> 2021  9 30 12  0  4.9977915  0  5
C06  36318655.918   189120803.178        -767.120          23.000  
C16  36681245.902   191008819.082        -735.000          29.000  
G32  21112171.848   110945199.1121      -2667.673          30.000  
J01  36251653.802   190503735.270        -783.912          24.000  
J02  39267413.036   206351643.131       -2104.034          32.000    39267417.533   154093759.471       -1571.962          26.000  
> 2021  9 30 12  0  5.9977905  0  4
C16  36681087.611   191007992.845        -734.498          22.000  
G32  21112380.203   110946292.369       -2670.650          29.000  
J01  36251503.606   190502944.222        -784.146          29.000  
J02  39267510.768   206352172.525       -2105.064          29.000    39267518.263   154094154.195       -1571.253          22.000  
> 2021  9 30 12  0  6.9977897  0  4
C16  36680989.879   191007478.296        -733.690          22.000  
G32  21112646.119   110947703.262       -2671.960          23.000  
J01  36251410.970   190502468.657        -784.967          25.000  
J02  39267670.258   206353017.571       -2105.833          25.000  
> 2021  9 30 12  0  7.9977889  0  3
G29  23725274.734   124677160.1851      -1889.128          25.000  
J01  36251319.234   190501994.118        -786.269          22.000  
J02  39267830.347   206353862.130       -2104.750          26.000  
> 2021  9 30 12  0  8.9977879  0  3
C06  36318168.755   189118248.5711       -765.562          18.000  
G32  21113120.091   110950209.1771      -2670.981          26.000  
J02  39267928.679   206354390.650       -2104.689          30.000  
> 2021  9 30 12  0  9.9977869  0  4
C06  36318016.460   189117454.438        -768.791          17.000  
G32  21113326.049   110951304.247       -2670.608          27.000  
J01  36251022.140   190500413.0021       -784.929          20.000  
J02  39268030.308   206354919.413       -2103.827          28.000  
> 2021  9 30 12  0 10.9977864  0  3
G29  23725593.713   124678882.8911      -1886.710          18.000  
G32  21113683.701   110953187.303       -2671.300          29.000  
J01  36251023.639   190500410.193        -784.553          24.000  
> 2021  9 30 12  0 11.9977853  0  4
C16  36680377.403   191004252.8831       -731.238          19.000  
G32  21113862.977   110954125.493       -2671.412          29.000  
J01  36250843.163   190499461.113        -783.564          23.000  
J02  39268352.885   206356606.7671      -2102.022          23.000  
> 2021  9 30 12  0 12.9977846  0  3
C16  36680309.050   191003891.756        -731.894          24.000  
G32  21114163.369   110955694.519       -2672.603          30.000  
J02  39268543.553   206357606.020       -2101.976          20.000  
> 2021  9 30 12  0 13.9977836  0  6
C06  36317624.032   189115384.0571       -771.460          14.000  
C16  36680151.360   191003063.521        -734.590          23.000  
E07  24064018.027   126457286.9971         76.286          31.000  
G32  21114375.322   110956792.363       -2674.469          28.000  
J01  36250634.508   190498351.2671       -786.974          23.000  
J02  39268645.482   206358133.926       -2104.179          20.000  
> 2021  9 30 12  0 14.9977828  0  4
C16  36680055.126   191002551.536        -738.260          21.000  
E07  24063764.103   126455950.407          76.656          30.000  
G32  21114645.135   110958206.686       -2674.801          30.000  
J02  39268806.771   206358976.428       -2102.016          17.000  
> 2021  9 30 12  0 15.9977820  0  2
C16  36679958.593   191002040.875        -738.142          22.000  
G32  21114914.649   110959620.598       -2674.215          28.000  
> 2021  9 30 12  0 16.9977810  0  3
E07  24063196.596   126452962.4791         76.823          32.000  
G32  21115123.604   110960719.781       -2675.423          29.000  
J02  39269068.789   206360343.2131      -2104.295          26.000  
> 2021  9 30 12  0 17.9977800  0  2
C16  36679642.012   191000395.0601       -737.252          20.000  
E07  24062881.514   126451309.350          76.604          25.000  
> 2021  9 30 12  0 18.9977795  0  2
C06  36317132.672   189112820.0551       -770.127          17.000  
G32  21115694.709   110963707.8281      -2676.022          25.000  
> 2021  9 30 12  0 19.9977784  0  2
C16  36679442.950   190999368.7391       -737.018          18.000  
J02  39269501.690   206362569.0171      -2109.381          19.000  
> 2021  9 30 12  0 20.9977774  0  2
G32  21116088.936   110965752.7431      -2677.093          28.000  
J02  39269601.820   206363101.397       -2106.389          20.000  
> 2021  9 30 12  0 21.9977766  0  2
G32  21116357.850   110967170.511       -2679.447          26.000  
J02  39269763.109   206363948.115       -2107.939          20.000  
> 2021  9 30 12  0 22.9977759  0  2
C16  36679115.577   190997685.0841       -737.699          15.000  
G32  21116657.642   110968747.329       -2679.883          26.000  
> 2021  9 30 12  0 23.9977748  0  1
J02  39270023.329   206365324.1191      -2103.247          20.000  
> 2021  9 30 12  0 24.9977741  0  3
C16  36678857.755   190996347.9081       -731.675          13.000  
G32  21117133.713   110971272.9411      -2681.269          24.000  
J02  39270213.097   206366323.901       -2103.998          20.000  
> 2021  9 30 12  0 25.9977731  0  2
C16  36678698.266   190995516.953        -728.314          13.000  
G32  21117342.668   110972377.490       -2680.126          26.000  
> 2021  9 30 12  0 26.9977725  0  2
C16  36678657.494   190995308.207        -728.818          13.000  
G32  21117673.339   110974112.619       -2681.217          23.000  
> 2021  9 30 12  0 27.9977715  0  1
G32  21117882.894   110975219.950       -2683.677          25.000  
> 2021  9 30 12  0 28.9977705  0  1
G32  21118092.749   110976327.520       -2682.912          27.000  
> 2021  9 30 12  0 29.9977697  0  2
C16  36678239.583   190993129.8421       -732.704          16.000  
G32  21118368.558   110977750.433       -2682.988          22.000  
> 2021  9 30 12  0 30.9977690  0  1
G32  21118669.549   110979331.694       -2683.943          24.000  
> 2021  9 30 12  0 31.9977679  0  2
G32  21118853.622   110980282.854       -2684.046          24.000  
J02  39271162.540   206371270.3341      -2105.830          17.000  
> 2021  9 30 12  0 32.9977672  0  2
G32  21119155.813   110981864.229       -2684.289          24.000  
J02  39271353.208   206372274.927       -2107.291          18.000  
> 2021  9 30 12  0 33.9977661  0  2
G32  21119339.286   110982816.314       -2685.207          25.000  
J02  39271428.156   206372649.117       -2106.631          18.000  
> 2021  9 30 12  0 34.9977654  0  2
G32  21119641.177   110984398.542       -2685.046          27.000  
J02  39271619.723   206373652.491       -2107.021          19.000  
> 2021  9 30 12  0 35.9977646  0  1
G32  21119913.988   110985823.648       -2685.026          28.000  
> 2021  9 30 12  0 36.9977636  0  2
G32  21120126.840   110986934.231       -2685.959          29.000  
J02  39271878.144   206375024.9241      -2102.123          19.000  
> 2021  9 30 12  0 37.9977626  0  3
C16  36677236.777   190987904.9731       -730.160          17.000  
G32  21120339.393   110988045.329       -2687.000          27.000  
J02  39271978.275   206375550.003       -2099.123          19.000  
> 2021  9 30 12  0 38.9977620  0  2
C16  36677198.104   190987700.204        -733.682          18.000  
G32  21120670.064   110989787.516       -2686.705          26.000  
> 2021  9 30 12  0 39.9977610  0  2
G32  21120881.118   110990899.005       -2686.708          29.000  
J02  39272291.858   206377228.0141      -2099.287          18.000  
> 2021  9 30 12  0 40.9977603  0  2
G32  21121182.709   110992483.067       -2686.546          28.000  
J02  39272478.629   206378225.205       -2101.887          18.000  
> 2021  9 30 12  0 41.9977592  0  2
C16  36676783.791   190985534.1611       -736.982          19.000  
G32  21121365.883   110993437.222       -2687.922          25.000  
> 2021  9 30 12  0 42.9977585  0  1
G32  21121667.774   110995023.523       -2690.879          28.000  
> 2021  9 30 12  0 43.9977577  0  1
G32  21121939.086   110996452.504       -2688.521          26.000  
> 2021  9 30 12  0 44.9977567  0  1
G32  21122151.039   110997565.557       -2688.992          24.000  
> 2021  9 30 12  0 45.9977556  0  0
> 2021  9 30 12  0 46.9977551  0  1
G32  21122696.661   111000424.7561      -2690.071          23.000  
> 2021  9 30 12  0 47.9977541  0  1
G32  21122907.715   111001540.528       -2692.902          24.000  
> 2021  9 30 12  0 48.9977531  0  1
G32  21123120.868   111002658.948       -2693.881          25.000  
> 2021  9 30 12  0 49.9977523  0  1
G32  21123392.480   111004092.181       -2693.462          27.000  
> 2021  9 30 12  0 50.9977516  0  2
C16  36675785.782   190980297.3281       -733.836          18.000  
G32  21123696.469   111005682.313       -2693.161          27.000  
> 2021  9 30 12  0 51.9977505  0  1
G32  21123880.842   111006643.432       -2694.692          24.000  
> 2021  9 30 12  0 52.9977498  0  1
G32  21124182.733   111008234.490       -2694.575          24.000  
> 2021  9 30 12  0 53.9977487  0  1
G32  21124369.204   111009197.000       -2696.438          25.000  
> 2021  9 30 12  0 54.9977480  0  1
G32  21124671.994   111010790.170       -2695.665          24.000  
> 2021  9 30 12  0 55.9977472  0  1
G32  21124944.205   111012225.330       -2695.630          27.000  
> 2021  9 30 12  0 56.9977462  0  0
> 2021  9 30 12  0 57.9977454  0  1
G32  21125431.068   111014779.9171      -2694.884          22.000  
> 2021  9 30 12  0 58.9977446  0  1
G32  21125704.779   111016214.469       -2695.265          23.000  
> 2021  9 30 12  0 59.9977436  0  1
G32  21125918.831   111017334.495       -2696.221          21.000  
> 2021  9 30 12  1  0.9977428  0  1
G32  21126195.539   111018771.384       -2697.910          23.000  
> 2021  9 30 12  1  1.9977418  0  1
G32  21126410.490   111019893.819       -2698.937          28.000  
> 2021  9 30 12  1  2.9977411  0  1
G32  21126714.180   111021489.926       -2698.660          29.000  
> 2021  9 30 12  1  3.9977403  0  1
G32  21126991.188   111022928.843       -2700.333          26.000  
> 2021  9 30 12  1  4.9977393  0  1
G32  21127204.641   111024054.256       -2701.343          28.000  
> 2021  9 30 12  1  5.9977382  0  1
G32  21127389.313   111025022.437       -2701.288          26.000  
> 2021  9 30 12  1  6.9977377  0  0
> 2021  9 30 12  1  7.9977367  0  1
G32  21127966.713   111028059.2491      -2700.439          26.000  
> 2021  9 30 12  1  8.9977359  0  1
G32  21128241.023   111029499.390       -2701.559          27.000  
> 2021  9 30 12  1  9.9977349  0  1
G32  21128454.775   111030625.822       -2703.007          28.000  
> 2021  9 30 12  1 10.9977341  0  1
G32  21128730.584   111032067.696       -2702.690          28.000  
> 2021  9 30 12  1 11.9977334  0  1
G32  21129035.173   111033668.242       -2703.950          28.000  
> 2021  9 30 12  1 12.9977324  0  1
G32  21129248.925   111034796.407       -2702.128          26.000  
> 2021  9 30 12  1 13.9977313  0  1
G32  21129431.799   111035766.170       -2704.058          27.000  
> 2021  9 30 12  1 14.9977308  0  1
G32  21129794.548   111037683.382       -2705.421          30.000  
> 2021  9 30 12  1 15.9977298  0  1
G32  21130011.597   111038813.859       -2706.402          27.000  
> 2021  9 30 12  1 16.9977288  0  1
G32  21130227.448   111039946.226       -2706.745          27.000  
> 2021  9 30 12  1 17.9977280  0  1
G32  21130504.756   111041393.068       -2709.578          25.000  
> 2021  9 30 12  1 18.9977272  0  1
G32  21130782.064   111042842.079       -2709.546          26.000  
> 2021  9 30 12  1 19.9977262  0  1
G32  21130997.915   111043975.431       -2708.296          26.000  
> 2021  9 30 12  1 20.9977254  0  1
G32  21131273.124   111045423.287       -2707.693          29.000  
> 2021  9 30 12  1 21.9977244  0  1
G32  21131488.375   111046556.166       -2708.817          27.000  
> 2021  9 30 12  1 22.9977239  0  1
G32  21131855.021   111048477.376       -2708.896          29.000  
> 2021  9 30 12  1 23.9977229  0  1
G32  21132070.272   111049609.855       -2707.038          28.000  
> 2021  9 30 12  1 24.9977219  0  1
G32  21132286.123   111050742.702       -2708.727          27.000  
> 2021  9 30 12  1 25.9977211  0  1
G32  21132564.030   111052190.522       -2707.646          28.000  
> 2021  9 30 12  1 26.9977203  0  1
G32  21132839.240   111053638.537       -2708.379          22.000  
> 2021  9 30 12  1 27.9977193  0  1
G32  21133055.090   111054772.285       -2709.251          24.000  
> 2021  9 30 12  1 28.9977185  0  1
G32  21133330.300   111056220.771       -2707.945          23.000  
> 2021  9 30 12  1 29.9977175  0  1
G32  21133544.651   111057354.570       -2710.324          26.000  
> 2021  9 30 12  1 30.9977167  0  1
G32  21133819.561   111058806.167       -2713.013          27.000  
> 2021  9 30 12  1 31.9977160  0  1
G32  21134128.647   111060416.673       -2714.211          26.000  
> 2021  9 30 12  1 32.9977149  0  1
G32  21134313.319   111061397.842       -2713.238          26.000  
> 2021  9 30 12  1 33.9977142  0  1
G32  21134620.607   111063008.486       -2712.690          27.000  
> 2021  9 30 12  1 34.9977134  0  1
G32  21134896.715   111064461.398       -2714.075          28.000  
> 2021  9 30 12  1 35.9977124  0  1
G32  21135112.566   111065600.376       -2714.566          29.000  
> 2021  9 30 12  1 36.9977116  0  1
G32  21135389.574   111067054.306       -2714.293          29.000  
> 2021  9 30 12  1 37.9977106  0  1
G32  21135606.924   111068191.898       -2712.943          27.000  
> 2021  9 30 12  1 38.9977098  0  1
G32  21135882.733   111069645.250       -2714.188          29.000  
> 2021  9 30 12  1 39.9977091  0  1
G32  21136189.121   111071257.447       -2715.781          26.000  
> 2021  9 30 12  1 40.9977080  0  1
G32  21136377.390   111072241.728       -2718.239          28.000  
> 2021  9 30 12  1 41.9977070  0  1
G32  21136594.740   111073383.887       -2717.591          28.000  
> 2021  9 30 12  1 42.9977065  0  1
G32  21136960.487   111075313.785       -2718.293          27.000  
> 2021  9 30 12  1 43.9977055  0  1
G32  21137177.536   111076456.518       -2718.384          26.000  
> 2021  9 30 12  1 44.9977044  0  1
G32  21137367.905   111077443.407       -2720.552          24.000  
> 2021  9 30 12  1 45.9977037  0  1
G32  21137678.789   111079061.558       -2720.836          27.000  
> 2021  9 30 12  1 46.9977029  0  1
G32  21137958.196   111080522.815       -2722.228          31.000  
> 2021  9 30 12  1 47.9977019  0  1
G32  21138175.546   111081669.577       -2721.410          31.000  
> 2021  9 30 12  1 48.9977011  0  1
G32  21138452.254   111083129.650       -2717.525          30.000  
> 2021  9 30 12  1 49.9977001  0  0
> 2021  9 30 12  1 50.9976993  0  1
G32  21138946.012   111085728.3131      -2718.978          26.000  
> 2021  9 30 12  1 51.9976986  0  1
G32  21139252.400   111087345.956       -2721.596          24.000  
> 2021  9 30 12  1 52.9976975  0  0
> 2021  9 30 12  1 53.9976965  0  1
G32  21139658.319   111089482.0391      -2721.949          24.000  
> 2021  9 30 12  1 54.9976960  0  1
G32  21140025.565   111091417.159       -2723.368          28.000  
> 2021  9 30 12  1 55.9976950  0  1
G32  21140244.413   111092566.233       -2725.336          29.000  
> 2021  9 30 12  1 56.9976942  0  1
G32  21140524.120   111094031.662       -2725.471          30.000  
> 2021  9 30 12  1 57.9976932  0  1
G32  21140742.369   111095181.873       -2725.910          31.000  
> 2021  9 30 12  1 58.9976924  0  1
G32  21141019.677   111096646.369       -2722.063          32.000  
> 2021  9 30 12  1 59.9976916  0  1
G32  21141297.584   111098109.500       -2725.108          32.000  
> 2021  9 30 12  2  0.9976906  0  0
> 2021  9 30 12  2  1.9976896  0  1
G32  21141734.682   111100410.9901      -2726.653          28.000  
> 2021  9 30 12  2  2.9976891  0  1
G32  21142104.925   111102348.356       -2723.298          27.000  
> 2021  9 30 12  2  3.9976881  0  1
G32  21142325.273   111103495.461       -2723.627          24.000  
> 2021  9 30 12  2  4.9976870  0  1
G32  21142514.742   111104486.553       -2723.376          24.000  
> 2021  9 30 12  2  5.9976863  0  0
> 2021  9 30 12  2  6.9976855  0  1
G32  21143107.431   111107573.5941      -2725.822          27.000  
> 2021  9 30 12  2  7.9976847  0  2
G03  23528114.725                         223.167          32.000  
G32  21143387.437   111109040.519       -2727.944          28.000  
> 2021  9 30 12  2  8.9976837  0  2
G03  23527773.861                         222.768          33.000  
G32  21143606.886   111110192.814       -2728.306          28.000  
> 2021  9 30 12  2  9.9976827  0  2
G03  23527433.597   123637704.9861        220.979          34.000  
G32  21143824.835   111111346.435       -2729.938          27.000  
> 2021  9 30 12  2 10.9976822  0  2
G03  23527242.329   123636695.809         221.417          31.000  
G32  21144195.078   111113289.236       -2731.547          32.000  
> 2021  9 30 12  2 11.9976812  0  2
G03  23526901.165   123634898.957         220.669          31.000  
G32  21144415.426   111114445.575       -2731.705          32.000  
> 2021  9 30 12  2 12.9976801  0  2
G03  23526529.123   123632946.015         218.444          31.000  
G32  21144607.593   111115444.972       -2732.717          34.000  
> 2021  9 30 12  2 13.9976794  0  2
G03  23526319.268   123631843.221         218.444          28.000  
G32  21144918.178   111117074.812       -2731.320          32.000  
> 2021  9 30 12  2 14.9976786  0  2
G03  23525996.392                         218.161          26.000  
G32  21145195.186   111118544.034       -2728.130          31.000  
> 2021  9 30 12  2 15.9976776  0  2
G03  23525696.599                         218.161          22.000  
G32  21145413.435   111119698.501       -2730.651          28.000  
> 2021  9 30 12  2 16.9976768  0  2
G03  23525456.765                          50.194          21.000  
G32  21145693.141   111121170.014       -2733.454          28.000  
> 2021  9 30 12  2 17.9976758  0  2
G03  23525156.973                          50.194          22.000  
G32  21145913.489   111122328.351       -2735.413          28.000  
> 2021  9 30 12  2 18.9976753  0  2
G03  23525007.076                          50.194          20.000  
G32  21146283.732   111124276.042       -2736.092          30.000  
> 2021  9 30 12  2 19.9976742  0  1
G32  21146476.799   111125279.633       -2736.599          29.000  
> 2021  9 30 12  2 20.9976732  0  1
G32  21146698.046   111126440.952       -2736.800          30.000  
> 2021  9 30 12  2 21.9976724  0  2
G03  23524137.678                          50.194          16.000  
G32  21146979.251   111127917.283       -2737.041          32.000  
> 2021  9 30 12  2 22.9976717  0  2
G03  23523927.824                          50.194          14.000  
G32  21147291.335   111129552.014       -2738.049          30.000  
> 2021  9 30 12  2 23.9976707  0  2
G03  23523628.031                         222.768          13.000  
G32  21147511.682   111130714.758       -2738.594          32.000  
> 2021  9 30 12  2 24.9976699  0  2
G03  23523388.197                         222.768          12.000  
G32  21147794.387   111132192.902       -2738.473          30.000  
> 2021  9 30 12  2 25.9976689  0  1
G32  21148014.734   111133356.405       -2739.625          28.000  
> 2021  9 30 12  2 26.9976681  0  1
G32  21148296.239   111134835.831       -2740.408          31.000  
> 2021  9 30 12  2 27.9976673  0  1
G32  21148576.545   111136315.533       -2739.158          28.000  
> 2021  9 30 12  2 28.9976663  0  1
G32  21148798.092   111137478.260       -2737.545          29.000  
> 2021  9 30 12  2 29.9976655  0  1
G32  21149078.398   111138955.883       -2738.917          29.000  
> 2021  9 30 12  2 30.9976648  0  1
G32  21149392.880   111140591.604       -2738.754          30.000  
> 2021  9 30 12  2 31.9976637  0  1
G32  21149585.946   111141596.865       -2738.092          30.000  
> 2021  9 30 12  2 32.9976630  0  1
G32  21149898.630   111143232.565       -2739.320          27.000  
> 2021  9 30 12  2 33.9976620  0  1
G32  21150118.977   111144397.332       -2741.362          27.000  
> 2021  9 30 12  2 34.9976612  0  1
G32  21150400.482   111145879.038       -2742.768          28.000  
> 2021  9 30 12  2 35.9976604  0  1
G32  21150684.086   111147362.167       -2744.670          28.000  
> 2021  9 30 12  2 36.9976594  0  1
G32  21150907.731   111148532.141       -2745.980          32.000  
> 2021  9 30 12  2 37.9976584  0  1
G32  21151131.376   111149702.142       -2745.190          32.000  
> 2021  9 30 12  2 38.9976579  0  1
G32  21151503.119   111151659.025       -2744.672          32.000  
> 2021  9 30 12  2 39.9976568  0  1
G32  21151694.387   111152671.108       -2745.028          31.000  
> 2021  9 30 12  2 40.9976558  0  1
G32  21151916.533   111153840.833       -2745.507          32.000  
> 2021  9 30 12  2 41.9976550  0  1
G32  21152200.736   111155326.526       -2746.139          33.000  
> 2021  9 30 12  2 42.9976543  0  1
G32  21152512.820   111156970.630       -2747.495          34.000  
> 2021  9 30 12  2 43.9976535  0  1
G32  21152795.524   111158457.705       -2747.460          31.000  
> 2021  9 30 12  2 44.9976525  0  1
G32  21153017.371   111159629.337       -2746.897          31.000  
> 2021  9 30 12  2 45.9976515  0  1
G32  21153240.117   111160801.021       -2748.314          30.000  
> 2021  9 30 12  2 46.9976509  0  1
G32  21153582.779   111162603.510       -2747.342          32.000  
> 2021  9 30 12  2 47.9976499  0  1
G32  21153804.026   111163775.228       -2747.960          29.000  
> 2021  9 30 12  2 48.9976489  0  1
G32  21154026.172   111164947.956       -2748.882          30.000  
> 2021  9 30 12  2 49.9976481  0  1
G32  21154309.476   111166437.506       -2750.572          33.000  
> 2021  9 30 12  2 50.9976474  0  0
> 2021  9 30 12  2 51.9976466  0  1
G32  21154910.860   111169578.5451      -2751.598          31.000  
> 2021  9 30 12  2 52.9976456  0  1
G32  21155133.006   111170754.174       -2750.978          30.000  
> 2021  9 30 12  2 53.9976445  0  1
G32  21155324.873   111171772.422       -2751.359          30.000  
> 2021  9 30 12  2 54.9976440  0  0
> 2021  9 30 12  2 55.9976430  0  0
> 2021  9 30 12  2 56.9976420  0  0
> 2021  9 30 12  2 57.9976412  0  1
G32  21156427.810   111177580.4311      -2750.061          31.000  
> 2021  9 30 12  2 58.9976404  0  0
> 2021  9 30 12  2 59.9976394  0  0
> 2021  9 30 12  3  0.9976387  0  0
> 2021  9 30 12  3  1.9976376  0  0
> 2021  9 30 12  3  2.9976371  0  0
> 2021  9 30 12  3  3.9976361  0  1
G32  21158047.888   111186059.2561      -2754.266          29.000  
> 2021  9 30 12  3  4.9976351  0  0
> 2021  9 30 12  3  5.9976343  0  0
> 2021  9 30 12  3  6.9976335  0  1
G32  21158856.428   111190540.1331      -2750.330          31.000  
> 2021  9 30 12  3  7.9976325  0  1
G32  21159082.472   111191715.808       -2751.000          31.000  
> 2021  9 30 12  3  8.9976317  0  1
G32  21159366.675   111193207.896       -2754.803          27.000  
> 2021  9 30 12  3  9.9976307  0  1
G32  21159592.119   111194387.417       -2755.772          30.000  
> 2021  9 30 12  3 10.9976302  0  1
G32  21159969.558   111196354.278       -2754.679          30.000  
> 2021  9 30 12  3 11.9976292  0  1
G32  21160199.499   111197532.805       -2753.800          31.000  
> 2021  9 30 12  3 12.9976282  0  1
G32  21160427.641   111198711.268       -2754.611          28.000  
> 2021  9 30 12  3 13.9976274  0  1
G32  21160711.844   111200205.844       -2755.452          29.000  
> 2021  9 30 12  3 14.9976266  0  1
G32  21160995.747   111201700.974       -2755.502          29.000  
> 2021  9 30 12  3 15.9976256  0  3
C06  36296943.749   189007710.4541       -760.811          28.000  
C22  22171884.524   115454820.3291      -1544.307          28.000  
E30  22908971.949   120387459.1841      -2554.756          25.000  
> 2021  9 30 12  3 16.9976248  0  4
C06  36296849.614   189007222.140        -759.966          27.000  
C22  22171939.386   115455116.825       -1545.987          28.000  
E30  22909217.179   120388753.231       -2553.978          24.000  
G32  21161513.189   111204375.7871      -2756.166          24.000  
> 2021  9 30 12  3 17.9976238  0  2
C06  36296694.921   189006420.062        -758.299          26.000  
C22  22171935.788   115455102.143       -1546.275          26.000  
> 2021  9 30 12  3 18.9976230  0  3
C06  36296600.187   189005928.560        -757.404          25.000  
C22  22171993.049   115455399.931       -1546.584          26.000  
G32                                                                  21162016.241    83044296.5411      -2059.386          29.000  
> 2021  9 30 12  3 19.9976223  0  3
C22  22172079.389   115455853.232       -1547.130          26.000  
G26  20108802.766   105672471.0101      -1219.609          29.000  
G32                                                                  21162331.323    83045532.306       -2059.707          29.000  
> 2021  9 30 12  3 20.9976212  0  4
C06  36296351.359   189004634.7531       -759.698          23.000  
C22  22172046.412   115455682.839       -1545.723          27.000  
G26  20108706.532   105671957.857       -1220.540          30.000  
G32                                                                  21162526.788    83046297.101       -2060.732          28.000  
> 2021  9 30 12  3 21.9976205  0  4
C22  22172132.452   115456135.908       -1546.458          26.000  
E30  22910355.191   120394749.7881      -2554.746          27.000  
G26  20108729.916   105672075.850       -1220.624          30.000  
G32                                                                  21162842.469    83047534.111       -2060.715          29.000  
> 2021  9 30 12  3 22.9976197  0  4
C22  22172191.811   115456434.093       -1547.065          26.000  
E30  22910601.321   120396044.738       -2556.653          26.000  
G26  20108721.222   105672036.091       -1221.118          30.000  
G32                                                                  21163127.871    83048652.846       -2059.570          29.000  
> 2021  9 30 12  3 23.9976187  0  4
C22  22172190.012   115456419.951       -1547.027          26.000  
E30  22910785.993   120397024.219       -2552.847          26.000  
G26  20108654.068   105671681.860       -1221.589          31.000  
G32                                                                  21163353.016    83049536.299       -2059.573          29.000  
> 2021  9 30 12  3 24.9976179  0  5
C06  36295945.440   189002519.5191       -758.681          22.000  
C22  22172246.673   115456718.395       -1547.602          25.000  
E30  22911032.722   120398317.195       -2554.759          26.000  
G26  20108645.674   105671643.154       -1221.680          30.000  
G32                                                                  21163638.418    83050655.062       -2060.203          29.000  
> 2021  9 30 12  3 25.9976169  0  5
C06  36295790.747   189001717.154        -758.654          24.000  
C22  22172245.174   115456705.644       -1548.259          27.000  
E30  22911217.994   120399297.576       -2555.949          26.000  
G26  20108580.020   105671290.527       -1223.224          30.000  
G32                                                                  21163863.562    83051538.668       -2060.000          29.000  
> 2021  9 30 12  3 26.9976161  0  5
C06  36295696.013   189001226.847        -759.012          24.000  
C22  22172301.835   115457005.288       -1549.058          27.000  
E30  22911466.222   120400591.734       -2554.530          26.000  
G26  20108571.326   105671252.899       -1223.147          29.000  
G32                                                                  21164148.965    83052658.994       -2061.350          29.000  
> 2021  9 30 12  3 27.9976154  0  5
C06  36295630.958   189000892.818        -760.069          25.000  
C22  22172388.475   115457462.827       -1549.873          26.000  
G26  20108592.911   105671373.042       -1222.125          29.000  
G32  21164466.745   111219911.0591      -2761.004          23.000    21164464.646    83053897.005       -2061.519          29.000  
J01  36229827.712   190389028.7541       -801.288          25.000  
> 2021  9 30 12  3 28.9976143  0  4
C06  36295446.585   188999934.546        -757.951          21.000  
C22  22172356.697   115457295.543       -1550.029          26.000  
G26  20108494.879   105670862.963       -1223.623          29.000  
G32  21164659.211   111220939.588       -2761.985          28.000    21164660.710    83054664.357       -2060.555          29.000  
> 2021  9 30 12  3 29.9976136  0  5
C06  36295383.629   188999599.431        -756.588          20.000  
C22  22172444.236   115457752.836       -1549.314          27.000  
G26  20108517.363   105670984.452       -1225.467          25.000  
G32                                                                  21164978.490    83055903.913       -2064.810          25.000  
J01  36229597.472   190387797.9971       -800.914          22.000  
> 2021  9 30 12  3 30.9976128  0  3
C22  22172503.595   115458055.937       -1553.061          18.000  
E08                                                                                                                                  22113004.086    86776177.1691      -1831.950          25.000  
G32                                                                  21165263.893    83057027.523       -2064.076          24.000  
> 2021  9 30 12  3 31.9976120  0  6
C06  36295192.961   188998611.7651       -755.854          26.000  
C22  22172563.853   115458359.102       -1551.639          23.000  
E08                                                                                                                                  22113229.530    86777066.684       -1829.173          25.000  
G26  20108499.675   105670910.0911      -1223.714          21.000  
G32                                                                  21165551.693    83058149.249       -2062.733          24.000  
J02  39296248.273   206503178.1721      -2085.419          23.000  
> 2021  9 30 12  3 32.9976110  0  6
C06  36295037.668   188997806.441        -756.104          26.000  
C22  22172562.654   115458349.991       -1552.373          23.000  
E08                                                                                                                                  22113394.416    86777718.012       -1826.173          25.000  
G26  20108434.021   105670559.375       -1225.762          26.000  
G32  21165750.156   111226791.3031      -2763.039          19.000    21165777.137    83059034.864       -2061.559          23.000  
J01  36229275.195   190386105.3351       -801.638          21.000  
> 2021  9 30 12  3 33.9976100  0  6
C06  36294882.975   188997001.549        -756.482          26.000  
C22  22172560.856   115458340.962       -1551.512          25.000  
E08                                                                                                                                  22113558.702    86778368.479       -1828.251          27.000  
G26  20108368.366   105670209.837       -1226.502          27.000  
G32  21165972.602   111227979.085       -2763.504          28.000    21166002.581    83059921.112       -2063.776          26.000  
J02  39296439.841   206504200.1651      -2086.050          23.000  
> 2021  9 30 12  3 34.9976095  0  6
C06  36294876.980   188996977.171        -757.359          25.000  
C22  22172708.953   115459112.344       -1552.620          28.000  
E08                                                                                                                                  22113875.882    86779608.243       -1828.263          23.000  
G26  20108453.208   105670649.462       -1228.786          27.000  
G32                                                                  21166377.322    83061396.930       -2064.802          23.000  
J02  39296688.069   206505498.635       -2085.654          17.000  
> 2021  9 30 12  3 35.9976084  0  5
C06  36294693.507   188996017.635        -757.548          26.000  
C22  22172675.376   115458946.828       -1552.731          25.000  
G26  20108358.473   105670144.925       -1228.804          25.000  
G32  21166543.707   111230985.1531      -2763.427          28.000    21166572.787    83062168.272       -2065.875          25.000  
J02  39296757.621   206505851.333       -2085.100          24.000  
> 2021  9 30 12  3 36.9976074  0  5
C06  36294539.713   188995213.606        -757.162          26.000  
C22  22172677.775   115458939.871       -1554.732          18.000  
G32  21166767.951   111232173.964       -2764.729          26.000    21166797.631    83063057.485       -2065.116          27.000  
J01  36228822.808   190383648.1871       -802.923          22.000  
J02  39296854.154   206506361.476       -2085.431          25.000  
> 2021  9 30 12  3 37.9976067  0  5
C06  36294476.757   188994877.992        -757.675          28.000  
C22  22172768.312   115459401.890       -1554.334          27.000  
G26  20108314.104   105669927.3641      -1229.893          26.000  
G32  21167082.134   111233835.765       -2765.058          29.000    21167113.312    83064298.962       -2065.330          24.000  
J02  39297045.721   206507344.927       -2087.361          21.000  
> 2021  9 30 12  3 38.9976059  0  6
C06  36294382.322   188994385.928        -756.202          25.000  
C22  22172828.570   115459707.423       -1554.416          29.000  
G26  20108308.708   105669895.922       -1228.679          27.000  
G32                                                                  21167402.312    83065422.366       -2063.780          24.000  
J01  36228682.505   190382888.8201       -801.442          23.000  
J02  39297202.813   206508171.805       -2087.203          21.000  
> 2021  9 30 12  3 39.9976051  0  6
C06  36294288.787   188993894.414        -758.593          25.000  
C22  22172885.531   115460012.641       -1554.154          26.000  
G26  20108302.412   105669862.975       -1226.597          27.000  
G32                                                                  21167687.415    83066545.585       -2064.926          28.000  
J01  36228595.265   190382430.214        -802.978          24.000  
J02  39297359.904   206508998.806       -2087.335          25.000  
> 2021  9 30 12  3 40.9976041  0  6
C06  36294134.693   188993091.455        -758.472          25.000  
C22  22172883.132   115460005.788       -1554.582          26.000  
G26  20108234.959   105669515.550       -1228.151          25.000  
G32                                                                  21167912.559    83067434.981       -2065.423          28.000  
J01  36228450.166   190381657.645        -801.178          23.000  
J02  39297458.835   206509509.908       -2085.415          23.000  
> 2021  9 30 12  3 41.9976031  0  5
C06  36293979.401   188992287.880        -756.795          24.000  
C22  22172882.233   115459999.630       -1555.289          27.000  
G26  20108169.904   105669168.865       -1229.563          25.000  
G32                                                                  21168138.003    83068323.627       -2067.556          27.000  
J02  39297559.865   206510019.917       -2085.949          27.000  
> 2021  9 30 12  3 42.9976026  0  4
C22  22173030.031   115460774.447       -1555.262          28.000  
G26  20108254.745   105669611.120       -1230.617          27.000  
G32                                                                  21168513.943    83069802.427       -2066.822          28.000  
J02  39297808.993   206511317.590       -2084.449          27.000  
> 2021  9 30 12  3 43.9976015  0  5
C06  36293796.527   188991304.0881       -757.446          18.000  
G26  20108160.010   105669109.029       -1231.734          28.000  
G32                                                                  21168711.206    83070575.112       -2067.263          29.000  
J01  36228129.388   190379968.0191       -803.992          27.000  
J02  39297875.847   206511668.914       -2084.227          27.000  
> 2021  9 30 12  3 44.9976005  0  5
C06  36293643.034   188990499.278        -757.459          18.000  
C22  22172993.156   115460607.0441      -1556.449          21.000  
G26  20108095.255   105668766.082       -1232.555          29.000  
G32                                                                  21168937.549    83071465.262       -2065.566          29.000  
J02  39297971.780   206512177.459       -2084.444          26.000  
> 2021  9 30 12  3 45.9975997  0  7
C06  36293550.098   188990007.836        -757.720          19.000  
C19  23224070.011   120933826.3531      -4165.564          28.000  
C22  22173052.515   115460914.596       -1556.386          24.000  
C36  23136822.311   120479504.4111      -2675.477          19.000  
G26  20108089.559   105668738.272       -1232.943          28.000  
G32                                                                  21169224.451    83072591.104       -2068.824          29.000  
J02  39298130.670   206513001.996       -2084.931          26.000  
> 2021  9 30 12  3 46.9975990  0  6
C06  36293487.142   188989671.271        -754.866          25.000  
C19  23224658.803   120936899.420       -4166.056          29.000  
C22  22173141.853   115461379.860       -1559.515          24.000  
G26  20108114.142   105668868.484       -1233.561          28.000  
G32  21169527.241   111246605.8521      -2769.273          30.000    21169542.531    83073835.858       -2068.106          29.000  
J02  39298319.539   206513983.291       -2082.867          26.000  
> 2021  9 30 12  3 47.9975980  0  6
C06  36293331.250   188988865.366        -755.572          31.000  
C16  36654541.589   190869816.2751       -724.403          16.000  
C19  23225158.258   120939503.761       -4165.051          29.000  
C22  22173144.851   115461378.004       -1558.711          28.000  
G26  20108051.186   105668525.791       -1231.267          24.000  
G32  21169751.786   111247799.825       -2769.778          28.000    21169770.673    83074727.607       -2068.309          28.000  
> 2021  9 30 12  3 48.9975972  0  6
C06  36293235.316   188988371.436        -754.973          30.000  
C16  36654441.458   190869291.369        -724.203          32.000  
C19  23225717.370   120942419.492       -4164.572          27.000  
C22  22173206.009   115461688.386       -1559.127          30.000  
G32  21170038.088   111249308.297       -2768.797          30.000    21170057.874    83075854.478       -2067.130          29.000  
J02  39298573.164   206515315.0631      -2084.138          24.000  
> 2021  9 30 12  3 49.9975962  0  8
C06  36293079.424   188987566.074        -756.068          29.000  
C16  36654280.470   190868454.214        -724.282          33.000  
C19  23226216.525   120945022.670       -4163.679          30.000  
C22  22173207.808   115461687.313       -1560.578          31.000  
C36  23137838.008   120484742.9361      -2676.623          14.000  
G32  21170266.230   111250501.867       -2769.885          36.000    21170286.616    83076746.603       -2069.891          29.000  
J01  36227448.559   190376433.5761       -803.240          20.000  
J02  39298671.496   206515824.320       -2084.921          31.000  
> 2021  9 30 12  3 50.9975956  0  9
C06  36293042.849   188987385.027        -756.420          23.000  
C16  36654244.195                        -727.067          33.000  
C19  23226836.196   120948250.342       -4165.183          29.000  
C22  22173329.823   115462311.254       -1560.879          32.000  
G26  20108031.699   105668443.6521      -1233.054          18.000  
G32  21170618.786   111252326.696       -2771.910          34.000    21170634.675    83078110.283       -2068.905          27.000  
J01  36227421.278   190376292.932        -804.857          19.000  
J02  39298889.145   206516964.010       -2084.588          29.000  
R05  19204590.639   102659542.6981       -698.377          28.000  
> 2021  9 30 12  3 51.9975946  0 10
C06  36292886.957   188986580.913        -757.324          24.000  
C16  36654081.407                        -726.266          32.000  
C19  23227336.849   120950855.529       -4166.724          28.000  
C22  22173331.922   115462311.114       -1561.255          29.000  
C36  23138384.230   120487600.5221      -2680.450          11.000  
G26  20107970.242   105668101.643       -1234.888          26.000  
G32  21170852.923   111253522.566       -2771.318          32.000    21170862.817    83079002.781       -2068.223          28.000  
J01  36227272.281   190375522.567        -805.242          21.000  
J02  39298985.678   206517473.114       -2084.742          27.000  
R05  19204419.157   102658626.133        -701.466          26.000  
> 2021  9 30 12  3 52.9975936  0 11
C06  36292729.866   188985776.904        -757.446          22.000  
C16  36653920.419   190866595.4201       -726.317          32.000  
C19  23227836.603   120953460.504       -4165.307          27.000  
C22  22173334.920   115462311.625       -1562.451          28.000  
E08  22117485.683   116227937.1601      -2456.498          29.000  
E30  22917372.133                       -2561.495          32.000  
G26  20107905.786   105667761.808       -1237.454          29.000  
G32                                                                  21171089.160    83079894.979       -2069.420          28.000  
J01  36227122.985   190374752.497        -805.673          26.000  
J02  39299081.012   206517982.503       -2085.505          28.000  
R05  19204250.374   102657723.521        -702.826          24.000  
> 2021  9 30 12  3 53.9975928  0 10
C06  36292636.031   188985284.340        -756.609          26.000  
C16  36653819.689   190866072.492        -725.003          33.000  
C19  23228395.716   120956377.122       -4165.846          27.000  
C22  22173395.478   115462625.054       -1562.244          27.000  
E08  22117717.123   116229133.691       -2457.216          26.000  
E30  22917626.058   120432903.8721      -2563.273          32.000  
G26  20107899.191   105667739.161       -1237.987          27.000  
G32                                                                  21171375.462    83081023.537       -2067.924          26.000  
J02  39299239.303   206518807.894       -2085.296          30.000  
R05  19204141.549   102657142.218        -700.472          25.000  
> 2021  9 30 12  3 54.9975921  0  8
C06  36292570.976   188984947.590        -756.469          27.000  
C16  36653748.638   190865704.416        -724.125          26.000  
C19  23228985.708   120959450.129       -4165.657          25.000  
C22  22173484.816   115463094.847       -1563.072          34.000  
E30  22917903.965   120434361.802       -2563.546          27.000  
G26  20107924.074   105667874.321       -1238.028          33.000  
G32                                                                  21171691.443    83082268.452       -2067.819          23.000  
R05  19204055.509   102656682.186        -703.777          23.000  
> 2021  9 30 12  3 55.9975910  0  9
C06  36292385.704   188983987.264        -756.433          28.000  
C16  36653559.169   190864712.395        -725.475          24.000  
C19  23229456.382   120961898.770       -4166.733          27.000  
C22  22173453.637   115462940.794       -1564.117          32.000  
C36  23139365.151   120492716.4501      -2680.253          13.000  
E30  22918063.455   120435189.387       -2561.061          26.000  
G26  20107829.339   105667379.843       -1238.335          29.000  
G32  21171883.610   111258940.3251      -2772.255          27.000    21171886.908    83083042.633       -2068.420          23.000  
R05  19203850.751   102655587.852        -704.362          17.000  
> 2021  9 30 12  3 56.9975903  0  9
C06  36292320.050   188983650.738        -756.533          31.000  
C16  36653487.519   190864344.872        -725.268          31.000  
C19  23230047.573   120964973.316       -4167.820          30.000  
C22  22173536.080   115463411.770       -1563.365          32.000  
E30  22918342.562   120436647.907       -2560.930          32.000  
G26  20107853.922   105667516.372       -1239.124          22.000  
G32  21172195.694   111260610.517       -2773.957          22.000    21172203.788    83084288.071       -2070.377          24.000  
J01  36226759.636   190372783.1491       -807.809          19.000  
R05  19203765.310   102655130.582        -703.754          25.000  
> 2021  9 30 12  3 57.9975892  0  8
C06  36292134.478   188982689.679        -755.924          29.000  
C16  36653296.851   190863352.915        -725.640          32.000  
C19  23230519.146   120967423.919       -4167.410          29.000  
C22  22173504.902   115463259.973       -1564.394          31.000  
E30  22918497.554   120437475.803       -2559.454          33.000  
G32  21172386.062   111261652.046       -2774.650          25.000    21172401.651    83085064.325       -2071.829          24.000  
J01  36226584.258   190371858.124        -807.320          20.000  
R05  19203561.151   102654039.701        -704.176          24.000  
> 2021  9 30 12  3 58.9975887  0  7
C06  36292129.681   188982664.265        -755.701          28.000  
C16  36653284.859                        -723.749          33.000  
C19  23231169.996   120970810.985       -4167.963          31.000  
C22  22173654.798   115464043.263       -1563.502          28.000  
E30  22918829.724   120439249.422       -2561.184          33.000  
G26  20107848.226   105667474.6771      -1239.628          23.000  
G32  21172762.601   111263638.926       -2774.876          33.000    21172781.488    83086548.617       -2072.960          27.000  
> 2021  9 30 12  3 59.9975877  0 10
C06  36291975.288   188981858.490        -755.292          21.000  
C16  36653126.269   190862436.1001       -723.550          32.000  
C19  23231670.949   120973417.489       -4167.792          30.000  
C22  22173655.698   115464045.975       -1563.923          29.000  
C36  23140434.810   120498274.9361      -2668.652          14.000  
E30  22919013.797   120440235.516       -2561.720          33.000  
G26  20107783.471   105667138.743       -1239.307          27.000  
G32                                                                  21173011.429    83087444.508       -2072.962          27.000  
J01  36226437.059   190371106.3221       -805.100          25.000  
R05  19203377.079   102653055.1021       -706.424          26.000  
> 2021  9 30 12  4  0.9975867  0 10
C06  36291819.096   188981049.935        -749.460          16.000  
C16  36652966.479   190861599.131        -724.429          30.000  
C19  23232171.302   120976023.917       -4167.856          28.000  
C22  22173656.597   115464049.041       -1564.612          27.000  
C36  23140646.464   120499382.018       -2668.455          15.000  
E30  22919202.666   120441221.444       -2561.500          33.000  
G26  20107722.613   105666803.599       -1241.185          30.000  
G32  21173220.085   111266036.3811      -2774.725          32.000    21173239.571    83088340.261       -2072.234          28.000  
J01  36226288.063   190370335.467        -803.747          26.000  
R05  19203204.098   102652131.016        -706.907          24.000  
> 2021  9 30 12  4  1.9975859  0 11
C06  36291723.762   188980551.878        -751.740          18.000  
C16  36652864.250   190861074.484        -724.559          30.000  
C19  23232731.015   120978942.770       -4167.449          27.000  
C22  22173715.656   115464366.395       -1566.953          25.000  
C36  23140918.376   120500801.313       -2668.007          16.000  
E08  22119397.160   116238215.7841      -2457.732          27.000  
E30  22919453.892   120442522.767       -2562.119          33.000  
G26  20107721.114   105666784.315       -1241.356          27.000  
G32  21173506.387   111267551.536       -2776.507          30.000    21173527.972    83089471.185       -2071.543          28.000  
J02  39300344.638   206524618.0631      -2084.612          28.000  
R05  19203096.473   102651555.866        -706.577          23.000  
> 2021  9 30 12  4  2.9975852  0 10
C16  36652795.598   190860705.945        -724.657          30.000  
C19  23233321.007   120982018.186       -4169.625          27.000  
C22  22173809.191   115464841.312       -1567.445          25.000  
E08  22119655.881   116239571.479       -2459.378          27.000  
E30  22919729.102   120443981.875       -2560.985          33.000  
G26  20107749.595   105666922.654       -1240.734          27.000  
G32                                                                  21173847.251    83090720.258       -2072.311          27.000  
J01  36226139.965   190369579.8831       -804.789          26.000  
J02  39300530.809   206525599.742       -2083.822          28.000  
R05  19203022.424   102651159.817        -710.194          23.000  
> 2021  9 30 12  4  3.9975844  0  9
C16  36652695.767   190860181.047        -725.775          30.000  
C19  23233880.419   120984939.096       -4169.872          26.000  
C22  22173873.347   115465160.985       -1568.837          24.000  
E30  22919976.131   120445283.481       -2561.053          32.000  
G26  20107747.496   105666902.725       -1241.156          26.000  
G32                                                                  21174135.051    83091851.332       -2071.950          28.000  
J01  36226053.325   190369124.269        -805.708          25.000  
J02  39300687.001   206526422.881       -2083.319          28.000  
R05  19202910.602   102650561.723        -708.078          24.000  
> 2021  9 30 12  4  4.9975834  0  9
C16  36652533.879   190859344.524        -724.033          31.000  
C19  23234381.372   120987548.143       -4170.340          27.000  
C22  22173876.645   115465168.655       -1568.879          27.000  
E30  22920166.799   120446270.601       -2561.771          31.000  
G26  20107682.741   105666569.595       -1242.641          28.000  
G32                                                                  21174362.894    83092747.882       -2073.438          28.000  
J01  36225905.228   190368355.170        -806.299          23.000  
J02  39300785.332   206526931.484       -2084.280          28.000  
R05  19202743.317   102649667.212        -709.576          23.000  
> 2021  9 30 12  4  5.9975823  0  6
C16  36652341.112   190858351.729        -725.153          28.000  
E30  22920325.988   120447100.149       -2561.194          32.000  
G26  20107588.306   105666079.321       -1243.324          27.000  
G32  21174546.367                       -2778.274          34.000    21174561.656    83093527.342       -2075.469          26.000  
J01  36225726.851   190367427.379        -804.600          28.000  
J02  39300850.088   206527281.822       -2083.234          28.000  
> 2021  9 30 12  4  6.9975818  0  8
C06  36291221.010   188977914.1101       -757.123          19.000  
C16  36652328.521   190858296.077        -725.488          28.000  
C19  23235501.397   120993392.2061      -4170.361          25.000  
E30  22920667.152   120448875.973       -2564.711          33.000  
G26  20107675.546   105666534.410       -1243.580          25.000  
G32  21174921.407   111274982.2721      -2777.709          34.000    21174939.095    83095014.443       -2075.880          25.000  
J01  36225730.449   190367445.278        -807.418          27.000  
R05  19202546.654   102648616.7221       -711.474          26.000  
> 2021  9 30 12  4  7.9975808  0  8
C06  36291066.318   188977110.649        -758.522          29.000  
C16  36652168.132   190857460.253        -725.392          31.000  
C19  23236003.250   120996001.409       -4170.477          24.000  
C22  22174007.054   115465813.8901      -1568.543          19.000  
E30  22920854.822   120449864.071       -2563.242          33.000  
G26  20107611.690   105666202.998       -1244.836          29.000  
G32                                                                  21175168.436    83095914.006       -2077.791          18.000  
R05  19202385.965   102647757.559        -716.737          17.000  
> 2021  9 30 12  4  8.9975798  0  8
C06  36290914.023   188976308.133        -759.025          29.000  
C16  36652007.443   190856624.347        -725.327          33.000  
C22  22174008.853   115465821.860       -1570.029          20.000  
E30  22921040.694   120450852.593       -2562.847          31.000  
G26  20107547.834   105665873.195       -1246.536          27.000  
G32  21175383.687   111277389.5011      -2779.671          26.000    21175398.677    83096813.920       -2075.801          19.000  
J02  39301287.785   206529590.1851      -2083.973          20.000  
R05  19202224.976   102646897.252        -717.033          19.000  
> 2021  9 30 12  4  9.9975790  0  8
C16  36651907.313   190856100.747        -724.665          25.000  
C19  23237069.312   121001533.2041      -4169.698          25.000  
C22  22174070.311   115466143.434       -1571.086          28.000  
E30  22921286.524   120452155.336       -2563.157          28.000  
G26  20107545.436   105665859.310       -1246.372          29.000  
G32                                                                  21175687.077    83097947.511       -2076.240          24.000  
J01  36225345.515   190365458.3121       -804.960          21.000  
R05  19202122.747   102646350.425        -714.755          19.000  
> 2021  9 30 12  4 10.9975782  0  8
C06  36290726.953   188975328.0241       -758.873          23.000  
C16  36651807.182   190855576.500        -724.231          25.000  
C22  22174130.569   115466465.557       -1571.049          27.000  
E30  22921534.452   120453458.379       -2563.787          29.000  
G26  20107543.038   105665845.569       -1246.086          28.000  
G32  21175956.890   111280427.8961      -2779.280          32.000    21175974.878    83099082.628       -2078.288          24.000  
J01  36225258.276   190365002.654        -803.756          23.000  
R05  19202021.417   102645809.102        -715.913          24.000  
> 2021  9 30 12  4 11.9975775  0  8
C06  36290663.996   188974993.410        -758.010          23.000  
C16  36651735.831   190855207.944        -723.737          25.000  
C19  23238222.313   121007530.1571      -4171.180          25.000  
C22  22174222.605   115466944.743       -1572.519          28.000  
G26  20107570.918   105665989.028       -1247.184          28.000  
G32  21176274.370   111282104.224       -2778.628          23.000    21176293.557    83100336.609       -2074.772          24.000  
J02  39301778.845   206532214.6841      -2081.925          22.000  
R05  19201946.469   102645407.716        -716.021          18.000  
> 2021  9 30 12  4 12.9975764  0  8
C06  36290479.624   188974033.840        -758.391          18.000  
C16  36651546.662   190854213.695        -722.667          28.000  
C19  23238693.287   121009984.706       -4173.117          26.000  
C22  22174194.125   115466800.368       -1572.752          29.000  
E30  22921972.748   120455751.4821      -2564.139          27.000  
G26  20107478.282   105665502.946       -1246.625          30.000  
G32  21176494.418   111283150.572       -2780.467          20.000  
J02  39301845.399   206532564.289       -2082.736          25.000  
> 2021  9 30 12  4 13.9975754  0  5
C16  36651386.273   190853375.109        -723.303          28.000  
C19  23239196.039   121012596.261       -4172.519          25.000  
