     3.04           OBSERVATION DATA    M: Mixed            RINEX VERSION / TYPE
Higeo_Hi1105        Huawei CBG          20220209 105759 UTC PGM / RUN BY / DATE 
************************************************************COMMENT             
* If you have any problem,                                 *COMMENT             
*     please contact with LBS Technology Group, thanks.    *COMMENT             
*                                                          *COMMENT             
* Version Higeo2RinexV1.1 2020.07.21                       *COMMENT             
* Fuction:  Convert Higeo Log to Rinex file                *COMMENT             
*                                                          *COMMENT             
* Note that the verision support B1C B2A signal            *COMMENT             
*     BDS: C1D L1D D1D S1D indicate BDS B1C                *COMMENT             
*     BDS: C5D L5D D5D S5D indicate BDS B2A                *COMMENT             
*     Reference: RINEX V3.04                               *COMMENT             
*                                                          *COMMENT             
* Copyright(C) Huawei Technologies Co., Ltd. 2019 - 2020   *COMMENT             
*     All rights reserved.                                 *COMMENT             
************************************************************COMMENT             
                                                            MARKER NAME         
                                                            MARKER NUMBER       
                                                            MARKER TYPE         
                                                            OBSERVER / AGENCY   
                                                            REC # / TYPE / VERS 
                                                            ANT # / TYPE        
        0.0000        0.0000        0.0000                  APPROX POSITION XYZ 
        0.0000        0.0000        0.0000                  ANTENNA: DELTA H/E/N
G    8 C1C L1C D1C S1C C5I L5I D5I S5I                      SYS / # / OBS TYPES 
R    4 C1C L1C D1C S1C                                      SYS / # / OBS TYPES 
E    8 C1C L1C D1C S1C C5I L5I D5I S5I                      SYS / # / OBS TYPES 
J    8 C1C L1C D1C S1C C5I L5I D5I S5I                      SYS / # / OBS TYPES 
C   12 C2I L2I D2I S2I C1D L1D D1D S1D C5D L5D D5D S5D      SYS / # / OBS TYPES 
  2022     1    25     3    14    4.0000000     GPS         TIME OF FIRST OBS   
  2022     1    25     3    32   56.0000000     GPS         TIME OF LAST OBS    
G                                                           SYS / PHASE SHIFT   
R                                                           SYS / PHASE SHIFT   
E                                                           SYS / PHASE SHIFT   
J                                                           SYS / PHASE SHIFT   
C                                                           SYS / PHASE SHIFT   
  0                                                         GLONASS SLOT / FRQ #
 C1C    0.000 C1P    0.000 C2C    0.000 C2P    0.000        GLONASS COD/PHS/BIS 
                                                            END OF HEADER       
> 2022  1 25  3 14  4.0000000  0  2                     
G31  20725432.343         339.117           0.407          24.000                                                                  
G32  20269401.900        5138.942         518.338          35.000                                                                  
> 2022  1 25  3 14  5.0000000  0  4                     
G31  20725442.827         315.170          -7.334          28.000                                                                  
G32  20269500.108        7869.560         519.702          35.000                                                                  
R 2  20207885.425                                          36.000  
C 6  36215140.733       -1783.720        -126.781          29.000                                                                                                                                  
> 2022  1 25  3 14  6.0000000  0  4                     
G31  20773877.335         275.683          -9.190          22.000                                                                  
G32  20269597.345       10599.251         517.866          29.000                                                                  
R 2  20207450.016                                          32.000  
C 6  36215112.564       -2474.739        -132.546          23.000                                                                                                                                  
> 2022  1 25  3 14  7.0000000  0  5                     
G25  21723974.909       29511.112        3143.176          19.000                                                                  
G31  20725441.579         231.804          -9.434          25.000                                                                  
G32  20269695.267       13325.937         518.010          34.000    20269696.848        3514.988         387.596          25.000  
R 2  20207007.766                                          26.000  
C 6  36215086.277       -3166.748        -132.874          24.000                                                                                                                                  
> 2022  1 25  3 14  9.0000000  0  8                     
G25  21807272.614       46036.912        3144.352          21.000                                                                  
G26  21344190.247      -25520.414       -2234.128          22.000                                                                  
G29  23057255.799       -1923.430       -1235.602          23.000                                                                  
G31  20725442.601         180.762          -7.834          29.000                                                                  
G32  20269794.311       16047.787         516.784          28.000    20269795.787        5036.579         387.804          25.000  
R 2  20206565.761                                          29.000  
R12  19681518.173                                          20.000  
C 6  36215062.973       -3865.975        -134.871          22.000                                                                                                                                  
> 2022  1 25  3 14 10.0000000  0  8                     
G25  21807866.026       62551.326        3141.845          25.000                                                                  
G26  21343767.053      -37272.630       -2234.786          19.000                                                                  
G29  23198419.671       -8415.386       -1235.488          19.000                                                                  
G31  20725440.594         142.783          -9.467          19.000                                                                  
G32  20269893.888       18770.255         518.984          33.000    20269893.724        6556.939         386.853          25.000  
R 2  20206124.480                                          22.000  
R12  19681498.795                                          23.000  
C 6  36215037.020       -4571.413        -136.201          23.000                                                                                                                                  
> 2022  1 25  3 14 11.0000000  0  7                     
G25  21808462.561       79053.737        3138.737          25.000                                                                  
G26  21343340.604      -49026.943       -2238.090          20.000                                                                  
G31  20725438.779          91.411          -8.604          18.000                                                                  
G32  20269990.997       21482.177         516.609          29.000    20269992.482        8076.027         387.024          20.000  
R 2  20205683.487                                          23.000  
R12  19681533.616                                          20.000  
C 6  36215010.145       -5288.104        -139.649          21.000                                                                                                                                  
> 2022  1 25  3 14 12.0000000  0 10                     
G25  21809061.601       95553.277        3140.166          21.000                                                                  
G26  21342907.250      -60790.244       -2238.162          21.000                                                                  
G29  23056546.579       -8522.992       -1235.893          17.000                                                                  
G31  20725437.139          44.161          -9.650          20.000                                                                  
G32  20270090.304       24204.325         516.085          36.000    20270090.812        9595.846         389.806          19.000  
R 1  19631790.464                                          20.000  
R 2  20205238.358                                          28.000  
R12  19681575.941                                          28.000  
E25  24955631.615       17231.581        2398.819          27.000                                                                  
C 6  36214982.768       -6015.958        -139.441          24.000                                                                                                                                  
> 2022  1 25  3 14 13.0000000  0 11                     
G25  21809659.786      112058.071        3141.035          20.000                                                                  
G26  21342486.228      -72549.434       -2236.856          23.000                                                                  
G29  23056311.525      -15014.715       -1234.364          18.000                                                                  
G31  20725434.866          -2.972          -8.673          23.000                                                                  
G32  20270189.070       26926.389         516.424          30.000    20270189.351       11114.574         387.858          22.000  
R 1  19632257.370                                          27.000  
R 2  20204797.173                                          23.000  
R12  19681623.990                                          25.000  
E25  24956086.490       29830.736        2397.180          21.000                                                                  
E30  25705868.696      -23964.543       -1991.204          20.000                                                                  
C 6  36214956.287       -6735.814        -138.378          17.000                                                                                                                                  
> 2022  1 25  3 14 14.0000000  0 12                     
G25  21810258.573      128555.935        3138.111          24.000                                                                  
G26  21342059.509      -84311.331       -2238.857          20.000                                                                  
G29  23056099.426      -21509.163       -1237.357          16.000                                                                  
G31  20725430.251         -54.707         -10.213          28.000                                                                  
G32  20270287.209       29645.867         515.623          29.000    20270288.056       12632.266         386.894          20.000  
R 1  19632699.157                                          27.000  
R 2  20204356.468                                          19.000  
R12  19681673.348                                          25.000  
E 8  24025760.804       -3101.417       -1289.035          28.000                                                                  
E25  24956542.394       42431.011        2397.785          22.000                                                                  
E30  25705490.420      -34415.585       -1988.287          17.000                                                                  
C 6  36214929.390       -7466.751        -142.698          17.000                                                                                                                                  
> 2022  1 25  3 14 15.0000000  0 12                     
G25  21810946.957      147532.716        3137.400          22.000    21810950.100       33329.848        2342.368          22.000  
G26  21341568.966      -97863.366       -2240.423          22.000                                                                  
G29  23055828.790      -28985.070       -1234.422          21.000                                                                  
G31  20725426.508        -112.769         -10.538          24.000                                                                  
G32  20270401.558       32774.566         517.233          23.000    20270402.092       14382.303         390.001          18.000  
R 1  19633215.789                                          21.000  
R 2  20203846.590                                          23.000  
R12  19681728.892                                          28.000  
E 8  24025478.354      -10915.933       -1292.639          30.000                                                                  
E25  24957067.018       56930.382        2396.593          23.000                                                                  
E30  25705053.669      -46444.187       -1987.848          24.000                                                                  
C 6  36214898.498       -8316.174        -141.194          20.000                                                                                                                                  
> 2022  1 25  3 14 16.0000000  0 15                     
G10  23322108.503      145026.806        3855.592          15.000                                                                  
G25  21811543.851      164024.559        3139.958          21.000    21811547.814       42524.209        2342.712          25.000  
G26  21341142.335     -109635.013       -2239.326          22.000                                                                  
G29  23055602.924      -35468.752       -1234.190          22.000                                                                  
G31  20725423.223        -167.478         -10.681          22.000                                                                  
G32  20270498.064       35496.043         517.808          22.000    20270501.809       15914.363         390.988          16.000  
R 1  19633664.713                                          19.000  
R 2  20203405.719                                          24.000  
R12  19681776.906                                          27.000  
E 8  24025232.271      -17705.244       -1292.547          30.000                                                                  
E25  24957522.861       69521.679        2396.137          24.000                                                                  
E30  25704673.386      -56890.508       -1987.792          25.000                                                                  
C 6  36214867.709       -9050.145        -141.106          20.000                                                                                                                                  
C24  23090970.719       -5032.881       -1125.772          28.000                                                                                                                                  
C26  21862046.507        2952.922         978.432          25.000                                                                                                                                  
> 2022  1 25  3 14 17.0000000  0 15                     
G10  23322842.024      165282.988        3852.180          14.000                                                                  
G25  21812139.819      180513.099        3136.159          22.000    21812144.943       51717.742        2342.979          25.000  
G26  21340716.157     -121401.257       -2238.834          22.000                                                                  
G29  23055361.482      -41954.721       -1234.567          24.000                                                                  
G31  20725420.641        -224.526         -11.665          21.000                                                                  
G32  20270596.778       38215.213         516.840          25.000                                                                  
R 1  19634113.637                                          20.000  
R 2  20202963.670                                          22.000  
R12  19681824.755                                          28.000  
E 8  24024985.866      -24496.685       -1292.848          29.000                                                                  
E25  24957978.748       82110.965        2395.376          24.000                                                                  
E30  25704296.348      -67339.136       -1988.710          25.000                                                                  
C 6  36214841.562       -9793.081        -144.630          20.000                                                                                                                                  
C24  23090755.523      -10896.230       -1129.075          28.000                                                                                                                                  
C26  21862235.537        8049.883         979.506          20.000                                                                                                                                  
> 2022  1 25  3 14 18.0000000  0 14                     
G25  21812736.364      196998.806        3137.751          21.000    21812742.037       60909.976        2342.858          22.000  
G26  21340287.963     -133168.081       -2240.114          23.000                                                                  
G29  23055124.404      -48444.408       -1235.362          25.000                                                                  
G31  20725419.794        -283.493         -12.053          23.000                                                                  
G32  20270695.850       40928.684         515.464          30.000                                                                  
R 1  19634563.320                                          20.000  
R 2  20202522.258                                          18.000  
R12  19681876.408                                          29.000  
E 8  24024739.980      -31291.447       -1293.298          25.000                                                                  
E25  24958433.850       94696.852        2394.824          29.000                                                                  
E30  25703917.427      -77791.057       -1989.238          26.000                                                                  
C 6  36214813.487      -10540.786        -142.191          19.000                                                                                                                                  
C24  23090538.965      -16772.964       -1126.719          25.000                                                                                                                                  
C26  21862424.357       13140.925         977.828          22.000                                                                                                                                  
> 2022  1 25  3 14 19.0000000  0 14                     
G25  21813333.641      213492.639        3138.128          18.000    21813338.886       70097.894        2335.933          21.000  
G26  21339863.068     -144937.812       -2240.365          24.000                                                                  
G29  23054890.545      -54940.329       -1237.050          24.000                                                                  
G31  20725419.314        -351.000         -13.013          20.000                                                                  
G32  20270792.906       43640.456         516.305          31.000    20270791.189       20488.677         385.811          20.000  
R 1  19635013.030                                          21.000  
R 2  20202081.596                                          22.000  
R12  19681925.015                                          28.000  
E 2  23174605.970         920.189         147.831          23.000                                                                  
E 8  24024493.592      -38089.195       -1293.647          24.000                                                                  
E25  24958889.667      107279.770        2394.164          28.000                                                                  
E30  25703539.159      -88245.981       -1989.776          25.000                                                                  
C 6  36214785.820      -11292.326        -146.394          17.000                                                                                                                                  
C24  23090323.063      -22636.823       -1126.388          25.000                                                                                                                                  
> 2022  1 25  3 14 20.0000000  0 18                     
G25  21813930.282      229971.526           0.004          23.000    21813935.361       79281.174        2341.683          21.000  
G26  21339435.799     -156710.483       -2239.977          24.000                                                                  
G29  23054653.867      -61444.408       -1237.625          23.000                                                                  
G31  20725418.412        -414.879         -12.744          21.000                                                                  
G32  20270891.847       46355.398         516.938          28.000    20270889.632       22004.164         386.126          19.000  
R 1  19635462.530                                          20.000  
R 2  20201641.545                                          25.000  
R12  19681973.622                                          28.000  
E 2  23174631.291        1695.670         146.918          23.000                                                                  
E 8  24024247.003      -44890.567       -1294.595          25.000                                                                  
E25  24959344.646      119858.283        2393.291          29.000                                                                  
E30  25703160.988      -98704.511       -1990.909          24.000                                                                  
J 2  38393891.095       62763.773         965.597          25.000                                                                  
C 6  36214757.212      -12056.993        -145.266          16.000                                                                                                                                  
C 9  37066699.024        -931.960        -226.264          26.000                                                                                                                                  
C24  23090107.308      -28505.045       -1128.560          26.000                                                                                                                                  
C26  21862794.799        6533.265         976.816          20.000                                                                                                                                  
C33  24765525.863      -12607.470       -2341.810          23.000                                                                                                                                  
> 2022  1 25  3 14 21.0000000  0 19                     
G25  21814526.669      246451.796        3135.691          23.000    21814532.176       88468.359        2343.436          21.000  
G26  21339008.618     -168484.980       -2242.987          25.000                                                                  
G29  23054418.152      -67946.057       -1236.817          21.000                                                                  
G31  20725415.812        -483.006         -13.636          18.000                                                                  
G32  20270991.215       49060.716         513.776          31.000    20270989.760       23516.518         385.465          20.000  
R 1  19635912.405                                          21.000  
R 2  20201201.852                                          27.000  
R12  19682023.364                                          29.000  
E 2  23174659.167        2470.787         148.314          21.000                                                                  
E 8  24024000.955      -51695.537       -1295.228          24.000                                                                  
E25  24959799.933      132432.825        2392.295          29.000                                                                  
E30  25702782.137     -109166.481       -1990.839          23.000                                                                  
J 2  38394074.872       67839.352         964.781          25.000                                                                  
C 6  36214729.495      -12810.605        -143.874          17.000                                                                                                                                  
C 9  37066653.776       -2123.464        -228.607          28.000                                                                                                                                  
C14  22810794.791       -2800.636       -1179.308          23.000                                                                                                                                  
C24  23089890.742      -34390.788       -1130.986          25.000                                                                                                                                  
C26  21862981.298       11622.778         973.469          17.000                                                                                                                                  
C33  24765081.808      -24811.075       -2343.311          21.000                                                                                                                                  
> 2022  1 25  3 14 22.0000000  0 16                     
G25  21815122.925      262928.747        3135.528          22.000    21815128.720       97654.500        2340.941          22.000  
G26  21338581.131     -180269.404       -2240.946          27.000                                                                  
G29  23054183.751      -74446.202       -1236.255          22.000                                                                  
G31  20725413.098        -557.851         -13.744          15.000                                                                  
G32  20271087.678       51772.234         518.275          31.000    20271087.549       25025.832         384.548          22.000  
R 1  19636362.569                                          20.000  
R 2  20200760.196                                          29.000  
R12  19682072.739                                          27.000  
E 8  24023754.322      -58504.078       -1295.760          26.000                                                                  
E25  24960255.785      145003.516        2391.712          30.000                                                                  
E30  25702403.616     -119631.723       -1991.657          23.000                                                                  
J 2  38394258.535       72905.066         963.198          27.000                                                                  
C 6  36214698.647      -13568.592        -146.327          19.000                                                                                                                                  
C 9  37066609.646       -3314.552        -228.222          27.000                                                                                                                                  
C24  23089673.583      -40276.955       -1130.620          23.000                                                                                                                                  
C26  21863169.237       16718.600         981.805          15.000                                                                                                                                  
> 2022  1 25  3 14 23.0000000  0 17                     
G25  21815720.045      279402.627        3133.849          20.000    21815725.683      106838.061        2340.908          24.000  
G26  21338153.610     -192054.146       -2241.483          28.000                                                                  
G29  23053948.051      -80947.332       -1237.318          21.000                                                                  
G31  20725413.653        -631.029         -14.332          15.000                                                                  
G32  20271185.074       54477.233         515.968          34.000    20271185.634       26534.358         384.265          24.000  
R 1  19636812.113                                          19.000  
R 2  20200319.342                                          30.000  
R12  19682122.210                                          29.000  
E 8  24023508.117      -65316.230       -1296.599          26.000                                                                  
E25  24960710.930      157569.803        2390.865          29.000                                                                  
E30  25702024.450     -130100.911       -1992.640          24.000                                                                  
J 2  38394442.094       77962.766         963.788          28.000                                                                  
C 6  36214668.770      -14338.417        -149.137          22.000                                                                                                                                  
C 9  37066565.638       -4504.153        -228.636          28.000                                                                                                                                  
C14  22810334.027       -7222.683       -1182.061          25.000                                                                                                                                  
C24  23089457.078      -46166.059       -1130.847          22.000                                                                                                                                  
C26  21863358.048       21837.373         981.473          17.000                                                                                                                                  
> 2022  1 25  3 14 24.0000000  0 17                     
G25  21816317.078      295877.359        3135.788          20.000    21816322.297      116020.601        2340.171          23.000  
G26  21337728.470     -203840.341       -2243.044          27.000                                                                  
G29  23053713.084      -87449.768       -1238.859          22.000                                                                  
G31  20725410.686        -714.203         -15.994          15.000                                                                  
G32  20271282.951       57181.010         513.795          33.000    20271284.078       28041.314         384.454          25.000  
R 1  19637261.456                                          19.000  
R 2  20199880.696                                          28.000  
R12  19682171.385                                          29.000  
E 8  24023261.284      -72131.448       -1296.961          27.000                                                                  
E25  24961166.006      170132.892        2390.523          28.000                                                                  
E30  25701645.615     -140572.746       -1993.238          24.000                                                                  
J 2  38394625.382       83019.433         958.723          28.000                                                                  
C 6  36214639.615      -15111.405        -147.917          24.000                                                                                                                                  
C 9  37066521.027       -5695.590        -230.380          28.000                                                                                                                                  
C14  22810113.509      -13377.103       -1182.589          24.000                                                                                                                                  
C24  23089240.329      -52043.357       -1127.584          19.000                                                                                                                                  
C26  21863549.941       26943.009         977.278          22.000                                                                                                                                  
> 2022  1 25  3 14 25.0000000  0 20                     
G25  21816914.250      312347.401        3133.990          20.000    21816918.772      125202.456        2340.924          23.000  
G26  21337302.156     -215624.893       -2242.533          26.000                                                                  
G29  23053477.419      -93959.423       -1238.464          20.000                                                                  
G31  20725407.842        -793.848         -15.229          15.000                                                                  
G32  20271380.461       59886.183         515.824          33.000    20271382.050       29548.208         384.298          25.000  
R 1  19637710.109                                          19.000  
R 2  20199438.246                                          30.000  
R12  19682217.907                                          28.000  
E 2  23174772.079        1737.719         142.572          19.000                                                                  
E 8  24023013.953      -78949.839       -1297.665          26.000                                                                  
E25  24961621.500      182693.002        2389.838          29.000                                                                  
E30  25701266.135     -151048.100       -1993.549          23.000                                                                  
J 2  38394806.638       88064.732         961.617          27.000                                                                  
C 6  36214610.353      -15885.446        -149.447          22.000                                                                                                                                  
C 7  37635183.268       -8779.736        -899.477          16.000                                                                                                                                  
C 9  37066476.784       -6902.625        -231.715          27.000                                                                                                                                  
C14  22809888.603      -19532.790       -1181.396          25.000                                                                                                                                  
C24  23089023.737      -57918.064       -1128.262          20.000                                                                                                                                  
C26  21863734.076       32022.756         974.383          21.000                                                                                                                                  
C35  25841209.761      -34544.342       -1785.958          17.000                                                                                                                                  
> 2022  1 25  3 14 26.0000000  0 20                     
G25  21817510.498      328812.140        3134.221          20.000    21817515.124      134382.558        2339.970          24.000  
G26  21336876.292     -227407.863       -2242.986          27.000    21336877.097      -17713.955       -1690.197          27.000  
G29  23053240.846     -100461.854       -1237.911          20.000                                                                  
G31  20725402.441        -876.896          -0.007          16.000                                                                  
G32  20271479.750       62584.246         511.618          31.000    20271480.136       31054.043         384.502          22.000  
R 1  19638159.016                                          20.000  
R 2  20198996.939                                          32.000  
R12  19592996.226                                          28.000  
E 2  23174796.562        2501.269         149.526          19.000                                                                  
E 8  24022767.347      -85771.253       -1298.183          25.000                                                                  
E25  24962076.218      195249.728        2389.057          28.000                                                                  
E30  25700886.681     -161525.794       -1993.896          24.000                                                                  
J 2  38394989.071       93115.115         956.940          28.000                                                                  
C 6  36214581.955      -16664.070        -149.406          19.000                                                                                                                                  
C 7  37635004.930      -13482.872        -911.983          16.000                                                                                                                                  
C 9  37066431.746       -8111.024        -233.233          29.000                                                                                                                                  
C14  22809662.038      -25681.539       -1179.996          24.000                                                                                                                                  
C24  23088807.529      -63792.986       -1127.772          21.000                                                                                                                                  
C26  21863920.951       37089.158         972.559          17.000                                                                                                                                  
C35  25840862.597      -43850.473       -1788.495          17.000                                                                                                                                  
> 2022  1 25  3 14 27.0000000  0 20                     
G25  21818106.912      345276.663        3133.073          30.000    21818112.096      143571.450        2343.520          19.000  
G26  21336449.774     -239201.026       -2244.019          17.000    21336444.750      -24377.863       -1687.537          19.000  
G29  23053004.030     -106965.085       -1237.436          20.000                                                                  
G31  20725403.013        -963.524         -16.584          20.000                                                                  
G32  20271576.213       65272.000         509.740          31.000    20271577.969       32557.652         382.903          26.000  
R 1  19638608.342                                          18.000  
R 2  20198553.843                                          27.000  
R12  19593045.619                                          24.000  
E 2  23174828.155        3273.790         144.005          20.000                                                                  
E 8  24022519.911      -92600.941       -1302.701          18.000                                                                  
E25  24962530.028      207802.516        2388.087          29.000                                                                  
E30  25700506.756     -172009.781       -1994.720          20.000                                                                  
J 2  38395170.632       98146.258         957.109          27.000                                                                  
C 6  36214552.874      -17451.955        -152.840          22.000                                                                                                                                  
C 7  37634831.401      -18188.166        -905.237          15.000                                                                                                                                  
C 9  37066386.123       -9332.319        -235.781          24.000                                                                                                                                  
C14  22809435.796      -31825.295       -1180.225          19.000                                                                                                                                  
C24  23088590.465      -69679.377       -1132.953          17.000                                                                                                                                  
C26  21864107.616       42149.522         970.227          23.000                                                                                                                                  
C35  25840519.093      -53166.242       -1788.417          16.000                                                                                                                                  
> 2022  1 25  3 14 28.0000000  0 19                     
G25  21818701.092      361737.669        3133.749          27.000    21818707.585      152748.946        2338.493          26.000  
G26  21336022.759     -250991.779       -2242.416          17.000    21336021.190      -30989.812       -1682.347          19.000  
G29  23052767.893     -113466.327       -1239.483          20.000                                                                  
G31  20725394.776       -1057.851         -19.098          25.000                                                                  
G32  20271672.022       67958.998         513.680          32.000    20271675.836       34060.347         383.762          25.000  
R 1  19639057.545                                          14.000  
R 2  20198108.391                                          25.000  
R12  19593093.938                                          26.000  
E 2  23174854.078        4027.343         142.747          20.000                                                                  
E25  24962984.310      220347.747        2387.159          28.000    24962987.967        3475.230        1782.995          24.000  
E30  25700127.172     -182492.639       -1994.854          18.000                                                                  
J 2  38395354.173      103179.953         956.737          28.000                                                                  
C 6  36214522.574      -18249.510        -153.954          27.000                                                                                                                                  
C 7  37634658.045      -22889.176        -899.576          12.000                                                                                                                                  
C 9  37066340.972      -10558.749        -234.842          18.000                                                                                                                                  
C14  22809208.394      -37998.981       -1183.572          17.000                                                                                                                                  
C24  23088372.739      -75584.417       -1133.300          15.000                                                                                                                                  
C26  21864296.462       47206.577         970.039          25.000                                                                                                                                  
C35  25840175.904      -62472.322       -1785.771          16.000                                                                                                                                  
> 2022  1 25  3 14 29.0000000  0 19                     
G25  21819296.868      378191.602        3132.425          25.000    21819303.510      161922.901        2337.923          27.000  
G26  21335597.296     -262780.834       -2243.724          16.000    21335597.568      -37575.108       -1676.696          20.000  
G29  23052532.359     -119983.313       -1239.850          21.000                                                                  
G31  20725387.692       -1163.810         -20.001          24.000                                                                  
G32  20271770.029       70649.743         512.219          33.000    20271773.451       35560.923         382.702          25.000  
R 1  19639506.653                                          12.000  
R 2  20197666.482                                          28.000  
R12  19593142.014                                          27.000  
E 2  23174881.143        4773.515         140.013          20.000                                                                  
E25  24963437.728      232890.762        2386.693          29.000    24963441.298       10469.087        1781.793          24.000  
E30  25699747.343     -192971.107       -1992.556          20.000                                                                  
J 2  38395535.088      108202.418         955.246          29.000                                                                  
C 6  36214492.649      -19055.577        -156.892          28.000                                                                                                                                  
C 7  37634485.300      -27576.549          -0.072          12.000                                                                                                                                  
C 9  37066296.151      -11775.030        -234.904          18.000                                                                                                                                  
C14  22808981.175      -44160.215       -1181.229          17.000                                                                                                                                  
C24  23088154.507      -81489.858       -1135.707          15.000                                                                                                                                  
C26  21864484.488       52260.876         970.571          27.000                                                                                                                                  
C35  25839829.514      -71785.900       -1787.821          15.000                                                                                                                                  
> 2022  1 25  3 14 30.0000000  0 19                     
G25  21819892.872      394648.481        3131.191          28.000    21819899.408      171096.696        2338.400          27.000  
G26  21335170.115     -274578.031       -2245.809          17.000    21335171.399      -44156.384       -1677.294          21.000  
G29  23052294.015     -126499.290          -0.007          22.000                                                                  
G31  20725385.594       -1282.205         -22.509          25.000                                                                  
G32  20271869.720       73342.524         511.529          30.000    20271871.126       37061.426         383.098          22.000  
R 2  20197226.806                                          30.000  
R12  19593188.894                                          25.000  
E 2  23174907.152        5507.357         139.106          21.000                                                                  
E25  24963891.407      245431.971        2386.129          27.000    24963895.998       17463.450        1783.970          21.000  
E30  25699367.862     -203454.038       -1995.935          22.000                                                                  
J 2  38395718.228      113227.955         956.860          27.000                                                                  
C 6  36214462.584      -19876.038        -158.462          25.000                                                                                                                                  
C 7  37634312.207      -32270.474          -0.072          12.000                                                                                                                                  
C 9  37066250.608      -12994.322        -233.683          17.000                                                                                                                                  
C14  22808754.226      -50309.988       -1181.403          17.000                                                                                                                                  
C24  23087936.894      -87401.833       -1136.192          19.000                                                                                                                                  
C26  21864668.893       57314.142         970.621          24.000                                                                                                                                  
C33  24761030.015      -55952.673       -2347.307          19.000                                                                                                                                  
C35  25839486.414      -81090.388       -1787.779          17.000                                                                                                                                  
> 2022  1 25  3 14 31.0000000  0 17                     
G25  21820487.261      411094.795        3129.858          30.000    21820495.263      180268.881        2338.879          23.000  
G26  21334742.925     -286375.461       -2245.137          17.000    21334745.116      -50736.025       -1676.810          18.000  
G29  23052057.495     -133017.025       -1239.702          21.000                                                                  
G31  20725382.618       -1385.451         -19.532          29.000                                                                  
G32  20271966.890       76030.001         513.183          34.000    20271968.689       38560.923         383.758          24.000  
R 2  20196782.515                                          26.000  
R12  19593239.028                                          25.000  
E 2  23174934.627        6256.513         143.433          20.000    23174937.508        1719.943         103.847          17.000  
E25  24964345.174      257967.363        2385.111          29.000    24964350.210       24457.606        1782.604          25.000  
E30                                                                  25764745.088      -21725.787       -1486.217          19.000  
J 2  38395901.333      118252.763         955.722          27.000                                                                  
C 6  36214432.710      -20686.081        -154.923          27.000                                                                                                                                  
C 9  37066204.594      -14222.987        -237.938          18.000                                                                                                                                  
C14  22808527.251      -56463.569       -1182.035          17.000                                                                                                                                  
C24  23087717.850      -93324.265       -1138.122          18.000                                                                    23087714.375       -5657.833        -853.247          18.000  
C26  21864854.965       62362.393         967.876          32.000                                                                                                                                  
C35  25839140.895      -90400.295       -1790.268          17.000                                                                                                                                  
> 2022  1 25  3 14 32.0000000  0 18                     
G25  21821082.113      427534.044        3127.966          29.000    21821090.770      189442.246        2337.591          25.000  
G26  21334317.986     -298173.211       -2244.325          18.000    21334316.905      -57324.700       -1678.658          18.000  
G29  23051821.271     -139529.008       -1239.589          21.000                                                                  
G31  20725379.530       -1499.045         -22.636          30.000                                                                  
G32  20272064.513       78719.545         510.879          32.000    20272066.094       40058.071         381.714          25.000  
R 2  20196339.916                                          28.000  
R12  19593286.301                                          28.000  
E 2  23174963.830        7012.250         142.694          20.000    23174967.784        2120.971         102.293          20.000  
E 8  24021281.862     -126773.585       -1302.157          25.000                                                                  
E25  24964798.862      270499.604        2384.403          29.000    24964804.326       31445.962        1781.096          26.000  
E30                                                                  25764366.253      -27561.496       -1487.574          17.000  
J 2  38396083.488      123272.641         956.887          25.000    38396088.297       64482.773         712.841          25.000  
C 6  36214402.767      -21501.368        -157.993          28.000                                                                                                                                  
C 9  37066158.822      -15465.037        -238.140          17.000                                                                                                                                  
C14  22808299.935      -62627.476       -1184.330          16.000                                                                                                                                  
C24  23087499.425      -99247.150       -1137.807          16.000                                                                                                                                  
C26  21865041.193       67403.509         967.042          31.000                                                                                                                                  
C35  25838797.044      -99725.539       -1791.343          17.000                                                                                                                                  
> 2022  1 25  3 14 33.0000000  0 19                     
G25  21821678.282      443972.204        3125.413          28.000    21821686.250      198609.059        2336.613          26.000  
G26  21333889.522     -309965.295       -2244.189          17.000    21333889.026      -63918.296       -1679.350          18.000  
G29  23051585.641     -146046.688       -1242.147          22.000                                                                  
G31  20725374.757       -1627.569         -25.007          25.000                                                                  
G32  20272162.607       81402.851         511.288          34.000    20272163.420       41554.920         382.252          25.000  
R 1  19641299.959                                          18.000  
R 2  20195896.654                                          31.000  
R12  19593332.343                                          30.000  
E 2  23174991.532        7765.600         142.793          19.000    23174994.779        2533.692         105.170          19.000  
E 8  24021032.708     -133620.182       -1303.473          20.000                                                                  
E25  24965252.385      283028.722        2383.867          29.000    24965258.180       38432.193        1779.928          25.000  
E30                                                                  25763986.964      -33403.748       -1489.207          17.000  
J 2  38396263.321      128293.252         954.480          28.000    38396269.875       67275.299         711.452          27.000  
C 6  36214372.214      -22330.864        -160.098          27.000                                                                                                                                  
C 9  37066112.912      -16702.389        -236.145          18.000                                                                                                                                  
C14  22808072.673      -68802.783       -1185.705          17.000                                                                                                                                  
C24  23087279.718     -105181.950       -1140.506          17.000                                                                                                                                  
