$GPGGA,072627.000,2218.249293,N,11410.706126,E,1,19,0.8,0.1,M,,M,,*4A
$GPRMC,072627.000,A,2218.249293,N,11410.706126,E,0.7,107.48271988299999,061121,,E,A*1C
$GPGGA,072628.000,2218.249407,N,11410.706179,E,1,19,0.8,-0.1,M,,M,,*69
$GPRMC,072628.000,A,2218.249407,N,11410.706179,E,0.4,109.59561160700001,061121,,E,A*1A
$GPGGA,072629.000,2218.249469,N,11410.706119,E,1,19,0.8,0.1,M,,M,,*4B
$GPRMC,072629.000,A,2218.249469,N,11410.706119,E,0.4,112.46723490299999,061121,,E,A*12
$GPGGA,072630.000,2218.249517,N,11410.705925,E,1,19,0.8,0.1,M,,M,,*4F
$GPRMC,072630.000,A,2218.249517,N,11410.705925,E,0.7,112.455883129,061121,,E,A*2A
$GPGGA,072631.000,2218.249580,N,11410.705864,E,1,19,0.8,-0.2,M,,M,,*6A
$GPRMC,072631.000,A,2218.249580,N,11410.705864,E,0.2,113.801368939,061121,,E,A*2F
$GPGGA,072632.000,2218.249489,N,11410.705831,E,1,19,0.8,-0.3,M,,M,,*60
$GPRMC,072632.000,A,2218.249489,N,11410.705831,E,0.3,112.433787467,061121,,E,A*2A
$GPGGA,072633.000,2218.249459,N,11410.705848,E,1,19,0.8,-0.6,M,,M,,*67
$GPRMC,072633.000,A,2218.249459,N,11410.705848,E,0.1,112.449319317,061121,,E,A*24
$GPGGA,072634.000,2218.250085,N,11410.706428,E,1,19,0.8,-3.4,M,,M,,*65
$GPRMC,072634.000,A,2218.250085,N,11410.706428,E,0.5,112.439784373,061121,,E,A*26
$GPGGA,072635.000,2218.250040,N,11410.706365,E,1,19,0.8,-3.0,M,,M,,*67
$GPRMC,072635.000,A,2218.250040,N,11410.706365,E,0.6,97.742951975,061121,,E,A*1A
$GPGGA,072636.000,2218.249966,N,11410.706370,E,1,19,0.8,-2.6,M,,M,,*62
$GPRMC,072636.000,A,2218.249966,N,11410.706370,E,0.6,112.423514862,061121,,E,A*2A
$GPGGA,072637.000,2218.249926,N,11410.706527,E,1,19,0.8,-2.0,M,,M,,*65
$GPRMC,072637.000,A,2218.249926,N,11410.706527,E,0.6,112.421684371,061121,,E,A*2A
$GPGGA,072638.000,2218.249941,N,11410.706461,E,1,19,0.8,-1.8,M,,M,,*63
$GPRMC,072638.000,A,2218.249941,N,11410.706461,E,0.2,113.75937693600001,061121,,E,A*1E
$GPGGA,072639.000,2218.249895,N,11410.706456,E,1,19,0.8,-1.7,M,,M,,*61
$GPRMC,072639.000,A,2218.249895,N,11410.706456,E,0.2,113.750818709,061121,,E,A*2A
$GPGGA,072640.000,2218.249814,N,11410.706531,E,1,19,0.8,-1.4,M,,M,,*65
$GPRMC,072640.000,A,2218.249814,N,11410.706531,E,0.4,112.39407674600001,061121,,E,A*1C
$GPGGA,072641.000,2218.249936,N,11410.706420,E,1,19,0.8,-0.8,M,,M,,*69
$GPRMC,072641.000,A,2218.249936,N,11410.706420,E,0.1,112.392225765,061121,,E,A*2A
$GPGGA,072642.000,2218.249923,N,11410.706425,E,1,19,0.8,-0.8,M,,M,,*6B
$GPRMC,072642.000,A,2218.249923,N,11410.706425,E,0.1,113.74293667,061121,,E,A*1C
$GPGGA,072643.000,2218.249928,N,11410.706398,E,1,19,0.8,-0.8,M,,M,,*60
$GPRMC,072643.000,A,2218.249928,N,11410.706398,E,0.2,107.361367911,061121,,E,A*22
$GPGGA,072644.000,2218.249927,N,11410.706380,E,1,19,0.8,-0.7,M,,M,,*6E
$GPRMC,072644.000,A,2218.249927,N,11410.706380,E,0.1,107.353171684,061121,,E,A*27
$GPGGA,072645.000,2218.249937,N,11410.706387,E,1,19,0.8,-0.7,M,,M,,*69
$GPRMC,072645.000,A,2218.249937,N,11410.706387,E,0.1,107.34930579700001,061121,,E,A*18
$GPGGA,072646.000,2218.249951,N,11410.706419,E,1,19,0.8,-0.7,M,,M,,*6A
$GPRMC,072646.000,A,2218.249951,N,11410.706419,E,0.2,109.52401756299999,061121,,E,A*1B
$GPGGA,072647.000,2218.249991,N,11410.706433,E,1,19,0.8,-0.6,M,,M,,*6E
$GPRMC,072647.000,A,2218.249991,N,11410.706433,E,0.3,112.36809470600001,061121,,E,A*18
$GPGGA,072648.000,2218.250019,N,11410.706408,E,1,19,0.8,-0.5,M,,M,,*6B
$GPRMC,072648.000,A,2218.250019,N,11410.706408,E,0.2,109.51608088299999,061121,,E,A*14
$GPGGA,072649.000,2218.250401,N,11410.705267,E,1,19,0.8,2.4,M,,M,,*45
$GPRMC,072649.000,A,2218.250401,N,11410.705267,E,0.1,107.32453953,061121,,E,A*14
$GPGGA,072650.000,2218.250423,N,11410.705320,E,1,19,0.8,2.6,M,,M,,*4D
$GPRMC,072650.000,A,2218.250423,N,11410.705320,E,0.2,107.64827684,061121,,E,A*14
$GPGGA,072651.000,2218.250435,N,11410.705322,E,1,19,0.8,2.3,M,,M,,*4C
$GPRMC,072651.000,A,2218.250435,N,11410.705322,E,0.1,107.305968246,061121,,E,A*27
$GPGGA,072652.000,2218.250370,N,11410.705549,E,1,19,0.8,2.0,M,,M,,*41
$GPRMC,072652.000,A,2218.250370,N,11410.705549,E,0.6,107.548856606,061121,,E,A*2D
$GPGGA,072653.000,2218.250356,N,11410.705523,E,1,19,0.8,1.8,M,,M,,*43
$GPRMC,072653.000,A,2218.250356,N,11410.705523,E,0.4,112.308754022,061121,,E,A*2D
$GPGGA,072654.000,2218.250492,N,11410.705763,E,1,19,0.8,1.2,M,,M,,*47
$GPRMC,072654.000,A,2218.250492,N,11410.705763,E,1.9,95.6022204,061121,,E,A*1C
$GPGGA,072655.000,2218.250559,N,11410.706071,E,1,19,0.8,0.9,M,,M,,*4D
$GPRMC,072655.000,A,2218.250559,N,11410.706071,E,0.2,107.26828609200001,061121,,E,A*16
$GPGGA,072656.000,2218.250090,N,11410.705691,E,1,19,0.8,-1.5,M,,M,,*65
$GPRMC,072656.000,A,2218.250090,N,11410.705691,E,0.4,107.272397866,061121,,E,A*20
$GPGGA,072657.000,2218.250158,N,11410.705495,E,1,19,0.8,-1.3,M,,M,,*61
$GPRMC,072657.000,A,2218.250158,N,11410.705495,E,0.9,112.276652133,061121,,E,A*2A
$GPGGA,072658.000,2218.250216,N,11410.705296,E,1,19,0.8,-1.1,M,,M,,*60
$GPRMC,072658.000,A,2218.250216,N,11410.705296,E,0.6,107.48328678899999,061121,,E,A*1C
$GPGGA,072659.000,2218.250289,N,11410.705117,E,1,19,0.8,-1.0,M,,M,,*6C
$GPRMC,072659.000,A,2218.250289,N,11410.705117,E,0.7,43.60660218899999,061121,,E,A*20
$GPGGA,072700.000,2218.250195,N,11410.704806,E,1,19,0.8,-0.5,M,,M,,*63
$GPRMC,072700.000,A,2218.250195,N,11410.704806,E,0.8,99.27478583899999,061121,,E,A*2E
$GPGGA,072701.000,2218.250218,N,11410.704632,E,1,19,0.8,-0.5,M,,M,,*6D
$GPRMC,072701.000,A,2218.250218,N,11410.704632,E,0.7,170.618810477,061121,,E,A*2A
$GPGGA,072702.000,2218.250600,N,11410.704732,E,1,19,0.8,-1.2,M,,M,,*64
$GPRMC,072702.000,A,2218.250600,N,11410.704732,E,0.8,130.28685714600002,061121,,E,A*1B
$GPGGA,072703.000,2218.250798,N,11410.704609,E,1,19,0.8,-1.3,M,,M,,*6D
$GPRMC,072703.000,A,2218.250798,N,11410.704609,E,0.8,130.28685714600002,061121,,E,A*13
$GPGGA,072714.000,2218.249727,N,11410.711577,E,1,19,0.8,7.5,M,,M,,*44
$GPRMC,072714.000,A,2218.249727,N,11410.711577,E,0.9,91.37847234899999,061121,,E,A*20
$GPGGA,072715.000,2218.249873,N,11410.711446,E,1,19,0.8,7.2,M,,M,,*4F
$GPRMC,072715.000,A,2218.249873,N,11410.711446,E,0.6,90.89419827100001,061121,,E,A*29
$GPGGA,072716.000,2218.249872,N,11410.711410,E,1,19,0.8,7.8,M,,M,,*44
$GPRMC,072716.000,A,2218.249872,N,11410.711410,E,0.3,83.93459742600001,061121,,E,A*2B
$GPGGA,072717.000,2218.249860,N,11410.711429,E,1,19,0.8,7.9,M,,M,,*4D
$GPRMC,072717.000,A,2218.249860,N,11410.711429,E,0.1,86.066087755,061121,,E,A*18
$GPGGA,072718.000,2218.249905,N,11410.711574,E,1,19,0.8,7.3,M,,M,,*43
$GPRMC,072718.000,A,2218.249905,N,11410.711574,E,0.3,86.337123325,061121,,E,A*15
$GPGGA,072719.000,2218.249899,N,11410.711830,E,1,19,0.8,6.7,M,,M,,*4E
$GPRMC,072719.000,A,2218.249899,N,11410.711830,E,0.5,90.877764836,061121,,E,A*1F
$GPGGA,072720.000,2218.249909,N,11410.712162,E,1,19,0.8,5.8,M,,M,,*4D
$GPRMC,072720.000,A,2218.249909,N,11410.712162,E,0.8,86.088907417,061121,,E,A*16
$GPGGA,072721.000,2218.249924,N,11410.712063,E,1,19,0.8,5.3,M,,M,,*48
$GPRMC,072721.000,A,2218.249924,N,11410.712063,E,0.2,83.93597712399999,061121,,E,A*24
$GPGGA,072722.000,2218.249992,N,11410.712103,E,1,19,0.8,5.0,M,,M,,*42
$GPRMC,072722.000,A,2218.249992,N,11410.712103,E,0.3,80.26971595,061121,,E,A*22
$GPGGA,072723.000,2218.250025,N,11410.712187,E,1,19,0.8,5.2,M,,M,,*40
$GPRMC,072723.000,A,2218.250025,N,11410.712187,E,0.3,85.175861379,061121,,E,A*14
$GPGGA,072724.000,2218.250058,N,11410.712209,E,1,19,0.8,5.7,M,,M,,*4D
$GPRMC,072724.000,A,2218.250058,N,11410.712209,E,0.2,83.93079984100001,061121,,E,A*2B
$GPGGA,072725.000,2218.251237,N,11410.713254,E,1,19,0.8,-5.2,M,,M,,*67
$GPRMC,072725.000,A,2218.251237,N,11410.713254,E,0.2,83.928860067,061121,,E,A*14
$GPGGA,072726.000,2218.251138,N,11410.712764,E,1,19,0.8,-5.8,M,,M,,*65
$GPRMC,072726.000,A,2218.251138,N,11410.712764,E,0.5,83.921210255,061121,,E,A*1C
$GPGGA,072727.000,2218.251106,N,11410.712712,E,1,19,0.8,-5.7,M,,M,,*67
$GPRMC,072727.000,A,2218.251106,N,11410.712712,E,0.3,84.825008217,061121,,E,A*18
$GPGGA,072728.000,2218.251068,N,11410.712660,E,1,19,0.8,-5.7,M,,M,,*65
$GPRMC,072728.000,A,2218.251068,N,11410.712660,E,0.3,85.22376149600001,061121,,E,A*21
$GPGGA,072729.000,2218.250991,N,11410.712583,E,1,19,0.8,-5.3,M,,M,,*60
$GPRMC,072729.000,A,2218.250991,N,11410.712583,E,0.3,85.228877307,061121,,E,A*1D
$GPGGA,072730.000,2218.250985,N,11410.712587,E,1,19,0.8,-4.9,M,,M,,*62
$GPRMC,072730.000,A,2218.250985,N,11410.712587,E,0.1,85.264510405,061121,,E,A*17
$GPGGA,072731.000,2218.250986,N,11410.712483,E,1,19,0.8,-4.5,M,,M,,*69
$GPRMC,072731.000,A,2218.250986,N,11410.712483,E,0.2,89.07408261,061121,,E,A*24
$GPGGA,072732.000,2218.251028,N,11410.712578,E,1,19,0.8,-4.3,M,,M,,*65
$GPRMC,072732.000,A,2218.251028,N,11410.712578,E,0.1,87.721998836,061121,,E,A*1C
$GPGGA,072733.000,2218.251857,N,11410.714245,E,1,19,0.8,-9.4,M,,M,,*61
$GPRMC,072733.000,A,2218.251857,N,11410.714245,E,0.9,85.348555883,061121,,E,A*10
$GPGGA,072734.000,2218.251953,N,11410.714524,E,1,19,0.8,-10.3,M,,M,,*5C
$GPRMC,072734.000,A,2218.251953,N,11410.714524,E,1.1,85.318031768,061121,,E,A*13
$GPGGA,072735.000,2218.251892,N,11410.714560,E,1,19,0.8,-10.0,M,,M,,*52
$GPRMC,072735.000,A,2218.251892,N,11410.714560,E,0.5,85.305027087,061121,,E,A*16
$GPGGA,072736.000,2218.251884,N,11410.714668,E,1,19,0.8,-9.9,M,,M,,*6C
$GPRMC,072736.000,A,2218.251884,N,11410.714668,E,0.3,85.339983996,061121,,E,A*1E
$GPGGA,072737.000,2218.251852,N,11410.714775,E,1,19,0.8,-10.1,M,,M,,*5B
$GPRMC,072737.000,A,2218.251852,N,11410.714775,E,0.4,85.36179279,061121,,E,A*25
$GPGGA,072738.000,2218.251980,N,11410.715071,E,1,19,0.8,-10.5,M,,M,,*5C
$GPRMC,072738.000,A,2218.251980,N,11410.715071,E,0.7,95.865729102,061121,,E,A*16
$GPGGA,072739.000,2218.252026,N,11410.715382,E,1,19,0.8,-10.4,M,,M,,*55
$GPRMC,072739.000,A,2218.252026,N,11410.715382,E,0.8,144.005305915,061121,,E,A*26
$GPGGA,072740.000,2218.251997,N,11410.715452,E,1,19,0.8,-10.6,M,,M,,*53
$GPRMC,072740.000,A,2218.251997,N,11410.715452,E,0.5,87.61739448799999,061121,,E,A*23
$GPGGA,072741.000,2218.251982,N,11410.715461,E,1,19,0.8,-10.7,M,,M,,*57
$GPRMC,072741.000,A,2218.251982,N,11410.715461,E,0.1,87.626348866,061121,,E,A*1B
$GPGGA,072742.000,2218.251950,N,11410.715368,E,1,19,0.8,-10.7,M,,M,,*55
$GPRMC,072742.000,A,2218.251950,N,11410.715368,E,0.5,87.15518192100001,061121,,E,A*2A
$GPGGA,072743.000,2218.251868,N,11410.715271,E,1,19,0.8,-10.5,M,,M,,*55
$GPRMC,072743.000,A,2218.251868,N,11410.715271,E,0.4,87.15195807200001,061121,,E,A*2E
$GPGGA,072744.000,2218.251735,N,11410.715430,E,1,19,0.8,-10.1,M,,M,,*52
$GPRMC,072744.000,A,2218.251735,N,11410.715430,E,0.5,120.93743455399999,061121,,E,A*11
$GPGGA,072745.000,2218.251659,N,11410.715566,E,1,19,0.8,-10.1,M,,M,,*5A
$GPRMC,072745.000,A,2218.251659,N,11410.715566,E,0.5,107.80382074,061121,,E,A*1A
$GPGGA,072746.000,2218.251621,N,11410.715588,E,1,19,0.8,-10.1,M,,M,,*56
$GPRMC,072746.000,A,2218.251621,N,11410.715588,E,0.3,120.894131154,061121,,E,A*21
$GPGGA,072747.000,2218.251583,N,11410.715591,E,1,19,0.8,-10.5,M,,M,,*50
$GPRMC,072747.000,A,2218.251583,N,11410.715591,E,0.1,120.84959832,061121,,E,A*17
$GPGGA,072748.000,2218.250663,N,11410.714175,E,1,19,0.8,-5.8,M,,M,,*65
$GPRMC,072748.000,A,2218.250663,N,11410.714175,E,0.6,95.35366298299999,061121,,E,A*2E
$GPGGA,072749.000,2218.250527,N,11410.714089,E,1,19,0.8,-5.2,M,,M,,*6F
$GPRMC,072749.000,A,2218.250527,N,11410.714089,E,0.5,107.70055510899999,061121,,E,A*18
$GPGGA,072750.000,2218.250425,N,11410.713963,E,1,19,0.8,-4.5,M,,M,,*68
$GPRMC,072750.000,A,2218.250425,N,11410.713963,E,0.5,95.291357997,061121,,E,A*1D
$GPGGA,072751.000,2218.250318,N,11410.713876,E,1,19,0.8,-3.6,M,,M,,*61
$GPRMC,072751.000,A,2218.250318,N,11410.713876,E,0.5,103.697592926,061121,,E,A*29
$GPGGA,072752.000,2218.250328,N,11410.713810,E,1,19,0.8,-3.4,M,,M,,*63
$GPRMC,072752.000,A,2218.250328,N,11410.713810,E,0.3,120.763264728,061121,,E,A*2A
$GPGGA,072753.000,2218.250387,N,11410.713778,E,1,19,0.8,-3.5,M,,M,,*67
$GPRMC,072753.000,A,2218.250387,N,11410.713778,E,0.4,103.682368434,061121,,E,A*24
$GPGGA,072754.000,2218.250455,N,11410.713841,E,1,19,0.8,-3.1,M,,M,,*69
$GPRMC,072754.000,A,2218.250455,N,11410.713841,E,0.2,120.715767592,061121,,E,A*20
$GPGGA,072755.000,2218.251067,N,11410.714318,E,1,19,0.8,-6.2,M,,M,,*6A
$GPRMC,072755.000,A,2218.251067,N,11410.714318,E,0.3,108.48408709899999,061121,,E,A*1A
$GPGGA,072756.000,2218.251056,N,11410.714308,E,1,19,0.8,-6.0,M,,M,,*68
$GPRMC,072756.000,A,2218.251056,N,11410.714308,E,0.1,120.646932945,061121,,E,A*29
$GPGGA,072757.000,2218.251001,N,11410.714275,E,1,19,0.8,-5.3,M,,M,,*60
$GPRMC,072757.000,A,2218.251001,N,11410.714275,E,0.3,120.618041244,061121,,E,A*2F
$GPGGA,072758.000,2218.250983,N,11410.714253,E,1,19,0.8,-4.9,M,,M,,*62
$GPRMC,072758.000,A,2218.250983,N,11410.714253,E,0.1,120.60604743200001,061121,,E,A*1B
$GPGGA,072759.000,2218.251037,N,11410.714127,E,1,19,0.8,-5.4,M,,M,,*68
$GPRMC,072759.000,A,2218.251037,N,11410.714127,E,0.4,120.602905545,061121,,E,A*23
$GPGGA,072800.000,2218.251095,N,11410.713988,E,1,19,0.8,-6.0,M,,M,,*6E
$GPRMC,072800.000,A,2218.251095,N,11410.713988,E,0.4,120.52920780299999,061121,,E,A*16
$GPGGA,072801.000,2218.251065,N,11410.713653,E,1,19,0.8,-6.1,M,,M,,*68
$GPRMC,072801.000,A,2218.251065,N,11410.713653,E,0.8,120.493199045,061121,,E,A*2B
$GPGGA,072802.000,2218.251112,N,11410.713146,E,1,19,0.8,-6.0,M,,M,,*68
$GPRMC,072802.000,A,2218.251112,N,11410.713146,E,0.8,133.531142399,061121,,E,A*25
$GPGGA,072803.000,2218.250987,N,11410.712905,E,1,19,0.8,-6.0,M,,M,,*62
$GPRMC,072803.000,A,2218.250987,N,11410.712905,E,0.9,99.46311464700001,061121,,E,A*2D
$GPGGA,072804.000,2218.250882,N,11410.712669,E,1,19,0.8,-6.0,M,,M,,*64
$GPRMC,072804.000,A,2218.250882,N,11410.712669,E,0.9,99.46311464700001,061121,,E,A*2B
$GPGGA,072805.000,2218.250750,N,11410.712316,E,1,19,0.8,-6.3,M,,M,,*6B
$GPRMC,072805.000,A,2218.250750,N,11410.712316,E,1.0,130.896410556,061121,,E,A*28
$GPGGA,072806.000,2218.250731,N,11410.712092,E,1,19,0.8,-6.6,M,,M,,*65
$GPRMC,072806.000,A,2218.250731,N,11410.712092,E,0.9,133.646763842,061121,,E,A*24
$GPGGA,072807.000,2218.250650,N,11410.712078,E,1,19,0.8,-6.9,M,,M,,*69
$GPRMC,072807.000,A,2218.250650,N,11410.712078,E,0.7,133.64090354,061121,,E,A*18
$GPGGA,072808.000,2218.250604,N,11410.712392,E,1,19,0.8,-7.2,M,,M,,*6A
$GPRMC,072808.000,A,2218.250604,N,11410.712392,E,0.3,64.061984219,061121,,E,A*17
$GPGGA,072809.000,2218.250734,N,11410.712978,E,1,19,0.8,-7.5,M,,M,,*60
$GPRMC,072809.000,A,2218.250734,N,11410.712978,E,0.6,164.20524911200002,061121,,E,A*1E
$GPGGA,072810.000,2218.250109,N,11410.710094,E,1,19,0.8,-1.4,M,,M,,*6E
$GPRMC,072810.000,A,2218.250109,N,11410.710094,E,0.8,151.817867624,061121,,E,A*20
$GPGGA,072811.000,2218.250169,N,11410.710337,E,1,19,0.8,-1.4,M,,M,,*63
$GPRMC,072811.000,A,2218.250169,N,11410.710337,E,0.8,97.655108911,061121,,E,A*17
$GPGGA,072812.000,2218.250028,N,11410.710448,E,1,19,0.8,-0.6,M,,M,,*68
$GPRMC,072812.000,A,2218.250028,N,11410.710448,E,0.7,120.257489214,061121,,E,A*29
$GPGGA,072813.000,2218.250041,N,11410.710584,E,1,19,0.8,-0.3,M,,M,,*62
$GPRMC,072813.000,A,2218.250041,N,11410.710584,E,0.6,120.24903344,061121,,E,A*1A
$GPGGA,072814.000,2218.250084,N,11410.710686,E,1,19,0.8,-0.2,M,,M,,*6C
$GPRMC,072814.000,A,2218.250084,N,11410.710686,E,0.5,120.20534755,061121,,E,A*1E
$GPGGA,072815.000,2218.250162,N,11410.710759,E,1,19,0.8,-0.1,M,,M,,*64
$GPRMC,072815.000,A,2218.250162,N,11410.710759,E,0.5,151.73893795700002,061121,,E,A*1C
$GPGGA,072816.000,2218.250277,N,11410.709853,E,1,19,0.8,0.6,M,,M,,*47
$GPRMC,072816.000,A,2218.250277,N,11410.709853,E,0.6,108.262857269,061121,,E,A*23
$GPGGA,072817.000,2218.249696,N,11410.708969,E,1,19,0.8,4.7,M,,M,,*49
$GPRMC,072817.000,A,2218.249696,N,11410.708969,E,0.2,151.829506267,061121,,E,A*22
$GPGGA,072818.000,2218.249721,N,11410.709048,E,1,19,0.8,4.5,M,,M,,*42
$GPRMC,072818.000,A,2218.249721,N,11410.709048,E,0.3,151.837907399,061121,,E,A*28
$GPGGA,072819.000,2218.249701,N,11410.708975,E,1,19,0.8,4.4,M,,M,,*46
$GPRMC,072819.000,A,2218.249701,N,11410.708975,E,0.1,108.19852371700001,061121,,E,A*16
$GPGGA,072820.000,2218.248555,N,11410.698261,E,1,19,0.8,64.3,M,,M,,*79
$GPRMC,072820.000,A,2218.248555,N,11410.698261,E,0.1,151.81051834,061121,,E,A*12
$GPGGA,072821.000,2218.248527,N,11410.698221,E,1,19,0.8,64.3,M,,M,,*79
$GPRMC,072821.000,A,2218.248527,N,11410.698221,E,0.2,151.82412407700002,061121,,E,A*18
$GPGGA,072822.000,2218.248522,N,11410.698174,E,1,19,0.8,64.3,M,,M,,*7C
$GPRMC,072822.000,A,2218.248522,N,11410.698174,E,0.2,189.221158748,061121,,E,A*25
$GPGGA,072823.000,2218.248542,N,11410.698225,E,1,19,0.8,64.2,M,,M,,*7D
$GPRMC,072823.000,A,2218.248542,N,11410.698225,E,0.1,204.81837401299998,061121,,E,A*1C
$GPGGA,072824.000,2218.248549,N,11410.698244,E,1,19,0.8,64.1,M,,M,,*75
$GPRMC,072824.000,A,2218.248549,N,11410.698244,E,0.0,189.32676713400002,061121,,E,A*1F
$GPGGA,072825.000,2218.248475,N,11410.698282,E,1,19,0.8,64.1,M,,M,,*70
$GPRMC,072825.000,A,2218.248475,N,11410.698282,E,0.2,189.344184117,061121,,E,A*24
$GPGGA,072826.000,2218.248470,N,11410.698278,E,1,19,0.8,64.1,M,,M,,*73
$GPRMC,072826.000,A,2218.248470,N,11410.698278,E,0.1,189.301167585,061121,,E,A*27
$GPGGA,072827.000,2218.247976,N,11410.702445,E,1,19,0.8,50.3,M,,M,,*79
$GPRMC,072827.000,A,2218.247976,N,11410.702445,E,0.1,133.209577089,061121,,E,A*2C
$GPGGA,072828.000,2218.248170,N,11410.702762,E,1,19,0.8,50.4,M,,M,,*76
$GPRMC,072828.000,A,2218.248170,N,11410.702762,E,0.5,151.957626956,061121,,E,A*28
$GPGGA,072829.000,2218.248300,N,11410.702997,E,1,19,0.8,50.8,M,,M,,*7A
$GPRMC,072829.000,A,2218.248300,N,11410.702997,E,0.8,152.016079716,061121,,E,A*2C
$GPGGA,072830.000,2218.248416,N,11410.703248,E,1,19,0.8,51.0,M,,M,,*73
$GPRMC,072830.000,A,2218.248416,N,11410.703248,E,0.9,152.026584547,061121,,E,A*2F
$GPGGA,072831.000,2218.248526,N,11410.703479,E,1,19,0.8,51.0,M,,M,,*74
$GPRMC,072831.000,A,2218.248526,N,11410.703479,E,0.9,151.99788409200002,061121,,E,A*1A
$GPGGA,072832.000,2218.248601,N,11410.703670,E,1,19,0.8,51.0,M,,M,,*7A
$GPRMC,072832.000,A,2218.248601,N,11410.703670,E,0.8,151.983540695,061121,,E,A*26
$GPGGA,072833.000,2218.248535,N,11410.702745,E,1,19,0.8,51.1,M,,M,,*78
$GPRMC,072833.000,A,2218.248535,N,11410.702745,E,0.5,191.55906422599998,061121,,E,A*1B
$GPGGA,072834.000,2218.248848,N,11410.702500,E,1,19,0.8,50.4,M,,M,,*7F
$GPRMC,072834.000,A,2218.248848,N,11410.702500,E,1.8,152.0082933,061121,,E,A*2E
$GPGGA,072835.000,2218.248823,N,11410.702230,E,1,19,0.8,49.7,M,,M,,*7C
$GPRMC,072835.000,A,2218.248823,N,11410.702230,E,0.2,55.01999869,061121,,E,A*27
$GPGGA,072836.000,2218.248804,N,11410.702173,E,1,19,0.8,49.1,M,,M,,*78
$GPRMC,072836.000,A,2218.248804,N,11410.702173,E,0.0,53.001148427,061121,,E,A*13
$GPGGA,072837.000,2218.248917,N,11410.702003,E,1,19,0.8,45.7,M,,M,,*76
$GPRMC,072837.000,A,2218.248917,N,11410.702003,E,0.2,133.440341863,061121,,E,A*24
$GPGGA,072838.000,2218.252193,N,11410.696647,E,1,19,0.8,60.8,M,,M,,*74
$GPRMC,072838.000,A,2218.252193,N,11410.696647,E,0.3,121.184263933,061121,,E,A*24
$GPGGA,072839.000,2218.252117,N,11410.696634,E,1,19,0.8,60.8,M,,M,,*7D
$GPRMC,072839.000,A,2218.252117,N,11410.696634,E,0.3,133.451871222,061121,,E,A*21
$GPGGA,072840.000,2218.252126,N,11410.697019,E,1,19,0.8,60.7,M,,M,,*76
$GPRMC,072840.000,A,2218.252126,N,11410.697019,E,0.5,116.954710222,061121,,E,A*24
$GPGGA,072841.000,2218.252061,N,11410.697166,E,1,19,0.8,60.8,M,,M,,*73
$GPRMC,072841.000,A,2218.252061,N,11410.697166,E,0.5,133.565457269,061121,,E,A*28
$GPGGA,072842.000,2218.251924,N,11410.697097,E,1,19,0.8,60.7,M,,M,,*7B
$GPRMC,072842.000,A,2218.251924,N,11410.697097,E,0.4,190.95755678,061121,,E,A*18
$GPGGA,072843.000,2218.251602,N,11410.697301,E,1,19,0.8,60.8,M,,M,,*72
$GPRMC,072843.000,A,2218.251602,N,11410.697301,E,0.8,189.43536714299998,061121,,E,A*17
$GPGGA,072844.000,2218.251445,N,11410.697372,E,1,19,0.8,60.8,M,,M,,*70
$GPRMC,072844.000,A,2218.251445,N,11410.697372,E,0.7,189.447374616,061121,,E,A*23
$GPGGA,072845.000,2218.251280,N,11410.697477,E,1,19,0.8,60.8,M,,M,,*7C
$GPRMC,072845.000,A,2218.251280,N,11410.697477,E,0.7,107.93872380799999,061121,,E,A*1D
$GPGGA,072846.000,2218.251443,N,11410.697021,E,1,19,0.8,61.3,M,,M,,*7B
$GPRMC,072846.000,A,2218.251443,N,11410.697021,E,0.1,107.921259014,061121,,E,A*25
$GPGGA,072847.000,2218.251422,N,11410.697015,E,1,19,0.8,61.6,M,,M,,*7F
$GPRMC,072847.000,A,2218.251422,N,11410.697015,E,0.1,107.921259014,061121,,E,A*24
$GPGGA,072848.000,2218.251414,N,11410.697144,E,1,19,0.8,61.8,M,,M,,*7E
$GPRMC,072848.000,A,2218.251414,N,11410.697144,E,0.1,55.141780964,061121,,E,A*1C
$GPGGA,072849.000,2218.251620,N,11410.697554,E,1,19,0.8,58.3,M,,M,,*7E
$GPRMC,072849.000,A,2218.251620,N,11410.697554,E,0.2,99.702273724,061121,,E,A*1C
$GPGGA,072850.000,2218.252210,N,11410.700593,E,1,19,0.8,72.0,M,,M,,*7D
$GPRMC,072850.000,A,2218.252210,N,11410.700593,E,0.3,71.102850656,061121,,E,A*1A
$GPGGA,072851.000,2218.252434,N,11410.700681,E,1,19,0.8,71.7,M,,M,,*78
$GPRMC,072851.000,A,2218.252434,N,11410.700681,E,0.5,57.011907271000005,061121,,E,A*1D
$GPGGA,072852.000,2218.252385,N,11410.700747,E,1,19,0.8,71.6,M,,M,,*7C
$GPRMC,072852.000,A,2218.252385,N,11410.700747,E,0.3,53.171886083000004,061121,,E,A*1B
$GPGGA,072853.000,2218.252235,N,11410.700600,E,1,19,0.8,71.5,M,,M,,*76
$GPRMC,072853.000,A,2218.252235,N,11410.700600,E,0.2,53.181584951000005,061121,,E,A*14
$GPGGA,072854.000,2218.252143,N,11410.700519,E,1,19,0.8,71.2,M,,M,,*7F
$GPRMC,072854.000,A,2218.252143,N,11410.700519,E,0.2,55.18344853399999,061121,,E,A*2B
$GPGGA,072855.000,2218.252081,N,11410.700456,E,1,19,0.8,71.1,M,,M,,*78
$GPRMC,072855.000,A,2218.252081,N,11410.700456,E,0.2,73.329936314,061121,,E,A*17
$GPGGA,072856.000,2218.252528,N,11410.700982,E,1,19,0.8,71.1,M,,M,,*79
$GPRMC,072856.000,A,2218.252528,N,11410.700982,E,0.5,64.770343146,061121,,E,A*12
$GPGGA,072857.000,2218.252574,N,11410.701198,E,1,19,0.8,71.8,M,,M,,*7A
$GPRMC,072857.000,A,2218.252574,N,11410.701198,E,0.7,64.869975116,061121,,E,A*17
$GPGGA,072858.000,2218.252680,N,11410.701472,E,1,19,0.8,71.9,M,,M,,*7D
$GPRMC,072858.000,A,2218.252680,N,11410.701472,E,0.8,64.88602606100001,061121,,E,A*20
$GPGGA,072859.000,2218.252898,N,11410.701915,E,1,19,0.8,71.8,M,,M,,*76
$GPRMC,072859.000,A,2218.252898,N,11410.701915,E,1.1,73.387740205,061121,,E,A*18
$GPGGA,072900.000,2218.253020,N,11410.702221,E,1,19,0.8,71.9,M,,M,,*7F
$GPRMC,072900.000,A,2218.253020,N,11410.702221,E,1.1,73.409152849,061121,,E,A*16
$GPGGA,072901.000,2218.253135,N,11410.702522,E,1,19,0.8,71.9,M,,M,,*7F
$GPRMC,072901.000,A,2218.253135,N,11410.702522,E,1.1,191.476487238,061121,,E,A*22
$GPGGA,072902.000,2218.253009,N,11410.702060,E,1,19,0.8,72.2,M,,M,,*79
$GPRMC,072902.000,A,2218.253009,N,11410.702060,E,0.4,133.899508165,061121,,E,A*20
$GPGGA,072903.000,2218.252067,N,11410.702723,E,1,19,0.8,70.5,M,,M,,*74
$GPRMC,072903.000,A,2218.252067,N,11410.702723,E,0.4,191.609457363,061121,,E,A*28
$GPGGA,072904.000,2218.251811,N,11410.702502,E,1,19,0.8,70.7,M,,M,,*7A
$GPRMC,072904.000,A,2218.251811,N,11410.702502,E,0.3,152.975393457,061121,,E,A*27
$GPGGA,072905.000,2218.251761,N,11410.702423,E,1,19,0.8,70.5,M,,M,,*73
$GPRMC,072905.000,A,2218.251761,N,11410.702423,E,0.2,192.481918417,061121,,E,A*2A
$GPGGA,072906.000,2218.251874,N,11410.702221,E,1,19,0.8,69.8,M,,M,,*7A
$GPRMC,072906.000,A,2218.251874,N,11410.702221,E,0.5,152.980680023,061121,,E,A*2C
$GPGGA,072907.000,2218.251981,N,11410.702105,E,1,19,0.8,69.4,M,,M,,*79
$GPRMC,072907.000,A,2218.251981,N,11410.702105,E,0.6,192.589329973,061121,,E,A*23
$GPGGA,072908.000,2218.252081,N,11410.702274,E,1,19,0.8,69.0,M,,M,,*7D
$GPRMC,072908.000,A,2218.252081,N,11410.702274,E,0.3,152.933087264,061121,,E,A*2D
$GPGGA,072909.000,2218.252134,N,11410.702583,E,1,19,0.8,68.7,M,,M,,*7A
$GPRMC,072909.000,A,2218.252134,N,11410.702583,E,0.6,191.791946359,061121,,E,A*2B
$GPGGA,072910.000,2218.252201,N,11410.702751,E,1,19,0.8,68.4,M,,M,,*79
$GPRMC,072910.000,A,2218.252201,N,11410.702751,E,0.6,191.79129066099998,061121,,E,A*1C
$GPGGA,072911.000,2218.252407,N,11410.702789,E,1,19,0.8,64.5,M,,M,,*70
$GPRMC,072911.000,A,2218.252407,N,11410.702789,E,0.5,73.466984061,061121,,E,A*1C
$GPGGA,072912.000,2218.252463,N,11410.702992,E,1,19,0.8,64.2,M,,M,,*72
$GPRMC,072912.000,A,2218.252463,N,11410.702992,E,0.6,134.032027497,061121,,E,A*20
$GPGGA,072913.000,2218.252493,N,11410.703128,E,1,19,0.8,63.8,M,,M,,*79
$GPRMC,072913.000,A,2218.252493,N,11410.703128,E,0.5,73.509276593,061121,,E,A*19
$GPGGA,072914.000,2218.252435,N,11410.703217,E,1,19,0.8,63.8,M,,M,,*7D
$GPRMC,072914.000,A,2218.252435,N,11410.703217,E,0.5,133.959408925,061121,,E,A*2F
$GPGGA,072915.000,2218.252272,N,11410.702963,E,1,19,0.8,64.9,M,,M,,*76
$GPRMC,072915.000,A,2218.252272,N,11410.702963,E,0.3,118.64003209799999,061121,,E,A*1E
$GPGGA,072916.000,2218.252190,N,11410.702844,E,1,19,0.8,65.5,M,,M,,*73
$GPRMC,072916.000,A,2218.252190,N,11410.702844,E,0.6,189.769322417,061121,,E,A*26
$GPGGA,072917.000,2218.252230,N,11410.702730,E,1,19,0.8,63.8,M,,M,,*7C
$GPRMC,072917.000,A,2218.252230,N,11410.702730,E,0.5,118.62601655,061121,,E,A*15
$GPGGA,072918.000,2218.252271,N,11410.703073,E,1,19,0.8,63.8,M,,M,,*77
$GPRMC,072918.000,A,2218.252271,N,11410.703073,E,0.5,118.620320172,061121,,E,A*2A
$GPGGA,072919.000,2218.252296,N,11410.703155,E,1,19,0.8,63.7,M,,M,,*75
$GPRMC,072919.000,A,2218.252296,N,11410.703155,E,0.1,122.26541459,061121,,E,A*17
$GPGGA,072920.000,2218.252339,N,11410.703141,E,1,19,0.8,63.7,M,,M,,*7E
$GPRMC,072920.000,A,2218.252339,N,11410.703141,E,0.2,120.04319885700001,061121,,E,A*1D
$GPGGA,072921.000,2218.252294,N,11410.703200,E,1,19,0.8,63.6,M,,M,,*7E
$GPRMC,072921.000,A,2218.252294,N,11410.703200,E,0.3,203.98218126400002,061121,,E,A*1A
$GPGGA,072922.000,2218.252241,N,11410.703389,E,1,19,0.8,63.5,M,,M,,*76
$GPRMC,072922.000,A,2218.252241,N,11410.703389,E,0.7,220.40696957900002,061121,,E,A*10
$GPGGA,072923.000,2218.252141,N,11410.703611,E,1,19,0.8,63.7,M,,M,,*72
$GPRMC,072923.000,A,2218.252141,N,11410.703611,E,0.9,97.51286339,061121,,E,A*2A
$GPGGA,072924.000,2218.252041,N,11410.703850,E,1,19,0.8,63.8,M,,M,,*70
$GPRMC,072924.000,A,2218.252041,N,11410.703850,E,0.9,97.51286339,061121,,E,A*27
$GPGGA,072925.000,2218.252058,N,11410.703924,E,1,19,0.8,63.9,M,,M,,*7A
$GPRMC,072925.000,A,2218.252058,N,11410.703924,E,0.5,211.51216438400002,061121,,E,A*15
$GPGGA,072926.000,2218.252051,N,11410.703860,E,1,19,0.8,64.2,M,,M,,*7D
$GPRMC,072926.000,A,2218.252051,N,11410.703860,E,0.2,189.878045369,061121,,E,A*29
$GPGGA,072927.000,2218.252020,N,11410.703958,E,1,19,0.8,64.2,M,,M,,*70
$GPRMC,072927.000,A,2218.252020,N,11410.703958,E,0.4,204.02355855099998,061121,,E,A*1F
$GPGGA,072928.000,2218.251974,N,11410.703930,E,1,19,0.8,63.9,M,,M,,*76
$GPRMC,072928.000,A,2218.251974,N,11410.703930,E,0.1,89.521958609,061121,,E,A*1B
$GPGGA,072929.000,2218.251943,N,11410.703961,E,1,19,0.8,63.5,M,,M,,*7B
$GPRMC,072929.000,A,2218.251943,N,11410.703961,E,0.1,211.572707181,061121,,E,A*2C
$GPGGA,072930.000,2218.251958,N,11410.704060,E,1,19,0.8,63.2,M,,M,,*71
$GPRMC,072930.000,A,2218.251958,N,11410.704060,E,0.2,193.308248373,061121,,E,A*21
$GPGGA,072931.000,2218.252043,N,11410.704165,E,1,19,0.8,61.3,M,,M,,*77
$GPRMC,072931.000,A,2218.252043,N,11410.704165,E,0.3,107.39316927200001,061121,,E,A*1B
$GPGGA,072932.000,2218.251985,N,11410.704262,E,1,19,0.8,61.0,M,,M,,*73
$GPRMC,072932.000,A,2218.251985,N,11410.704262,E,0.4,204.064485045,061121,,E,A*20
$GPGGA,072933.000,2218.251927,N,11410.704350,E,1,19,0.8,60.8,M,,M,,*73
$GPRMC,072933.000,A,2218.251927,N,11410.704350,E,0.4,204.064485045,061121,,E,A*29
$GPGGA,072934.000,2218.251855,N,11410.704310,E,1,19,0.8,61.0,M,,M,,*7D
$GPRMC,072934.000,A,2218.251855,N,11410.704310,E,0.2,211.655147565,061121,,E,A*24
$GPGGA,072935.000,2218.251752,N,11410.704502,E,1,19,0.8,61.6,M,,M,,*77
$GPRMC,072935.000,A,2218.251752,N,11410.704502,E,0.5,211.71055406099998,061121,,E,A*11
$GPGGA,072936.000,2218.251707,N,11410.704658,E,1,19,0.8,61.9,M,,M,,*77
$GPRMC,072936.000,A,2218.251707,N,11410.704658,E,0.5,211.718162891,061121,,E,A*29
$GPGGA,072937.000,2218.251647,N,11410.704788,E,1,19,0.8,62.1,M,,M,,*74
$GPRMC,072937.000,A,2218.251647,N,11410.704788,E,0.5,211.718162891,061121,,E,A*21
$GPGGA,072953.000,2218.250195,N,11410.706325,E,1,19,0.8,-9.2,M,,M,,*6D
$GPRMC,072953.000,A,2218.250195,N,11410.706325,E,1.0,53.313308566,061121,,E,A*1F
$GPGGA,072954.000,2218.250258,N,11410.706521,E,1,19,0.8,-9.8,M,,M,,*60
$GPRMC,072954.000,A,2218.250258,N,11410.706521,E,0.6,83.72181654,061121,,E,A*27
$GPGGA,072955.000,2218.250262,N,11410.706499,E,1,19,0.8,-9.7,M,,M,,*65
$GPRMC,072955.000,A,2218.250262,N,11410.706499,E,0.3,103.898912754,061121,,E,A*2E
$GPGGA,072956.000,2218.250206,N,11410.706408,E,1,19,0.8,-9.5,M,,M,,*6E
$GPRMC,072956.000,A,2218.250206,N,11410.706408,E,0.4,167.666037703,061121,,E,A*21
$GPGGA,072957.000,2218.250199,N,11410.706283,E,1,19,0.8,-8.9,M,,M,,*62
$GPRMC,072957.000,A,2218.250199,N,11410.706283,E,0.4,145.990964873,061121,,E,A*21
$GPGGA,072958.000,2218.250271,N,11410.706234,E,1,19,0.8,-8.2,M,,M,,*6F
$GPRMC,072958.000,A,2218.250271,N,11410.706234,E,0.3,107.072478226,061121,,E,A*29
$GPGGA,072959.000,2218.250292,N,11410.706409,E,1,19,0.8,-7.7,M,,M,,*61
$GPRMC,072959.000,A,2218.250292,N,11410.706409,E,0.2,134.26564729,061121,,E,A*1B
$GPGGA,073000.000,2218.247978,N,11410.705800,E,1,19,0.8,9.8,M,,M,,*46
$GPRMC,073000.000,A,2218.247978,N,11410.705800,E,0.2,107.02373799600001,061121,,E,A*1A
$GPGGA,073001.000,2218.247986,N,11410.705869,E,1,19,0.8,9.5,M,,M,,*44
$GPRMC,073001.000,A,2218.247986,N,11410.705869,E,0.2,145.71945119,061121,,E,A*11
$GPGGA,073002.000,2218.248040,N,11410.705863,E,1,19,0.8,9.1,M,,M,,*45
$GPRMC,073002.000,A,2218.248040,N,11410.705863,E,0.2,204.13759539,061121,,E,A*13
$GPGGA,073003.000,2218.248120,N,11410.705776,E,1,19,0.8,8.8,M,,M,,*40
$GPRMC,073003.000,A,2218.248120,N,11410.705776,E,0.3,183.537717292,061121,,E,A*2C
$GPGGA,073004.000,2218.248104,N,11410.705613,E,1,19,0.8,8.7,M,,M,,*4C
$GPRMC,073004.000,A,2218.248104,N,11410.705613,E,0.3,119.41490340799999,061121,,E,A*14
$GPGGA,073005.000,2218.248048,N,11410.705583,E,1,19,0.8,8.3,M,,M,,*4A
$GPRMC,073005.000,A,2218.248048,N,11410.705583,E,0.2,119.388402274,061121,,E,A*22
$GPGGA,073006.000,2218.248104,N,11410.705820,E,1,19,0.8,7.8,M,,M,,*40
$GPRMC,073006.000,A,2218.248104,N,11410.705820,E,0.2,93.95635652700001,061121,,E,A*20
$GPGGA,073007.000,2218.248328,N,11410.705958,E,1,19,0.8,7.2,M,,M,,*49
$GPRMC,073007.000,A,2218.248328,N,11410.705958,E,0.6,119.65294916399999,061121,,E,A*17
$GPGGA,073008.000,2218.248496,N,11410.705967,E,1,19,0.8,7.1,M,,M,,*4B
$GPRMC,073008.000,A,2218.248496,N,11410.705967,E,0.6,99.039704386,061121,,E,A*13
$GPGGA,073009.000,2218.248646,N,11410.706032,E,1,19,0.8,7.0,M,,M,,*4E
$GPRMC,073009.000,A,2218.248646,N,11410.706032,E,0.6,187.242179715,061121,,E,A*25
$GPGGA,073010.000,2218.248801,N,11410.706080,E,1,19,0.8,7.0,M,,M,,*42
$GPRMC,073010.000,A,2218.248801,N,11410.706080,E,0.6,187.242179715,061121,,E,A*29
$GPGGA,073011.000,2218.248955,N,11410.706129,E,1,19,0.8,7.0,M,,M,,*41
$GPRMC,073011.000,A,2218.248955,N,11410.706129,E,0.6,187.242179715,061121,,E,A*2A
$GPGGA,073012.000,2218.249155,N,11410.706193,E,1,19,0.8,6.8,M,,M,,*43
$GPRMC,073012.000,A,2218.249155,N,11410.706193,E,0.7,177.808964361,061121,,E,A*28
$GPGGA,073013.000,2218.249345,N,11410.706198,E,1,19,0.8,6.5,M,,M,,*47
$GPRMC,073013.000,A,2218.249345,N,11410.706198,E,0.7,177.80819938,061121,,E,A*14
$GPGGA,073017.000,2218.248034,N,11410.710006,E,1,19,0.8,2.7,M,,M,,*40
$GPRMC,073017.000,A,2218.248034,N,11410.710006,E,1.4,86.581159156,061121,,E,A*11
$GPGGA,073018.000,2218.248063,N,11410.709834,E,1,19,0.8,2.8,M,,M,,*43
$GPRMC,073018.000,A,2218.248063,N,11410.709834,E,0.1,86.58928708100001,061121,,E,A*2B
$GPGGA,073019.000,2218.248088,N,11410.709805,E,1,19,0.8,2.8,M,,M,,*45
$GPRMC,073019.000,A,2218.248088,N,11410.709805,E,0.2,80.304843613,061121,,E,A*15
$GPGGA,073020.000,2218.248134,N,11410.709812,E,1,19,0.8,2.7,M,,M,,*40
$GPRMC,073020.000,A,2218.248134,N,11410.709812,E,0.3,76.015375481,061121,,E,A*13
$GPGGA,073021.000,2218.248137,N,11410.709792,E,1,19,0.8,2.6,M,,M,,*44
$GPRMC,073021.000,A,2218.248137,N,11410.709792,E,0.1,87.536736783,061121,,E,A*1C
$GPGGA,073022.000,2218.248118,N,11410.709730,E,1,19,0.8,2.5,M,,M,,*41
$GPRMC,073022.000,A,2218.248118,N,11410.709730,E,0.2,39.236001655,061121,,E,A*12
$GPGGA,073023.000,2218.248071,N,11410.709815,E,1,19,0.8,2.7,M,,M,,*44
$GPRMC,073023.000,A,2218.248071,N,11410.709815,E,0.2,111.816584245,061121,,E,A*2B
$GPGGA,073024.000,2218.247104,N,11410.711258,E,1,19,0.8,-6.8,M,,M,,*63
$GPRMC,073024.000,A,2218.247104,N,11410.711258,E,0.6,129.884504358,061121,,E,A*2B
$GPGGA,073025.000,2218.246993,N,11410.711323,E,1,19,0.8,-6.4,M,,M,,*64
$GPRMC,073025.000,A,2218.246993,N,11410.711323,E,0.5,86.90718458,061121,,E,A*22
$GPGGA,073026.000,2218.246947,N,11410.711389,E,1,19,0.8,-6.3,M,,M,,*69
$GPRMC,073026.000,A,2218.246947,N,11410.711389,E,0.3,86.92135039200001,061121,,E,A*25
$GPGGA,073027.000,2218.246911,N,11410.711458,E,1,19,0.8,-6.4,M,,M,,*67
$GPRMC,073027.000,A,2218.246911,N,11410.711458,E,0.3,86.92135039200001,061121,,E,A*2C
$GPGGA,073028.000,2218.246919,N,11410.711470,E,1,19,0.8,-6.4,M,,M,,*6A
$GPRMC,073028.000,A,2218.246919,N,11410.711470,E,0.2,76.075829486,061121,,E,A*11
$GPGGA,073029.000,2218.246878,N,11410.711378,E,1,19,0.8,-6.6,M,,M,,*60
$GPRMC,073029.000,A,2218.246878,N,11410.711378,E,0.1,111.78827311100001,061121,,E,A*10
$GPGGA,073030.000,2218.246963,N,11410.711289,E,1,19,0.8,-6.6,M,,M,,*6C
$GPRMC,073030.000,A,2218.246963,N,11410.711289,E,0.3,129.899039001,061121,,E,A*27
$GPGGA,073031.000,2218.247065,N,11410.711186,E,1,19,0.8,-6.6,M,,M,,*6F
$GPRMC,073031.000,A,2218.247065,N,11410.711186,E,0.4,87.53490629299999,061121,,E,A*28
$GPGGA,073032.000,2218.249925,N,11410.710524,E,1,19,0.8,-5.8,M,,M,,*6F
$GPRMC,073032.000,A,2218.249925,N,11410.710524,E,0.8,87.695805061,061121,,E,A*14
$GPGGA,073033.000,2218.250808,N,11410.711911,E,1,19,0.8,-7.6,M,,M,,*6F
$GPRMC,073033.000,A,2218.250808,N,11410.711911,E,4.5,34.866365346,061121,,E,A*10
$GPGGA,073034.000,2218.252214,N,11410.712916,E,1,19,0.8,-7.9,M,,M,,*66
$GPRMC,073034.000,A,2218.252214,N,11410.712916,E,7.5,33.87169584,061121,,E,A*23
$GPGGA,073035.000,2218.254311,N,11410.714050,E,1,19,0.8,-8.0,M,,M,,*6E
$GPRMC,073035.000,A,2218.254311,N,11410.714050,E,9.4,21.205361122,061121,,E,A*1B
$GPGGA,073036.000,2218.256732,N,11410.715031,E,1,19,0.8,-8.1,M,,M,,*6D
$GPRMC,073036.000,A,2218.256732,N,11410.715031,E,9.2,20.606863066,061121,,E,A*11
$GPGGA,073037.000,2218.258284,N,11410.715154,E,1,19,0.8,-7.9,M,,M,,*6F
$GPRMC,073037.000,A,2218.258284,N,11410.715154,E,6.7,12.28034346,061121,,E,A*2E
$GPGGA,073038.000,2218.260082,N,11410.715578,E,1,19,0.8,-6.9,M,,M,,*64
$GPRMC,073038.000,A,2218.260082,N,11410.715578,E,6.5,15.480138685,061121,,E,A*10
$GPGGA,073039.000,2218.261869,N,11410.715504,E,1,19,0.8,-6.5,M,,M,,*6E
$GPRMC,073039.000,A,2218.261869,N,11410.715504,E,6.6,-5.5295150710000005,061121,,E,A*38
$GPGGA,073040.000,2218.264137,N,11410.715481,E,1,19,0.8,-3.7,M,,M,,*6C
$GPRMC,073040.000,A,2218.264137,N,11410.715481,E,5.8,11.369091105,061121,,E,A*14
$GPGGA,073041.000,2218.265715,N,11410.715827,E,1,19,0.8,-3.4,M,,M,,*69
$GPRMC,073041.000,A,2218.265715,N,11410.715827,E,5.8,11.461161507,061121,,E,A*15
$GPGGA,073042.000,2218.266028,N,11410.713616,E,1,19,0.8,-3.6,M,,M,,*68
$GPRMC,073042.000,A,2218.266028,N,11410.713616,E,5.2,-60.456788078,061121,,E,A*3F
$GPGGA,073043.000,2218.266711,N,11410.712207,E,1,19,0.8,-3.8,M,,M,,*6F
$GPRMC,073043.000,A,2218.266711,N,11410.712207,E,5.2,-61.269545093999994,061121,,E,A*36
$GPGGA,073044.000,2218.267413,N,11410.710827,E,1,19,0.8,-3.8,M,,M,,*62
$GPRMC,073044.000,A,2218.267413,N,11410.710827,E,5.2,-61.293783749,061121,,E,A*3B
$GPGGA,073045.000,2218.271584,N,11410.713021,E,1,19,0.8,-4.5,M,,M,,*6C
$GPRMC,073045.000,A,2218.271584,N,11410.713021,E,7.4,0.38941264600000003,061121,,E,A*2D
$GPGGA,073046.000,2218.273637,N,11410.712982,E,1,19,0.8,-5.0,M,,M,,*63
$GPRMC,073046.000,A,2218.273637,N,11410.712982,E,7.4,0.002472839,061121,,E,A*25
