% program   : RTKPOST ver.demo5 b33c
% inp file  : E:\sparse and urban jiulongtang midundao Huawei VINS test\20200314\site 1\COM55_200314_084357.obs
% inp file  : E:\sparse and urban jiulongtang midundao Huawei VINS test\20200314\hksc0740.20b
% obs start : 2020/03/14 08:44:32.0 GPST (week2096 549872.0s)
% obs end   : 2020/03/14 09:28:39.0 GPST (week2096 552519.0s)
% pos mode  : single
% elev mask : 15.0 deg
% ionos opt : broadcast
% tropo opt : saastamoinen
% ephemeris : broadcast
% navi sys  : gps glonass galileo qzss beidou sbas
%
% (lat/lon/height=WGS84/ellipsoidal,Q=1:fix,2:float,3:sbas,4:dgps,5:single,6:ppp,ns=# of satellites)
%  GPST                  latitude(deg) longitude(deg)  height(m)   Q  ns   sdn(m)   sde(m)   sdu(m)  sdne(m)  sdeu(m)  sdun(m) age(s)  ratio
2020/03/14 08:44:32.003   22.330481186  114.179534799    17.7436   5  11   2.9280   4.1650   9.2199   1.6594  -4.4440  -3.6370   0.00    0.0
2020/03/14 08:44:33.003   22.330481267  114.179539278    16.5271   5  11   2.9282   4.1649   9.2197   1.6595  -4.4438  -3.6373   0.00    0.0
2020/03/14 08:44:34.003   22.330481926  114.179540540    15.0079   5  11   2.9283   4.1649   9.2195   1.6596  -4.4437  -3.6375   0.00    0.0
2020/03/14 08:44:35.003   22.330481411  114.179518201    17.6197   5  12   2.9283   3.4822   8.9111   1.6844  -3.7874  -3.6494   0.00    0.0
2020/03/14 08:44:36.003   22.330481759  114.179515206    17.3969   5  12   2.9284   3.4822   8.9109   1.6844  -3.7873  -3.6496   0.00    0.0
2020/03/14 08:44:37.003   22.330483505  114.179523089    15.3993   5  12   2.9286   3.4821   8.9107   1.6845  -3.7871  -3.6498   0.00    0.0
2020/03/14 08:44:38.003   22.330482097  114.179525803    15.4840   5  12   2.9287   3.4821   8.9105   1.6846  -3.7870  -3.6501   0.00    0.0
2020/03/14 08:44:39.003   22.330457753  114.179460146    33.6735   5  13   2.8313   2.6991   7.3874   1.0903  -1.8384  -3.0966   0.00    0.0
2020/03/14 08:44:40.003   22.330464827  114.179486362    31.3228   5  14   2.8311   2.6077   6.8653   1.1041  -2.2975  -3.0777   0.00    0.0
2020/03/14 08:44:41.003   22.330460744  114.179469294    34.2434   5  14   2.8312   2.6076   6.8653   1.1041  -2.2974  -3.0778   0.00    0.0
2020/03/14 08:44:42.003   22.330457436  114.179454255    37.5539   5  14   2.8313   2.6076   6.8652   1.1041  -2.2973  -3.0780   0.00    0.0
2020/03/14 08:44:43.003   22.330460331  114.179458470    37.3651   5  14   2.8315   2.6075   6.8652   1.1042  -2.2972  -3.0781   0.00    0.0
2020/03/14 08:44:44.003   22.330461451  114.179461846    35.9544   5  14   2.8316   2.6074   6.8651   1.1042  -2.2971  -3.0783   0.00    0.0
2020/03/14 08:44:45.003   22.330466716  114.179476144    32.3805   5  14   2.8317   2.6074   6.8651   1.1043  -2.2970  -3.0784   0.00    0.0
2020/03/14 08:44:46.003   22.330463790  114.179467745    34.7356   5  14   2.8319   2.6073   6.8650   1.1043  -2.2969  -3.0786   0.00    0.0
2020/03/14 08:44:47.003   22.330461561  114.179458738    35.7433   5  14   2.8320   2.6073   6.8650   1.1043  -2.2968  -3.0787   0.00    0.0
2020/03/14 08:44:48.003   22.330456643  114.179446734    38.2114   5  14   2.8321   2.6072   6.8649   1.1044  -2.2967  -3.0789   0.00    0.0
2020/03/14 08:44:49.003   22.330456052  114.179444855    39.0672   5  14   2.8322   2.6072   6.8649   1.1044  -2.2966  -3.0791   0.00    0.0
2020/03/14 08:44:50.003   22.330457400  114.179446521    38.1237   5  14   2.8324   2.6071   6.8648   1.1044  -2.2965  -3.0792   0.00    0.0
2020/03/14 08:44:51.003   22.330455650  114.179441962    39.5561   5  14   2.8325   2.6071   6.8648   1.1045  -2.2964  -3.0794   0.00    0.0
2020/03/14 08:44:52.003   22.330455048  114.179440540    39.9161   5  14   2.8326   2.6070   6.8647   1.1045  -2.2963  -3.0795   0.00    0.0
2020/03/14 08:44:53.003   22.330452728  114.179432126    40.6026   5  14   2.8327   2.6069   6.8647   1.1046  -2.2962  -3.0797   0.00    0.0
2020/03/14 08:44:54.003   22.330465011  114.179469364    33.0169   5  14   2.8329   2.6069   6.8646   1.1046  -2.2961  -3.0798   0.00    0.0
2020/03/14 08:44:55.003   22.330486748  114.179541970    18.0352   5  14   2.8330   2.6068   6.8646   1.1046  -2.2961  -3.0800   0.00    0.0
2020/03/14 08:44:56.003   22.330481478  114.179525921    21.4508   5  13   2.9294   3.4454   8.3295   1.7024  -3.9875  -3.6057   0.00    0.0
2020/03/14 08:44:57.003   22.330482198  114.179528341    20.3178   5  13   2.9296   3.4453   8.3295   1.7025  -3.9874  -3.6059   0.00    0.0
2020/03/14 08:44:58.003   22.330480278  114.179524915    21.4137   5  13   2.9297   3.4452   8.3295   1.7026  -3.9874  -3.6061   0.00    0.0
2020/03/14 08:44:59.003   22.330481549  114.179524717    21.9081   5  13   2.9299   3.4452   8.3295   1.7027  -3.9873  -3.6063   0.00    0.0
2020/03/14 08:45:00.003   22.330481142  114.179526700    21.2817   5  13   2.9300   3.4451   8.3295   1.7028  -3.9872  -3.6066   0.00    0.0
2020/03/14 08:45:01.003   22.330480744  114.179523929    21.5142   5  13   2.9302   3.4450   8.3295   1.7029  -3.9872  -3.6068   0.00    0.0
2020/03/14 08:45:02.003   22.330479469  114.179524561    20.3265   5  13   2.9303   3.4449   8.3294   1.7030  -3.9871  -3.6070   0.00    0.0
2020/03/14 08:45:03.003   22.330480898  114.179521764    20.7549   5  13   2.9305   3.4449   8.3294   1.7031  -3.9870  -3.6072   0.00    0.0
2020/03/14 08:45:04.003   22.330480973  114.179523018    19.9546   5  13   2.9306   3.4448   8.3294   1.7032  -3.9870  -3.6074   0.00    0.0
2020/03/14 08:45:05.003   22.330481615  114.179522616    20.1619   5  13   2.9308   3.4447   8.3294   1.7033  -3.9869  -3.6076   0.00    0.0
2020/03/14 08:45:06.003   22.330482199  114.179521098    20.7132   5  13   2.9309   3.4447   8.3294   1.7033  -3.9868  -3.6078   0.00    0.0
2020/03/14 08:45:07.003   22.330481719  114.179521273    20.2273   5  13   2.9311   3.4446   8.3294   1.7034  -3.9868  -3.6080   0.00    0.0
2020/03/14 08:45:08.003   22.330480092  114.179518987    21.1818   5  13   2.9312   3.4445   8.3294   1.7035  -3.9867  -3.6082   0.00    0.0
2020/03/14 08:45:09.003   22.330460174  114.179457411    34.6163   5  14   2.8348   2.6060   6.8639   1.1051  -2.2947  -3.0821   0.00    0.0
2020/03/14 08:45:10.003   22.330463917  114.179466660    32.5126   5  14   2.8349   2.6060   6.8638   1.1052  -2.2946  -3.0822   0.00    0.0
2020/03/14 08:45:11.003   22.330460115  114.179455873    34.6057   5  14   2.8350   2.6059   6.8638   1.1052  -2.2945  -3.0824   0.00    0.0
2020/03/14 08:45:12.003   22.330462901  114.179468916    31.8102   5  14   2.8351   2.6059   6.8637   1.1053  -2.2944  -3.0825   0.00    0.0
2020/03/14 08:45:13.003   22.330464221  114.179464438    32.3839   5  14   2.8353   2.6058   6.8637   1.1053  -2.2943  -3.0827   0.00    0.0
2020/03/14 08:45:14.003   22.330480442  114.179517005    20.2812   5  13   2.9321   3.4441   8.3293   1.7041  -3.9863  -3.6095   0.00    0.0
2020/03/14 08:45:15.003   22.330477790  114.179519766    21.0400   5  13   2.9323   3.4440   8.3293   1.7042  -3.9862  -3.6097   0.00    0.0
2020/03/14 08:45:16.003   22.330478616  114.179517396    20.6850   5  13   2.9324   3.4439   8.3292   1.7043  -3.9862  -3.6099   0.00    0.0
2020/03/14 08:45:17.003   22.330465729  114.179480141    28.6907   5  14   2.8358   2.6056   6.8635   1.1054  -2.2940  -3.0833   0.00    0.0
2020/03/14 08:45:18.003   22.330466758  114.179484680    28.9225   5  14   2.8359   2.6055   6.8634   1.1055  -2.2939  -3.0834   0.00    0.0
2020/03/14 08:45:19.003   22.330467782  114.179486686    27.1205   5  14   2.8360   2.6055   6.8634   1.1055  -2.2938  -3.0836   0.00    0.0
2020/03/14 08:45:20.003   22.330484292  114.179540660    16.2720   5  14   2.8362   2.6054   6.8633   1.1056  -2.2937  -3.0837   0.00    0.0
2020/03/14 08:45:21.003   22.330476977  114.179524222    19.6919   5  13   2.9332   3.4436   8.3292   1.7047  -3.9858  -3.6110   0.00    0.0
2020/03/14 08:45:22.003   22.330476933  114.179523364    19.8999   5  13   2.9333   3.4435   8.3291   1.7048  -3.9857  -3.6112   0.00    0.0
2020/03/14 08:45:23.003   22.330477447  114.179522403    20.2970   5  13   2.9335   3.4434   8.3291   1.7049  -3.9857  -3.6114   0.00    0.0
2020/03/14 08:45:24.003   22.330477002  114.179522181    19.5947   5  13   2.9336   3.4434   8.3291   1.7050  -3.9856  -3.6116   0.00    0.0
2020/03/14 08:45:25.003   22.330476061  114.179520091    19.9516   5  13   2.9338   3.4433   8.3291   1.7051  -3.9855  -3.6118   0.00    0.0
2020/03/14 08:45:26.003   22.330476514  114.179521804    19.2000   5  13   2.9340   3.4432   8.3291   1.7052  -3.9855  -3.6120   0.00    0.0
2020/03/14 08:45:27.003   22.330475548  114.179522738    18.1710   5  13   2.9341   3.4431   8.3291   1.7053  -3.9854  -3.6122   0.00    0.0
2020/03/14 08:45:28.003   22.330474967  114.179521232    17.7052   5  13   2.9343   3.4431   8.3290   1.7053  -3.9853  -3.6124   0.00    0.0
2020/03/14 08:45:29.003   22.330476392  114.179526661    16.3652   5  13   2.9344   3.4430   8.3290   1.7054  -3.9853  -3.6126   0.00    0.0
2020/03/14 08:45:30.003   22.330477374  114.179528534    16.1194   5  13   2.9346   3.4429   8.3290   1.7055  -3.9852  -3.6128   0.00    0.0
2020/03/14 08:45:31.003   22.330477213  114.179530008    17.2605   5  13   2.9347   3.4429   8.3290   1.7056  -3.9851  -3.6130   0.00    0.0
2020/03/14 08:45:32.003   22.330477703  114.179525948    17.4235   5  13   2.9349   3.4428   8.3290   1.7057  -3.9851  -3.6132   0.00    0.0
2020/03/14 08:45:33.003   22.330472670  114.179532318    16.5973   5  13   2.9350   3.4427   8.3290   1.7058  -3.9850  -3.6134   0.00    0.0
2020/03/14 08:45:34.003   22.330473794  114.179526196    11.5637   5  13   2.9352   3.4426   8.3289   1.7059  -3.9849  -3.6137   0.00    0.0
2020/03/14 08:45:35.003   22.330478285  114.179521920    12.6383   5  13   2.9353   3.4426   8.3289   1.7060  -3.9848  -3.6139   0.00    0.0
2020/03/14 08:45:36.003   22.330479216  114.179515008    11.6794   5  13   2.9355   3.4425   8.3289   1.7061  -3.9848  -3.6141   0.00    0.0
2020/03/14 08:45:37.003   22.330473119  114.179525565    12.9763   5  13   2.9356   3.4424   8.3289   1.7061  -3.9847  -3.6143   0.00    0.0
2020/03/14 08:45:38.003   22.330475253  114.179523090    11.1828   5  13   2.9358   3.4424   8.3289   1.7062  -3.9846  -3.6145   0.00    0.0
2020/03/14 08:45:39.003   22.330478679  114.179518653    11.2428   5  13   2.9359   3.4423   8.3288   1.7063  -3.9846  -3.6147   0.00    0.0
2020/03/14 08:45:40.003   22.330477128  114.179517912    12.4643   5  13   2.9361   3.4422   8.3288   1.7064  -3.9845  -3.6149   0.00    0.0
2020/03/14 08:45:41.003   22.330477379  114.179514935    12.6149   5  12   2.9363   3.6269   9.8964   1.6982  -4.6887  -3.5967   0.00    0.0
2020/03/14 08:45:42.003   22.330479011  114.179515543    11.9513   5  12   2.9365   3.6269   9.8966   1.6983  -4.6888  -3.5970   0.00    0.0
2020/03/14 08:45:43.003   22.330478015  114.179508545    16.6144   5  12   2.9366   3.6268   9.8968   1.6984  -4.6888  -3.5973   0.00    0.0
2020/03/14 08:45:44.003   22.330477812  114.179515364    14.0745   5  12   2.9368   3.6268   9.8970   1.6986  -4.6888  -3.5976   0.00    0.0
2020/03/14 08:45:45.003   22.330476952  114.179520983    15.0742   5  12   2.9369   3.6267   9.8972   1.6987  -4.6888  -3.5979   0.00    0.0
2020/03/14 08:45:46.003   22.330477665  114.179518880    14.5610   5  12   2.9371   3.6267   9.8973   1.6988  -4.6889  -3.5982   0.00    0.0
2020/03/14 08:45:47.003   22.330474306  114.179518451    17.3744   5  12   2.9372   3.6266   9.8975   1.6990  -4.6889  -3.5985   0.00    0.0
2020/03/14 08:45:48.003   22.330476517  114.179521868    13.3673   5  12   2.9374   3.6266   9.8977   1.6991  -4.6889  -3.5989   0.00    0.0
2020/03/14 08:45:49.003   22.330474883  114.179525229    13.9773   5  12   2.9375   3.6265   9.8979   1.6993  -4.6890  -3.5992   0.00    0.0
2020/03/14 08:45:50.003   22.330475597  114.179524727    13.6997   5  12   2.9377   3.6265   9.8981   1.6994  -4.6890  -3.5995   0.00    0.0
2020/03/14 08:45:51.003   22.330472915  114.179535048    15.7833   5  12   2.9378   3.6264   9.8983   1.6995  -4.6890  -3.5998   0.00    0.0
2020/03/14 08:45:52.003   22.330454076  114.179457336    35.8995   5  13   2.8567   2.6115   7.5515   1.0783  -2.4259  -2.9275   0.00    0.0
2020/03/14 08:45:53.003   22.330478141  114.179544317    14.4448   5  12   2.9381   3.6264   9.8987   1.6998  -4.6891  -3.6004   0.00    0.0
2020/03/14 08:45:54.003   22.330481146  114.179539259    15.7296   5  12   2.9383   3.6263   9.8988   1.6999  -4.6891  -3.6007   0.00    0.0
2020/03/14 08:45:55.003   22.330486139  114.179534285    16.2547   5  12   2.9384   3.6263   9.8990   1.7001  -4.6891  -3.6010   0.00    0.0
2020/03/14 08:45:56.003   22.330487084  114.179530393    16.8998   5  12   2.9386   3.6262   9.8992   1.7002  -4.6891  -3.6013   0.00    0.0
2020/03/14 08:45:57.003   22.330487935  114.179524955    17.8701   5  12   2.9387   3.6262   9.8994   1.7003  -4.6892  -3.6017   0.00    0.0
2020/03/14 08:45:58.003   22.330487500  114.179524325    17.6514   5  12   2.9389   3.6261   9.8996   1.7005  -4.6892  -3.6020   0.00    0.0
2020/03/14 08:45:59.003   22.330488713  114.179527393    17.5404   5  12   2.9390   3.6261   9.8998   1.7006  -4.6892  -3.6023   0.00    0.0
2020/03/14 08:46:00.003   22.330501483  114.179517835    17.8295   5  12   2.9392   3.6260   9.8999   1.7008  -4.6892  -3.6026   0.00    0.0
2020/03/14 08:46:01.003   22.330496208  114.179414128    44.0387   5  13   2.8578   2.6110   7.5516   1.0786  -2.4252  -2.9292   0.00    0.0
2020/03/14 08:46:02.003   22.330532290  114.179447537    34.2121   5  12   2.8805   2.7487   8.6383   0.9244  -1.5090  -3.1764   0.00    0.0
2020/03/14 08:46:03.003   22.330557637  114.179429688    42.9902   5  12   2.8806   2.7486   8.6384   0.9244  -1.5088  -3.1767   0.00    0.0
2020/03/14 08:46:04.003   22.330621492  114.179509524    17.9058   5  12   2.8807   2.7486   8.6386   0.9244  -1.5086  -3.1770   0.00    0.0
2020/03/14 08:46:05.003   22.330657343  114.179495947    24.9510   5  11   2.9822   3.6463  11.3351   1.6437  -4.4564  -3.9689   0.00    0.0
2020/03/14 08:46:06.003   22.330698901  114.179496255    26.3273   5  12   2.9401   3.6257   9.9010   1.7016  -4.6894  -3.6045   0.00    0.0
2020/03/14 08:46:07.003   22.330741038  114.179499555    27.3987   5  12   2.9402   3.6257   9.9012   1.7017  -4.6894  -3.6048   0.00    0.0
2020/03/14 08:46:08.003   22.330786170  114.179525028    20.9958   5  12   2.8812   2.7484   8.6393   0.9244  -1.5078  -3.1780   0.00    0.0
2020/03/14 08:46:09.003   22.330821969  114.179497041    17.9441   5  10   3.0436   3.6758  16.9073   1.5561  -3.7428  -4.8322   0.00    0.0
2020/03/14 08:46:10.003   22.330851629  114.179484320    32.7855   5  13   2.8682   2.6949   7.8906   0.8401  -2.0418  -3.3279   0.00    0.0
2020/03/14 08:46:11.003   22.330885358  114.179475166    33.0632   5  12   2.8816   2.7482   8.6398   0.9244  -1.5072  -3.1788   0.00    0.0
2020/03/14 08:46:12.003   22.330921967  114.179474674    30.1047   5  13   2.8685   2.6948   7.8905   0.8402  -2.0415  -3.3283   0.00    0.0
2020/03/14 08:46:13.003   22.330975912  114.179510916    25.0547   5  13   2.8687   2.6947   7.8904   0.8402  -2.0414  -3.3285   0.00    0.0
2020/03/14 08:46:14.003   22.331020984  114.179514583    20.8610   5  13   2.8688   2.6947   7.8903   0.8403  -2.0413  -3.3287   0.00    0.0
2020/03/14 08:46:15.003   22.331065093  114.179521064    18.6922   5  14   2.8292   2.5956   7.1975   1.0249  -2.5507  -3.0892   0.00    0.0
2020/03/14 08:46:16.003   22.331103615  114.179530991    21.7955   5  14   2.8294   2.5956   7.1974   1.0250  -2.5506  -3.0894   0.00    0.0
2020/03/14 08:46:17.003   22.331144215  114.179524773    20.1474   5  14   2.8295   2.5955   7.1973   1.0251  -2.5505  -3.0896   0.00    0.0
2020/03/14 08:46:18.003   22.331167325  114.179457846    36.7059   5  14   2.8296   2.5955   7.1972   1.0251  -2.5504  -3.0898   0.00    0.0
2020/03/14 08:46:19.003   22.331225901  114.179525440    29.7558   5  12   2.9839   3.6443  10.0360   1.6476  -4.4027  -4.0204   0.00    0.0
2020/03/14 08:46:20.003   22.331268843  114.179501890    31.2697   5  13   2.8697   2.6944   7.8900   0.8405  -2.0406  -3.3300   0.00    0.0
2020/03/14 08:46:21.003   22.331326773  114.179531793    23.6257   5  13   2.8698   2.6943   7.8899   0.8406  -2.0405  -3.3302   0.00    0.0
2020/03/14 08:46:22.003   22.331378891  114.179538888    20.8623   5  12   2.8877   2.8562   9.2095   0.6356   0.5827  -3.5509   0.00    0.0
2020/03/14 08:46:23.003   22.331432635  114.179551307    16.6484   5  12   2.8878   2.8562   9.2093   0.6355   0.5836  -3.5512   0.00    0.0
2020/03/14 08:46:24.003   22.331482485  114.179549833    19.1085   5  13   2.8318   2.6536   7.7733   1.0014  -2.2080  -3.1325   0.00    0.0
2020/03/14 08:46:25.003   22.331535554  114.179556630    20.7902   5  13   2.8319   2.6536   7.7730   1.0015  -2.2078  -3.1327   0.00    0.0
2020/03/14 08:46:26.003   22.331583162  114.179571127    25.3395   5  14   2.8307   2.5951   7.1963   1.0257  -2.5498  -3.0912   0.00    0.0
2020/03/14 08:46:27.003   22.331641725  114.179565579    19.1349   5  13   2.8707   2.6941   7.8895   0.8409  -2.0397  -3.3315   0.00    0.0
2020/03/14 08:46:28.003   22.331690327  114.179562347    21.3253   5  13   2.8708   2.6940   7.8895   0.8409  -2.0396  -3.3317   0.00    0.0
2020/03/14 08:46:29.003   22.331733084  114.179553882    28.8709   5  13   2.8710   2.6940   7.8894   0.8410  -2.0395  -3.3319   0.00    0.0
2020/03/14 08:46:30.003   22.331776854  114.179566808    33.1685   5  12   2.9860   3.6436  10.0359   1.6491  -4.4019  -4.0238   0.00    0.0
2020/03/14 08:46:31.003   22.331820575  114.179570332    31.9258   5  12   2.9862   3.6435  10.0358   1.6493  -4.4018  -4.0241   0.00    0.0
2020/03/14 08:46:32.003   22.331855535  114.179580480    33.6632   5  12   2.9863   3.6435  10.0358   1.6494  -4.4017  -4.0244   0.00    0.0
2020/03/14 08:46:33.003   22.331887419  114.179587503    31.4456   5  12   2.9865   3.6434  10.0358   1.6495  -4.4017  -4.0248   0.00    0.0
2020/03/14 08:46:34.003   22.331914777  114.179623102    26.5696   5  13   2.8717   2.6937   7.8891   0.8412  -2.0389  -3.3330   0.00    0.0
2020/03/14 08:46:35.003   22.331930942  114.179642278    26.0145   5  13   2.8718   2.6937   7.8890   0.8413  -2.0388  -3.3332   0.00    0.0
2020/03/14 08:46:36.003   22.331930484  114.179654269    28.6160   5  12   2.8849   2.7468   8.6439   0.9245  -1.5022  -3.1854   0.00    0.0
2020/03/14 08:46:37.003   22.331939587  114.179703644    23.6725   5  13   2.8721   2.6936   7.8889   0.8414  -2.0385  -3.3336   0.00    0.0
2020/03/14 08:46:38.003   22.331933841  114.179731635    26.9660   5  13   2.8722   2.6935   7.8888   0.8414  -2.0384  -3.3338   0.00    0.0
2020/03/14 08:46:39.003   22.331937236  114.179779392    27.2169   5  13   2.8724   2.6935   7.8888   0.8415  -2.0383  -3.3340   0.00    0.0
2020/03/14 08:46:40.003   22.331963804  114.179821433    27.7925   5  13   2.8725   2.6935   7.8887   0.8415  -2.0382  -3.3342   0.00    0.0
2020/03/14 08:46:41.003   22.331955936  114.179870345    22.2495   5  12   2.8856   2.7465   8.6447   0.9245  -1.5012  -3.1867   0.00    0.0
2020/03/14 08:46:42.003   22.331932759  114.179914780    29.6119   5  13   2.8728   2.6934   7.8886   0.8416  -2.0380  -3.3346   0.00    0.0
2020/03/14 08:46:43.003   22.331940626  114.179960437    27.7231   5  13   2.8729   2.6933   7.8885   0.8416  -2.0379  -3.3348   0.00    0.0
2020/03/14 08:46:44.003   22.331913840  114.180054472    46.8831   5  13   2.8731   2.6933   7.8885   0.8417  -2.0378  -3.3350   0.00    0.0
2020/03/14 08:46:45.003   22.331929880  114.180108533    42.5466   5  13   2.8732   2.6932   7.8884   0.8418  -2.0376  -3.3352   0.00    0.0
2020/03/14 08:46:46.003   22.331930568  114.180110307    17.2413   5  11   2.8936   3.1251  11.7715   0.7392   3.1087  -3.4372   0.00    0.0
2020/03/14 08:46:47.003   22.331932153  114.180161031    16.7364   5  11   2.8937   3.1251  11.7718   0.7390   3.1092  -3.4376   0.00    0.0
2020/03/14 08:46:48.003   22.331934854  114.180217378    18.0077   5  11   2.8939   3.1252  11.7720   0.7388   3.1096  -3.4381   0.00    0.0
2020/03/14 08:46:49.003   22.331924402  114.180258754    14.8325   5  11   2.8940   3.1253  11.7723   0.7385   3.1101  -3.4386   0.00    0.0
2020/03/14 08:46:50.003   22.331921948  114.180343527    36.4857   5  12   2.8919   2.8568   9.2024   0.6337   0.6075  -3.5579   0.00    0.0
2020/03/14 08:46:51.003   22.331926728  114.180386509    31.7413   5  12   2.8921   2.8568   9.2021   0.6336   0.6084  -3.5581   0.00    0.0
2020/03/14 08:46:52.003   22.331915073  114.180436383    34.5609   5  13   2.8354   2.6533   7.7658   1.0027  -2.2036  -3.1378   0.00    0.0
2020/03/14 08:46:53.003   22.331941060  114.180478247    24.9125   5  12   2.8643   2.6976   8.5064   1.0967  -1.7791  -2.9053   0.00    0.0
2020/03/14 08:46:54.003   22.331921776  114.180518702    24.5189   5  12   2.8645   2.6976   8.5063   1.0967  -1.7789  -2.9055   0.00    0.0
2020/03/14 08:46:55.003   22.331910231  114.180556896    18.9330   5  12   2.8646   2.6976   8.5061   1.0968  -1.7787  -2.9057   0.00    0.0
2020/03/14 08:46:56.003   22.331901136  114.180601792    19.6684   5  12   2.8647   2.6976   8.5060   1.0968  -1.7785  -2.9060   0.00    0.0
2020/03/14 08:46:57.003   22.331903251  114.180643944    20.7529   5  12   2.8648   2.6976   8.5058   1.0968  -1.7782  -2.9062   0.00    0.0
2020/03/14 08:46:58.003   22.331898858  114.180679769    19.5673   5  12   2.8649   2.6975   8.5057   1.0968  -1.7780  -2.9064   0.00    0.0
2020/03/14 08:46:59.003   22.331903019  114.180717094    20.3791   5  12   2.8650   2.6975   8.5055   1.0968  -1.7778  -2.9067   0.00    0.0
2020/03/14 08:47:00.003   22.331909872  114.180751811    20.8400   5  12   2.8651   2.6975   8.5054   1.0968  -1.7776  -2.9069   0.00    0.0
2020/03/14 08:47:01.003   22.331904525  114.180780717    23.8753   5  13   2.8366   2.6532   7.7634   1.0031  -2.2022  -3.1395   0.00    0.0
2020/03/14 08:47:02.003   22.331882589  114.180791843    16.0182   5  12   2.8654   2.6975   8.5051   1.0969  -1.7771  -2.9074   0.00    0.0
2020/03/14 08:47:03.003   22.331872962  114.180817261    20.9544   5  12   2.8655   2.6975   8.5050   1.0969  -1.7769  -2.9076   0.00    0.0
2020/03/14 08:47:04.003   22.331868256  114.180803595     7.6304   5  12   2.8656   2.6975   8.5048   1.0969  -1.7767  -2.9079   0.00    0.0
2020/03/14 08:47:05.003   22.331844712  114.180841857    23.9084   5  11   2.8963   3.1265  11.7762   0.7348   3.1176  -3.4460   0.00    0.0
2020/03/14 08:47:06.003   22.331820405  114.180844831    24.0975   5  12   2.8943   2.8572   9.1982   0.6326   0.6212  -3.5617   0.00    0.0
2020/03/14 08:47:07.003   22.331792095  114.180848201    26.6682   5  12   2.8945   2.8572   9.1979   0.6325   0.6221  -3.5620   0.00    0.0
2020/03/14 08:47:08.003   22.331777313  114.180845494    25.6919   5  11   3.0367   3.6676  11.8037   1.5845  -4.0772  -4.4136   0.00    0.0
2020/03/14 08:47:09.003   22.331767903  114.180903081    19.9389   5  11   3.0368   3.6675  11.8032   1.5845  -4.0768  -4.4139   0.00    0.0
2020/03/14 08:47:10.003   22.331717052  114.180855950    18.2705   5  10   3.0841   4.1261  11.8066   1.8777  -4.0056  -4.3957   0.00    0.0
2020/03/14 08:47:11.003   22.331656987  114.180832706    40.4209   5  11   2.9212   3.2351   9.3074   0.9958   1.6002  -3.4837   0.00    0.0
2020/03/14 08:47:12.003   22.331649846  114.180857263    21.8563   5  12   2.8665   2.6974   8.5037   1.0970  -1.7749  -2.9097   0.00    0.0
2020/03/14 08:47:13.003   22.331607010  114.180843387    30.2760   5  12   2.8666   2.6974   8.5036   1.0971  -1.7746  -2.9100   0.00    0.0
2020/03/14 08:47:14.003   22.331573009  114.180858288    41.4856   5  12   2.8667   2.6974   8.5034   1.0971  -1.7744  -2.9102   0.00    0.0
2020/03/14 08:47:15.003   22.331514233  114.180840843    41.5433   5  10   3.0562   3.9760  11.3706   2.0503  -4.6879  -3.7521   0.00    0.0
2020/03/14 08:47:16.003   22.331483649  114.180811521    13.3578   5   9   3.0862   4.3891  18.8168   1.8459   2.4287  -4.5285   0.00    0.0
2020/03/14 08:47:17.003   22.331447284  114.180808264    14.5099   5  10   3.0594   3.6749  16.9429   1.5583  -3.7075  -4.8842   0.00    0.0
2020/03/14 08:47:18.003   22.331405820  114.180814540    25.3810   5  12   2.8961   2.8574   9.1951   0.6317   0.6316  -3.5645   0.00    0.0
2020/03/14 08:47:19.003   22.331374472  114.180830469    29.5257   5  12   2.8962   2.8575   9.1948   0.6316   0.6324  -3.5648   0.00    0.0
2020/03/14 08:47:20.003   22.331338030  114.180845394    26.8602   5  13   2.8780   2.6916   7.8860   0.8433  -2.0335  -3.3422   0.00    0.0
2020/03/14 08:47:21.003   22.331281007  114.180845931    35.0812   5  14   2.8376   2.5925   7.1902   1.0293  -2.5451  -3.1004   0.00    0.0
2020/03/14 08:47:22.003   22.331268821  114.180812881    22.5404   5  13   2.8783   2.6915   7.8859   0.8434  -2.0332  -3.3426   0.00    0.0
2020/03/14 08:47:23.003   22.331207035  114.180815678    23.0395   5  14   2.8379   2.5924   7.1900   1.0294  -2.5449  -3.1007   0.00    0.0
2020/03/14 08:47:24.003   22.331172089  114.180816158    24.4935   5  14   2.8380   2.5923   7.1899   1.0295  -2.5448  -3.1009   0.00    0.0
2020/03/14 08:47:25.003   22.331113958  114.180792912    32.7698   5  13   2.9407   3.6128   9.2393   1.7313  -4.5911  -3.7528   0.00    0.0
2020/03/14 08:47:26.003   22.331069098  114.180784954    35.1433   5  12   2.9519   3.6220   9.9146   1.7123  -4.6910  -3.6287   0.00    0.0
2020/03/14 08:47:27.003   22.331022551  114.180786875    44.0859   5  12   2.9520   3.6219   9.9147   1.7124  -4.6910  -3.6290   0.00    0.0
2020/03/14 08:47:28.003   22.330955911  114.180720435    47.5495   5  12   2.9962   3.6398  10.0343   1.6567  -4.3975  -4.0408   0.00    0.0
2020/03/14 08:47:29.003   22.330927281  114.180777973    34.2270   5  10   3.0875   4.1267  11.7964   1.8789  -3.9979  -4.4002   0.00    0.0
2020/03/14 08:47:30.003   22.330891037  114.180793314    35.0694   5  11   3.0407   3.6671  11.7919   1.5857  -4.0697  -4.4191   0.00    0.0
2020/03/14 08:47:31.003   22.330842018  114.180784323    32.3665   5  11   3.0409   3.6671  11.7913   1.5857  -4.0693  -4.4194   0.00    0.0
2020/03/14 08:47:32.003   22.330809432  114.180786917    23.8604   5  11   2.9242   3.2365   9.3026   0.9947   1.6101  -3.4886   0.00    0.0
2020/03/14 08:47:33.003   22.330735200  114.180806292    37.6154   5  13   2.8798   2.6910   7.8851   0.8438  -2.0319  -3.3447   0.00    0.0
2020/03/14 08:47:34.003   22.330698613  114.180781042    32.7899   5  13   2.8799   2.6909   7.8850   0.8439  -2.0317  -3.3449   0.00    0.0
2020/03/14 08:47:35.003   22.330644178  114.180804128    33.6409   5  12   2.8923   2.7435   8.6531   0.9245  -1.4904  -3.1999   0.00    0.0
2020/03/14 08:47:36.003   22.330588999  114.180767671    10.9931   5  10   2.9490   4.0966  13.4671   1.3918   5.2012  -2.9155   0.00    0.0
2020/03/14 08:47:37.003   22.330516762  114.180737256    -1.4834   5   9   3.2366   4.1399  13.8330   1.6522   5.0185  -3.5656   0.00    0.0
2020/03/14 08:47:38.003   22.330436501  114.180767132    34.9162   5   8   4.4186   4.3040  14.3873   2.4554  -4.8865  -6.7003   0.00    0.0
2020/03/14 08:47:39.003   22.330370826  114.180751594    39.0859   5  11   3.7087   3.6455  10.5440   1.7948  -4.4755  -4.8401   0.00    0.0
2020/03/14 08:47:40.003   22.330331999  114.180754046    28.8874   5  11   3.7090   3.6454  10.5442   1.7950  -4.4755  -4.8405   0.00    0.0
2020/03/14 08:47:41.003   22.330343799  114.180769434    18.1306   5  12   3.5099   2.6991   8.1616   0.5320  -1.9164  -3.9274   0.00    0.0
2020/03/14 08:47:42.003   22.330315516  114.180750998    28.3078   5  13   2.8810   2.6905   7.8845   0.8442  -2.0307  -3.3464   0.00    0.0
2020/03/14 08:47:43.003   22.330323690  114.180724907    23.3676   5  13   2.8811   2.6905   7.8844   0.8442  -2.0306  -3.3466   0.00    0.0
2020/03/14 08:47:44.003   22.330291307  114.180729218    22.3659   5  12   2.8935   2.7430   8.6545   0.9245  -1.4885  -3.2021   0.00    0.0
2020/03/14 08:47:45.003   22.330281432  114.180687235    27.4486   5  12   2.8936   2.7429   8.6546   0.9245  -1.4883  -3.2023   0.00    0.0
2020/03/14 08:47:46.003   22.330278306  114.180652521    27.9495   5  11   3.5186   2.7519   8.9228   0.6390  -1.3155  -3.8211   0.00    0.0
2020/03/14 08:47:47.003   22.330272098  114.180617849    28.1790   5  11   3.5188   2.7519   8.9230   0.6391  -1.3153  -3.8215   0.00    0.0
2020/03/14 08:47:48.003   22.330284964  114.180554744    22.6728   5  12   2.8940   2.7428   8.6551   0.9245  -1.4876  -3.2031   0.00    0.0
2020/03/14 08:47:49.003   22.330269695  114.180506004    31.2097   5  12   2.8941   2.7427   8.6552   0.9245  -1.4874  -3.2033   0.00    0.0
2020/03/14 08:47:50.003   22.330300236  114.180420773    17.3155   5  11   2.9025   3.1300  11.7867   0.7239   3.1393  -3.4664   0.00    0.0
2020/03/14 08:47:51.003   22.330285858  114.180348796    16.5195   5   9   3.6815   3.4115  12.5251  -1.3111   3.3327  -4.4655   0.00    0.0
2020/03/14 08:47:52.003   22.330318145  114.180270363    11.0615   5  11   2.9028   3.1302  11.7872   0.7234   3.1403  -3.4674   0.00    0.0
2020/03/14 08:47:53.003   22.330292668  114.180196486    21.5399   5  12   2.8711   2.6969   8.4977   1.0976  -1.7653  -2.9191   0.00    0.0
2020/03/14 08:47:54.003   22.330315143  114.180131849    29.2647   5  13   2.8432   2.6527   7.7491   1.0052  -2.1935  -3.1490   0.00    0.0
2020/03/14 08:47:55.003   22.330328192  114.180066768    28.9715   5  12   2.8713   2.6969   8.4974   1.0976  -1.7649  -2.9196   0.00    0.0
2020/03/14 08:47:56.003   22.330319468  114.179946564    22.1755   5  11   2.9034   3.1305  11.7881   0.7224   3.1423  -3.4692   0.00    0.0
2020/03/14 08:47:57.003   22.330296556  114.179840024    12.6432   5  11   2.9035   3.1306  11.7883   0.7221   3.1428  -3.4697   0.00    0.0
2020/03/14 08:47:58.003   22.330317490  114.179774517    20.9487   5  11   2.9036   3.1307  11.7885   0.7218   3.1433  -3.4701   0.00    0.0
2020/03/14 08:47:59.003   22.330324108  114.179691576    18.1153   5  11   2.9038   3.1308  11.7888   0.7216   3.1438  -3.4706   0.00    0.0
2020/03/14 08:48:00.003   22.330325832  114.179639408    22.5701   5  11   2.9039   3.1308  11.7890   0.7213   3.1443  -3.4711   0.00    0.0
2020/03/14 08:48:01.003   22.330360375  114.179555190    10.5850   5   9   3.5913   4.2919  14.7071  -0.7990   5.8853  -4.5350   0.00    0.0
2020/03/14 08:48:02.003   22.330331377  114.179499935     5.9593   5  10   2.9519   4.1053  13.4910   1.3869   5.2257  -2.9303   0.00    0.0
2020/03/14 08:48:03.003   22.330340756  114.179488996    14.1097   5  11   2.9516   2.9832   8.5277   1.4395  -1.4743  -2.8350   0.00    0.0
2020/03/14 08:48:04.003   22.330398485  114.179511087    16.7498   5  12   2.8723   2.6968   8.4961   1.0977  -1.7626  -2.9217   0.00    0.0
2020/03/14 08:48:05.003   22.330411465  114.179469807    10.2563   5  11   2.9046   3.1312  11.7901   0.7200   3.1467  -3.4734   0.00    0.0
2020/03/14 08:48:06.003   22.330454547  114.179458355    -4.0990   5  12   2.8725   2.6967   8.4958   1.0977  -1.7622  -2.9222   0.00    0.0
2020/03/14 08:48:07.003   22.330472021  114.179499004    13.4656   5  12   2.8726   2.6967   8.4956   1.0977  -1.7619  -2.9225   0.00    0.0
2020/03/14 08:48:08.003   22.330494420  114.179468029    25.8759   5  12   2.9579   3.6197   9.9208   1.7174  -4.6910  -3.6409   0.00    0.0
2020/03/14 08:48:09.003   22.330537842  114.179481087    25.8425   5  12   2.9581   3.6196   9.9209   1.7176  -4.6910  -3.6412   0.00    0.0
2020/03/14 08:48:10.003   22.330586730  114.179472154    18.8090   5  10   3.0714   3.6740  16.9656   1.5590  -3.6770  -4.9226   0.00    0.0
2020/03/14 08:48:11.003   22.330628279  114.179476850    20.6579   5  10   3.0716   3.6740  16.9659   1.5590  -3.6764  -4.9233   0.00    0.0
2020/03/14 08:48:12.003   22.330659380  114.179437978    46.4016   5  10   2.9396   3.3985  11.8077  -0.2686   3.2769  -3.5161   0.00    0.0
2020/03/14 08:48:13.003   22.330726683  114.179505266    17.6711   5  10   3.0721   3.6740  16.9667   1.5591  -3.6753  -4.9248   0.00    0.0
2020/03/14 08:48:14.003   22.330778610  114.179511260    15.5774   5  11   2.9059   3.1319  11.7920   0.7177   3.1510  -3.4777   0.00    0.0
2020/03/14 08:48:15.003   22.330836436  114.179503386    14.8571   5  11   2.9061   3.1320  11.7922   0.7174   3.1515  -3.4782   0.00    0.0
2020/03/14 08:48:16.003   22.330881607  114.179489056    26.9429   5  11   2.9062   3.1321  11.7924   0.7172   3.1519  -3.4786   0.00    0.0
2020/03/14 08:48:17.003   22.330933579  114.179491908    28.2326   5  11   2.9064   3.1322  11.7926   0.7169   3.1524  -3.4791   0.00    0.0
2020/03/14 08:48:18.003   22.330989146  114.179520843    28.0846   5  13   2.8860   2.6888   7.8818   0.8455  -2.0259  -3.3536   0.00    0.0
2020/03/14 08:48:19.003   22.331045392  114.179519122    20.3678   5  12   2.9051   2.8589   9.1789   0.6265   0.6833  -3.5790   0.00    0.0
2020/03/14 08:48:20.003   22.331085901  114.179508571    26.9514   5  13   2.9493   3.6090   9.2328   1.7382  -4.5858  -3.7660   0.00    0.0
2020/03/14 08:48:21.003   22.331125739  114.179512224    28.5073   5  13   2.9495   3.6090   9.2327   1.7383  -4.5858  -3.7662   0.00    0.0
2020/03/14 08:48:22.003   22.331153507  114.179446390    42.6804   5  14   2.8453   2.5895   7.1832   1.0330  -2.5393  -3.1104   0.00    0.0
2020/03/14 08:48:23.003   22.331201630  114.179473182    38.8937   5  13   2.8867   2.6886   7.8814   0.8457  -2.0252  -3.3546   0.00    0.0
2020/03/14 08:48:24.003   22.331262750  114.179513797    31.3702   5  12   2.9059   2.8590   9.1775   0.6261   0.6873  -3.5802   0.00    0.0
2020/03/14 08:48:25.003   22.331316871  114.179526034    27.8718   5  12   2.9060   2.8591   9.1772   0.6260   0.6881  -3.5804   0.00    0.0
2020/03/14 08:48:26.003   22.331375071  114.179536178    23.5213   5  12   2.9062   2.8591   9.1770   0.6259   0.6889  -3.5807   0.00    0.0
2020/03/14 08:48:27.003   22.331434888  114.179545651    19.9149   5  12   2.9063   2.8591   9.1767   0.6259   0.6897  -3.5809   0.00    0.0
2020/03/14 08:48:28.003   22.331494095  114.179544476    20.2909   5  12   2.9065   2.8591   9.1764   0.6258   0.6905  -3.5812   0.00    0.0
2020/03/14 08:48:29.003   22.331556870  114.179551139    19.0414   5  12   2.9066   2.8592   9.1761   0.6257   0.6913  -3.5814   0.00    0.0
2020/03/14 08:48:30.003   22.331618162  114.179555729    18.8811   5  12   2.9068   2.8592   9.1759   0.6256   0.6921  -3.5816   0.00    0.0
2020/03/14 08:48:31.003   22.331670165  114.179569997    26.4216   5  14   2.8464   2.5890   7.1821   1.0335  -2.5385  -3.1119   0.00    0.0
2020/03/14 08:48:32.003   22.331724617  114.179587820    29.4404   5  14   2.8465   2.5890   7.1820   1.0336  -2.5384  -3.1120   0.00    0.0
2020/03/14 08:48:33.003   22.331800801  114.179584431    13.6785   5  12   2.9072   2.8593   9.1751   0.6254   0.6944  -3.5824   0.00    0.0
2020/03/14 08:48:34.003   22.331845691  114.179589673    17.4734   5  12   2.9074   2.8593   9.1748   0.6253   0.6952  -3.5826   0.00    0.0
2020/03/14 08:48:35.003   22.331887124  114.179627678    22.7982   5  13   2.8883   2.6880   7.8805   0.8463  -2.0236  -3.3570   0.00    0.0
2020/03/14 08:48:36.003   22.331927448  114.179626782    18.0830   5  12   2.9077   2.8593   9.1742   0.6251   0.6968  -3.5831   0.00    0.0
2020/03/14 08:48:37.003   22.331940477  114.179661753    22.5364   5  12   2.8761   2.6964   8.4909   1.0981  -1.7550  -2.9297   0.00    0.0
2020/03/14 08:48:38.003   22.331937813  114.179682296    17.6796   5  12   2.8762   2.6964   8.4908   1.0981  -1.7548  -2.9300   0.00    0.0
2020/03/14 08:48:39.003   22.331926866  114.179733572    27.9195   5  13   2.8889   2.6878   7.8801   0.8464  -2.0231  -3.3577   0.00    0.0
2020/03/14 08:48:40.003   22.331934389  114.179774531    28.5587   5  12   3.5227   2.6959   8.1609   0.5420  -1.9098  -3.9438   0.00    0.0
2020/03/14 08:48:41.003   22.331951592  114.179823209    28.0125   5  13   2.8891   2.6877   7.8800   0.8465  -2.0229  -3.3581   0.00    0.0
2020/03/14 08:48:42.003   22.331946975  114.179859725    24.3946   5  13   2.8763   2.6021   7.5521   1.0849  -2.4120  -2.9579   0.00    0.0
2020/03/14 08:48:43.003   22.331916974  114.179875951    13.0517   5  12   2.8767   2.6963   8.4900   1.0982  -1.7537  -2.9311   0.00    0.0
2020/03/14 08:48:44.003   22.331936831  114.179938908    20.7828   5  12   2.8769   2.6963   8.4898   1.0982  -1.7535  -2.9313   0.00    0.0
2020/03/14 08:48:45.003   22.331918079  114.179981775    26.4638   5  12   2.8770   2.6963   8.4897   1.0982  -1.7532  -2.9316   0.00    0.0
2020/03/14 08:48:46.003   22.331920358  114.180001736    15.4510   5  11   2.9105   3.1344  11.7985   0.7094   3.1658  -3.4927   0.00    0.0
2020/03/14 08:48:47.003   22.331907587  114.180113351    51.6372   5  12   2.9015   2.7395   8.6636   0.9243  -1.4748  -3.2178   0.00    0.0
2020/03/14 08:48:48.003   22.331921304  114.180090586    15.7304   5  11   2.9108   3.1346  11.7989   0.7089   3.1667  -3.4936   0.00    0.0
2020/03/14 08:48:49.003   22.331908832  114.180151359    20.7474   5  12   2.8774   2.6963   8.4890   1.0983  -1.7524  -2.9325   0.00    0.0
2020/03/14 08:48:50.003   22.331915909  114.180200555    17.2354   5  12   2.8775   2.6963   8.4889   1.0983  -1.7521  -2.9327   0.00    0.0
2020/03/14 08:48:51.003   22.331910826  114.180261546    19.3609   5  12   2.8776   2.6963   8.4887   1.0983  -1.7519  -2.9329   0.00    0.0
2020/03/14 08:48:52.003   22.331921012  114.180339805    27.4187   5  11   3.1147   2.7296   8.5412   1.3090  -1.6327  -2.7342   0.00    0.0
2020/03/14 08:48:53.003   22.331920004  114.180391094    24.7253   5  12   2.8778   2.6962   8.4884   1.0983  -1.7515  -2.9334   0.00    0.0
2020/03/14 08:48:54.003   22.331922479  114.180458476    28.6774   5  12   2.8780   2.6962   8.4882   1.0984  -1.7513  -2.9336   0.00    0.0
2020/03/14 08:48:55.003   22.331926911  114.180516540    27.8990   5  11   2.9117   3.1351  11.8002   0.7071   3.1698  -3.4968   0.00    0.0
2020/03/14 08:48:56.003   22.331901637  114.180544783    16.8565   5  11   2.9119   3.1351  11.8004   0.7068   3.1702  -3.4972   0.00    0.0
2020/03/14 08:48:57.003   22.331899596  114.180597962    18.0101   5  11   2.9120   3.1352  11.8005   0.7066   3.1706  -3.4977   0.00    0.0
2020/03/14 08:48:58.003   22.331898154  114.180648250    19.2161   5  11   2.9122   3.1353  11.8007   0.7063   3.1711  -3.4981   0.00    0.0
2020/03/14 08:48:59.003   22.331896453  114.180690051    18.8368   5  11   2.9123   3.1354  11.8009   0.7061   3.1715  -3.4986   0.00    0.0
2020/03/14 08:49:00.003   22.331897548  114.180731152    19.6793   5  11   2.9124   3.1354  11.8011   0.7058   3.1720  -3.4990   0.00    0.0
2020/03/14 08:49:01.003   22.331893940  114.180760966    19.6554   5  11   2.9126   3.1355  11.8013   0.7056   3.1724  -3.4995   0.00    0.0
2020/03/14 08:49:02.003   22.331886161  114.180814171    34.8165   5  12   2.9033   2.7387   8.6656   0.9243  -1.4718  -3.2213   0.00    0.0
2020/03/14 08:49:03.003   22.331875627  114.180833192    35.8263   5  12   2.9034   2.7386   8.6657   0.9243  -1.4716  -3.2216   0.00    0.0
2020/03/14 08:49:04.003   22.331871203  114.180822114    20.7630   5  11   2.9130   3.1358  11.8018   0.7048   3.1738  -3.5008   0.00    0.0
2020/03/14 08:49:05.003   22.331851204  114.180828536    18.4245   5  11   2.9131   3.1358  11.8020   0.7045   3.1743  -3.5013   0.00    0.0
2020/03/14 08:49:06.003   22.331822066  114.180836229    19.4188   5  11   2.9133   3.1359  11.8022   0.7043   3.1747  -3.5017   0.00    0.0
2020/03/14 08:49:07.003   22.331785787  114.180818943    19.4912   5  11   2.9378   3.2429   9.2799   0.9894   1.6544  -3.5110   0.00    0.0
2020/03/14 08:49:08.003   22.331738836  114.180848279    39.9912   5  13   2.8928   2.6865   7.8777   0.8477  -2.0195  -3.3631   0.00    0.0
2020/03/14 08:49:09.003   22.331729778  114.180842848    26.2689   5  12   2.9125   2.8601   9.1651   0.6224   0.7211  -3.5906   0.00    0.0
2020/03/14 08:49:10.003   22.331680447  114.180833390    28.8089   5  12   2.9316   2.9176   7.8783   1.1216  -2.0498  -3.3712   0.00    0.0
2020/03/14 08:49:11.003   22.331666532  114.180805963    30.6884   5  13   2.8931   2.6863   7.8775   0.8478  -2.0191  -3.3637   0.00    0.0
2020/03/14 08:49:12.003   22.331606941  114.180846190    36.0931   5  13   2.8797   2.6005   7.5518   1.0860  -2.4095  -2.9629   0.00    0.0
2020/03/14 08:49:13.003   22.331565750  114.180834450    37.1703   5  12   2.8800   2.6960   8.4852   1.0986  -1.7469  -2.9379   0.00    0.0
2020/03/14 08:49:14.003   22.331494242  114.180765544    71.8715   5  13   2.8799   2.6003   7.5517   1.0861  -2.4093  -2.9632   0.00    0.0
2020/03/14 08:49:15.003   22.331480439  114.180875485    47.0962   5  10   3.0862   3.6733  16.9869   1.5598  -3.6398  -4.9688   0.00    0.0
2020/03/14 08:49:16.003   22.331433216  114.180826679    20.5445   5  11   2.9390   3.2436   9.2777   0.9889   1.6585  -3.5130   0.00    0.0
2020/03/14 08:49:17.003   22.331391606  114.180814087    21.7076   5  12   2.9136   2.8603   9.1629   0.6217   0.7271  -3.5923   0.00    0.0
2020/03/14 08:49:18.003   22.331340297  114.180850721    34.2496   5  13   2.8941   2.6860   7.8769   0.8480  -2.0182  -3.3649   0.00    0.0
2020/03/14 08:49:19.003   22.331313322  114.180805814    26.3736   5  13   2.8942   2.6859   7.8768   0.8480  -2.0180  -3.3651   0.00    0.0
2020/03/14 08:49:20.003   22.331259153  114.180817942    24.9192   5  13   2.8943   2.6859   7.8767   0.8481  -2.0179  -3.3653   0.00    0.0
2020/03/14 08:49:21.003   22.331230677  114.180820637    27.4220   5  14   2.8525   2.5866   7.1760   1.0365  -2.5339  -3.1196   0.00    0.0
2020/03/14 08:49:22.003   22.331180425  114.180819462    25.7977   5  14   2.8526   2.5866   7.1758   1.0366  -2.5338  -3.1198   0.00    0.0
2020/03/14 08:49:23.003   22.331124549  114.180813520    33.8600   5  13   2.9591   3.6047   9.2243   1.7460  -4.5796  -3.7802   0.00    0.0
2020/03/14 08:49:24.003   22.331095369  114.180815198    31.8935   5  13   2.9592   3.6047   9.2241   1.7461  -4.5795  -3.7805   0.00    0.0
2020/03/14 08:49:25.003   22.331046108  114.180805219    38.3695   5  13   2.9594   3.6046   9.2240   1.7462  -4.5794  -3.7807   0.00    0.0
2020/03/14 08:49:26.003   22.331020737  114.180821086    30.6908   5  13   2.8951   2.6856   7.8762   0.8483  -2.0171  -3.3664   0.00    0.0
2020/03/14 08:49:27.003   22.331001938  114.180886786    30.9008   5  12   2.9150   2.8606   9.1600   0.6208   0.7345  -3.5945   0.00    0.0
2020/03/14 08:49:28.003   22.330953202  114.180767083    24.2104   5  10   3.6966   3.9805  10.4333   2.2012  -4.8370  -4.6945   0.00    0.0
2020/03/14 08:49:29.003   22.330880142  114.180819252    43.1886   5  12   2.9673   3.6127   9.9302   1.7319  -4.4788  -3.8813   0.00    0.0
2020/03/14 08:49:30.003   22.330879824  114.180798966    24.7115   5  11   3.0626   3.6648  11.7238   1.5917  -4.0275  -4.4484   0.00    0.0
2020/03/14 08:49:31.003   22.330822921  114.180778021    26.4992   5  11   3.0628   3.6647  11.7232   1.5917  -4.0272  -4.4486   0.00    0.0
2020/03/14 08:49:32.003   22.330808267  114.180864050    36.8376   5  13   2.8959   2.6853   7.8756   0.8485  -2.0163  -3.3674   0.00    0.0
2020/03/14 08:49:33.003   22.330763449  114.180795209    19.3457   5  11   2.9413   3.2447   9.2735   0.9879   1.6662  -3.5167   0.00    0.0
2020/03/14 08:49:34.003   22.330718140  114.180801155    23.0342   5  12   2.9347   2.9163   7.8762   1.1223  -2.0459  -3.3753   0.00    0.0
2020/03/14 08:49:35.003   22.330678721  114.180791620    28.4295   5  12   2.9162   2.8608   9.1578   0.6201   0.7404  -3.5962   0.00    0.0
2020/03/14 08:49:36.003   22.330633703  114.180787687    28.2647   5  12   2.9163   2.8608   9.1575   0.6200   0.7412  -3.5964   0.00    0.0
2020/03/14 08:49:37.003   22.330598784  114.180797615    30.8125   5  12   2.9165   2.8608   9.1572   0.6199   0.7419  -3.5966   0.00    0.0
2020/03/14 08:49:38.003   22.330562254  114.180802903    32.9965   5  11   3.0640   3.6646  11.7191   1.5920  -4.0246  -4.4502   0.00    0.0
2020/03/14 08:49:39.003   22.330517264  114.180784203    15.5641   5  10   3.1108   4.1309  11.7233   1.8862  -3.9437  -4.4300   0.00    0.0
2020/03/14 08:49:40.003   22.330475903  114.180800022    15.8792   5  10   3.1110   4.1310  11.7227   1.8863  -3.9433  -4.4302   0.00    0.0
2020/03/14 08:49:41.003   22.330422211  114.180786963    37.3026   5  12   3.0192   3.6302  10.0261   1.6726  -4.3844  -4.0774   0.00    0.0
2020/03/14 08:49:42.003   22.330397028  114.180774270    34.4635   5  12   3.0194   3.6301  10.0260   1.6727  -4.3843  -4.0777   0.00    0.0
2020/03/14 08:49:43.003   22.330376505  114.180786954    33.1993   5  12   3.0195   3.6301  10.0259   1.6728  -4.3842  -4.0779   0.00    0.0
2020/03/14 08:49:44.003   22.330348761  114.180802140    28.2930   5  12   3.0197   3.6300  10.0258   1.6729  -4.3840  -4.0782   0.00    0.0
2020/03/14 08:49:45.003   22.330332860  114.180792459    26.4385   5  12   3.0199   3.6299  10.0257   1.6730  -4.3839  -4.0785   0.00    0.0
2020/03/14 08:49:46.003   22.330339845  114.180775196    24.3018   5  12   3.0200   3.6298  10.0256   1.6731  -4.3838  -4.0787   0.00    0.0
2020/03/14 08:49:47.003   22.330347542  114.180759825    28.2903   5  12   3.0202   3.6298  10.0255   1.6732  -4.3837  -4.0790   0.00    0.0
2020/03/14 08:49:48.003   22.330332319  114.180749558    27.1629   5  12   3.0204   3.6297  10.0254   1.6733  -4.3836  -4.0792   0.00    0.0
2020/03/14 08:49:49.003   22.330327651  114.180737502    29.2464   5  13   2.8981   2.6845   7.8741   0.8491  -2.0140  -3.3705   0.00    0.0
2020/03/14 08:49:50.003   22.330315515  114.180741411    31.4008   5  13   2.8982   2.6845   7.8740   0.8491  -2.0139  -3.3707   0.00    0.0
2020/03/14 08:49:51.003   22.330325674  114.180742621    28.8356   5  13   2.8984   2.6844   7.8740   0.8491  -2.0137  -3.3708   0.00    0.0
2020/03/14 08:49:52.003   22.330314644  114.180745587    27.2791   5  13   2.8985   2.6844   7.8739   0.8492  -2.0136  -3.3710   0.00    0.0
2020/03/14 08:49:53.003   22.330294830  114.180749340    28.0396   5  13   2.8986   2.6843   7.8738   0.8492  -2.0134  -3.3712   0.00    0.0
2020/03/14 08:49:54.003   22.330293157  114.180733007    28.1231   5  13   2.8988   2.6843   7.8737   0.8492  -2.0133  -3.3714   0.00    0.0
2020/03/14 08:49:55.003   22.330287359  114.180720814    27.3687   5  13   2.8989   2.6842   7.8736   0.8493  -2.0132  -3.3716   0.00    0.0
2020/03/14 08:49:56.003   22.330277862  114.180702592    30.9323   5  13   2.8990   2.6842   7.8735   0.8493  -2.0130  -3.3717   0.00    0.0
2020/03/14 08:49:57.003   22.330287010  114.180694563    36.1158   5  13   2.8992   2.6841   7.8734   0.8493  -2.0129  -3.3719   0.00    0.0
2020/03/14 08:49:58.003   22.330282696  114.180662173    28.0146   5  13   2.8993   2.6841   7.8733   0.8494  -2.0127  -3.3721   0.00    0.0
2020/03/14 08:49:59.003   22.330270274  114.180643114    27.3058   5  13   2.8994   2.6840   7.8732   0.8494  -2.0126  -3.3723   0.00    0.0
2020/03/14 08:50:00.003   22.330274946  114.180622935    32.9011   5  13   2.8996   2.6840   7.8731   0.8494  -2.0125  -3.3725   0.00    0.0
2020/03/14 08:50:01.003   22.330288589  114.180591211    31.8790   5  13   2.8997   2.6839   7.8730   0.8495  -2.0123  -3.3726   0.00    0.0
2020/03/14 08:50:02.003   22.330295936  114.180567587    34.0272   5  13   2.8998   2.6839   7.8729   0.8495  -2.0122  -3.3728   0.00    0.0
2020/03/14 08:50:03.003   22.330286333  114.180537680    37.5463   5  13   2.9000   2.6838   7.8728   0.8495  -2.0120  -3.3730   0.00    0.0
2020/03/14 08:50:04.003   22.330299449  114.180487763    32.1634   5  13   2.9001   2.6838   7.8728   0.8496  -2.0119  -3.3732   0.00    0.0
2020/03/14 08:50:05.003   22.330286684  114.180445768    32.7749   5  13   2.9002   2.6837   7.8727   0.8496  -2.0117  -3.3734   0.00    0.0
2020/03/14 08:50:06.003   22.330287909  114.180411643    38.3973   5  13   2.9004   2.6837   7.8726   0.8496  -2.0116  -3.3736   0.00    0.0
2020/03/14 08:50:07.003   22.330301510  114.180367632    40.2642   5  13   2.9005   2.6836   7.8725   0.8496  -2.0114  -3.3737   0.00    0.0
2020/03/14 08:50:08.003   22.330312534  114.180316973    40.8858   5  13   2.9006   2.6836   7.8724   0.8497  -2.0113  -3.3739   0.00    0.0
2020/03/14 08:50:09.003   22.330314113  114.180255120    38.7572   5  14   2.8583   2.5842   7.1698   1.0391  -2.5291  -3.1268   0.00    0.0
2020/03/14 08:50:10.003   22.330321960  114.180194907    39.3941   5  14   2.8584   2.5841   7.1697   1.0392  -2.5290  -3.1269   0.00    0.0
2020/03/14 08:50:11.003   22.330316535  114.180140889    41.1546   5  14   2.8585   2.5841   7.1695   1.0392  -2.5289  -3.1271   0.00    0.0
2020/03/14 08:50:12.003   22.330359121  114.180071439    26.1126   5  14   2.8586   2.5840   7.1694   1.0393  -2.5288  -3.1272   0.00    0.0
2020/03/14 08:50:13.003   22.330323875  114.180052994    44.3923   5  13   2.9013   2.6833   7.8719   0.8498  -2.0105  -3.3748   0.00    0.0
2020/03/14 08:50:14.003   22.330324673  114.180010274    41.6224   5  13   2.9014   2.6833   7.8718   0.8498  -2.0104  -3.3750   0.00    0.0
2020/03/14 08:50:15.003   22.330294342  114.179954657    36.0155   5  13   2.9016   2.6832   7.8717   0.8499  -2.0102  -3.3752   0.00    0.0
2020/03/14 08:50:16.003   22.330305644  114.179903936    36.0287   5  13   2.9017   2.6832   7.8716   0.8499  -2.0101  -3.3754   0.00    0.0
2020/03/14 08:50:17.003   22.330313004  114.179857510    39.6983   5  13   2.9018   2.6832   7.8715   0.8499  -2.0099  -3.3755   0.00    0.0
2020/03/14 08:50:18.003   22.330339853  114.179804784    40.4458   5  12   2.9126   2.7344   8.6753   0.9238  -1.4547  -3.2388   0.00    0.0
2020/03/14 08:50:19.003   22.330348339  114.179761960    45.7208   5  12   2.9127   2.7344   8.6754   0.9238  -1.4544  -3.2390   0.00    0.0
2020/03/14 08:50:20.003   22.330359903  114.179714927    51.9183   5  12   2.9128   2.7343   8.6755   0.9238  -1.4542  -3.2392   0.00    0.0
2020/03/14 08:50:21.003   22.330335120  114.179707835    62.4955   5  11   2.9661   3.0362   8.7203   1.2614  -0.9752  -3.1625   0.00    0.0
2020/03/14 08:50:22.003   22.330316058  114.179657053    63.9034   5  11   2.9662   3.0361   8.7204   1.2613  -0.9747  -3.1627   0.00    0.0
2020/03/14 08:50:23.003   22.330347950  114.179639656    65.8418   5  11   2.9663   3.0360   8.7205   1.2613  -0.9742  -3.1630   0.00    0.0
2020/03/14 08:50:24.003   22.330352598  114.179607679    63.1743   5  11   2.9664   3.0360   8.7207   1.2613  -0.9737  -3.1632   0.00    0.0
2020/03/14 08:50:25.003   22.330385275  114.179580802    57.7260   5  11   2.9665   3.0359   8.7208   1.2613  -0.9731  -3.1634   0.00    0.0
2020/03/14 08:50:26.003   22.330422340  114.179507894    25.0059   5  12   2.8880   2.6952   8.4729   1.0990  -1.7295  -2.9540   0.00    0.0
2020/03/14 08:50:27.003   22.330453404  114.179517552    33.8196   5  13   2.8879   2.5962   7.5505   1.0884  -2.4025  -2.9749   0.00    0.0
2020/03/14 08:50:28.003   22.330496558  114.179494887    19.9584   5  12   2.9778   3.6116   9.9370   1.7339  -4.6895  -3.6795   0.00    0.0
2020/03/14 08:50:29.003   22.330520546  114.179508620    20.0143   5  12   2.9779   3.6116   9.9371   1.7340  -4.6895  -3.6798   0.00    0.0
2020/03/14 08:50:30.003   22.330541734  114.179505609    17.4477   5  11   3.0275   3.6291  11.4546   1.6771  -4.4673  -4.0801   0.00    0.0
2020/03/14 08:50:31.003   22.330549714  114.179503435    19.3974   5  11   3.0276   3.6290  11.4550   1.6772  -4.4673  -4.0805   0.00    0.0
2020/03/14 08:50:32.003   22.330559155  114.179526064    21.5034   5  11   3.0278   3.6290  11.4554   1.6774  -4.4674  -4.0809   0.00    0.0
2020/03/14 08:50:33.003   22.330565530  114.179533104    20.0082   5  11   3.0280   3.6289  11.4558   1.6775  -4.4674  -4.0812   0.00    0.0
2020/03/14 08:50:34.003   22.330573690  114.179509725    16.1654   5  11   3.0281   3.6288  11.4562   1.6776  -4.4674  -4.0816   0.00    0.0
2020/03/14 08:50:35.003   22.330575603  114.179537632     5.0260   5  10   3.0283   4.5888  12.3897   1.6802  -5.7625  -4.0838   0.00    0.0
2020/03/14 08:50:36.003   22.330573135  114.179534751    12.3679   5  10   3.0285   4.5887  12.3902   1.6804  -5.7626  -4.0842   0.00    0.0
2020/03/14 08:50:37.003   22.330574297  114.179534584    12.8410   5  10   3.0286   4.5887  12.3907   1.6806  -5.7628  -4.0847   0.00    0.0
2020/03/14 08:50:38.003   22.330572204  114.179532020    14.7469   5  10   3.0288   4.5886  12.3912   1.6808  -5.7629  -4.0851   0.00    0.0
2020/03/14 08:50:39.003   22.330569341  114.179529314    19.1537   5  10   3.0290   4.5885  12.3918   1.6810  -5.7630  -4.0856   0.00    0.0
2020/03/14 08:50:40.003   22.330565603  114.179527882    22.9809   5  10   3.0291   4.5885  12.3923   1.6812  -5.7631  -4.0860   0.00    0.0
2020/03/14 08:50:41.003   22.330566586  114.179525913    21.2246   5  10   3.0293   4.5884  12.3928   1.6814  -5.7632  -4.0865   0.00    0.0
2020/03/14 08:50:42.003   22.330568440  114.179525128    21.9022   5  10   3.0295   4.5884  12.3933   1.6816  -5.7633  -4.0869   0.00    0.0
2020/03/14 08:50:43.003   22.330567461  114.179528459    22.7916   5  10   3.0296   4.5883  12.3938   1.6819  -5.7635  -4.0874   0.00    0.0
2020/03/14 08:50:44.003   22.330568523  114.179529884    23.5499   5  10   3.0298   4.5883  12.3943   1.6821  -5.7636  -4.0878   0.00    0.0
2020/03/14 08:50:45.003   22.330567320  114.179532404    24.5529   5  10   3.0299   4.5882  12.3948   1.6823  -5.7637  -4.0883   0.00    0.0
2020/03/14 08:50:46.003   22.330547362  114.179442182    46.3567   5  11   2.9466   2.9707   8.6799   0.5998  -1.5100  -3.2349   0.00    0.0
2020/03/14 08:50:47.003   22.330557047  114.179485139    31.7636   5  11   2.9467   2.9707   8.6801   0.5998  -1.5098  -3.2351   0.00    0.0
2020/03/14 08:50:48.003   22.330565294  114.179536618    22.2135   5  10   3.0304   4.5881  12.3964   1.6829  -5.7640  -4.0896   0.00    0.0
2020/03/14 08:50:49.003   22.330565110  114.179535445    20.9652   5  10   3.0306   4.5880  12.3969   1.6831  -5.7641  -4.0901   0.00    0.0
2020/03/14 08:50:50.003   22.330564065  114.179535728    20.4480   5  10   3.0308   4.5880  12.3974   1.6833  -5.7642  -4.0905   0.00    0.0
2020/03/14 08:50:51.003   22.330565330  114.179537657    19.9723   5  10   3.0309   4.5879  12.3979   1.6835  -5.7644  -4.0910   0.00    0.0
2020/03/14 08:50:52.003   22.330566753  114.179536320    17.0446   5  10   3.0311   4.5879  12.3984   1.6837  -5.7645  -4.0914   0.00    0.0
2020/03/14 08:50:53.003   22.330566865  114.179535994    14.8331   5  10   3.0313   4.5878  12.3989   1.6838  -5.7646  -4.0918   0.00    0.0
2020/03/14 08:50:54.003   22.330548696  114.179443351    41.1284   5  11   2.9475   2.9702   8.6809   0.5997  -1.5082  -3.2367   0.00    0.0
2020/03/14 08:50:55.003   22.330533651  114.179380688    59.3141   5  11   2.9476   2.9702   8.6810   0.5997  -1.5080  -3.2369   0.00    0.0
2020/03/14 08:50:56.003   22.330562822  114.179534662    19.2221   5  10   3.0317   4.5877  12.4005   1.6844  -5.7649  -4.0932   0.00    0.0
2020/03/14 08:50:57.003   22.330562830  114.179531616    22.3791   5  10   3.0319   4.5876  12.4010   1.6846  -5.7650  -4.0936   0.00    0.0
2020/03/14 08:50:58.003   22.330562156  114.179529406    26.0204   5  10   3.0321   4.5876  12.4015   1.6848  -5.7651  -4.0941   0.00    0.0
2020/03/14 08:50:59.003   22.330560203  114.179529202    29.9666   5  10   3.0322   4.5875  12.4020   1.6850  -5.7652  -4.0945   0.00    0.0
2020/03/14 08:51:00.003   22.330561067  114.179526089    31.4852   5  10   3.0324   4.5875  12.4025   1.6852  -5.7653  -4.0949   0.00    0.0
2020/03/14 08:51:01.003   22.330561125  114.179524958    29.1868   5  10   3.0326   4.5874  12.4030   1.6854  -5.7655  -4.0954   0.00    0.0
2020/03/14 08:51:02.003   22.330562507  114.179520934    27.4419   5  10   3.0327   4.5873  12.4035   1.6856  -5.7656  -4.0958   0.00    0.0
2020/03/14 08:51:03.003   22.330562679  114.179520221    24.1862   5  10   3.0329   4.5873  12.4040   1.6858  -5.7657  -4.0963   0.00    0.0
2020/03/14 08:51:04.003   22.330565234  114.179515587    22.0002   5  10   3.0331   4.5872  12.4045   1.6860  -5.7658  -4.0967   0.00    0.0
2020/03/14 08:51:05.003   22.330564178  114.179514750    22.7181   5  10   3.0332   4.5872  12.4050   1.6862  -5.7659  -4.0972   0.00    0.0
2020/03/14 08:51:06.003   22.330563413  114.179511873    20.5372   5  10   3.0334   4.5871  12.4055   1.6864  -5.7660  -4.0976   0.00    0.0
2020/03/14 08:51:07.003   22.330567378  114.179511769    17.2836   5   9   3.1132   4.5886  18.3407   1.6616  -5.6242  -5.1230   0.00    0.0
2020/03/14 08:51:08.003   22.330567565  114.179511597    17.8466   5   9   3.1134   4.5886  18.3407   1.6617  -5.6237  -5.1237   0.00    0.0
2020/03/14 08:51:09.003   22.330568160  114.179509395    18.9128   5   9   3.1136   4.5886  18.3406   1.6618  -5.6231  -5.1243   0.00    0.0
2020/03/14 08:51:10.003   22.330569091  114.179508779    19.1142   5   9   3.1138   4.5885  18.3405   1.6618  -5.6226  -5.1250   0.00    0.0
2020/03/14 08:51:11.003   22.330569741  114.179507202    20.1658   5   9   3.1141   4.5885  18.3404   1.6619  -5.6220  -5.1257   0.00    0.0
2020/03/14 08:51:12.003   22.330570040  114.179505677    20.2833   5   9   3.1143   4.5884  18.3403   1.6620  -5.6215  -5.1264   0.00    0.0
2020/03/14 08:51:13.003   22.330566575  114.179500264    21.6998   5   9   3.1145   4.5884  18.3402   1.6620  -5.6209  -5.1271   0.00    0.0
2020/03/14 08:51:14.003   22.330568792  114.179500823    20.4344   5   9   3.1147   4.5884  18.3401   1.6621  -5.6204  -5.1277   0.00    0.0
2020/03/14 08:51:15.003   22.330571275  114.179500231    14.9224   5  10   3.0348   4.5866  12.4099   1.6882  -5.7669  -4.1016   0.00    0.0
2020/03/14 08:51:16.003   22.330564103  114.179502269    25.7617   5  10   3.0350   4.5866  12.4104   1.6884  -5.7670  -4.1020   0.00    0.0
2020/03/14 08:51:17.003   22.330561959  114.179502645    30.1200   5  10   3.0352   4.5865  12.4109   1.6886  -5.7671  -4.1024   0.00    0.0
2020/03/14 08:51:18.003   22.330558029  114.179497300    38.5004   5  11   2.9504   2.9688   8.6835   0.5994  -1.5030  -3.2420   0.00    0.0
2020/03/14 08:51:19.003   22.330558277  114.179536143    35.9237   5  11   2.9505   2.9688   8.6836   0.5994  -1.5027  -3.2422   0.00    0.0
2020/03/14 08:51:20.003   22.330548200  114.179511025    54.4839   5  10   3.0357   4.5864  12.4123   1.6891  -5.7674  -4.1037   0.00    0.0
2020/03/14 08:51:21.003   22.330543824  114.179514218    63.2925   5  10   3.0358   4.5863  12.4128   1.6893  -5.7675  -4.1042   0.00    0.0
2020/03/14 08:51:22.003   22.330540672  114.179514701    68.3021   5  10   3.0360   4.5862  12.4133   1.6895  -5.7676  -4.1046   0.00    0.0
2020/03/14 08:51:23.003   22.330538774  114.179515846    71.0707   5  10   3.0361   4.5862  12.4138   1.6897  -5.7677  -4.1050   0.00    0.0
2020/03/14 08:51:24.003   22.330537641  114.179515514    70.8359   5  11   2.9511   2.9685   8.6841   0.5993  -1.5016  -3.2433   0.00    0.0
2020/03/14 08:51:25.003   22.330539912  114.179525568    63.2105   5  12   2.9204   2.8131   7.5658   0.8730  -2.5088  -2.9509   0.00    0.0
2020/03/14 08:51:26.003   22.330538976  114.179546950    62.9324   5  12   2.9205   2.8130   7.5657   0.8730  -2.5087  -2.9510   0.00    0.0
2020/03/14 08:51:27.003   22.330536707  114.179568313    63.9519   5  12   2.9207   2.8130   7.5657   0.8731  -2.5086  -2.9512   0.00    0.0
