     3.03           OBSERVATION DATA    M: Mixed            RINEX VERSION / TYPE
RTKCONV demo5 b33c                      20200407 083802 UTC PGM / RUN BY / DATE 
log: E:\sparse and urban jiulongtang midundao Huawei VINS   COMMENT             
format: u-blox                                              COMMENT             
                                                            MARKER NAME         
                                                            MARKER NUMBER       
                                                            MARKER TYPE         
                                                            OBSERVER / AGENCY   
                                                            REC # / TYPE / VERS 
                                                            ANT # / TYPE        
 -2417718.4308  5384801.4839  2408300.5357                  APPROX POSITION XYZ 
        0.0000        0.0000        0.0000                  ANTENNA: DELTA H/E/N
G    4 C1C L1C D1C S1C                                      SYS / # / OBS TYPES 
C    4 C2I L2I D2I S2I                                      SYS / # / OBS TYPES 
  2020     3    14     8    44   32.0030000     GPS         TIME OF FIRST OBS   
  2020     3    14     9    28   38.9930000     GPS         TIME OF LAST OBS    
G                                                           SYS / PHASE SHIFT   
C                                                           SYS / PHASE SHIFT   
  0                                                         GLONASS SLOT / FRQ #
 C1C    0.000 C1P    0.000 C2C    0.000 C2P    0.000        GLONASS COD/PHS/BIS 
                                                            END OF HEADER       
> 2020  3 14  8 44 32.0030000  0 18                     
G 1  21235337.734 1 111592451.48211      1094.732          42.000  
G 7  21356332.413 1 112228271.35211       830.201          44.000  
G11  21470291.933 1 112827152.40711     -1457.965          43.000  
G30  23124182.004 1 121518347.41211      2512.021          45.000  
C 3  37166003.598 1 193533107.54511       -57.676          41.000  
C12  22718767.130 1 118302563.34611       -17.128          43.000  
C24  23166981.731 1 120636523.26611      1344.531          47.000  
G 8  23363952.323 2 122778339.474 1     -2383.611          36.000  
C 7  36991781.880 1 192625882.958 1       443.241          41.000  
C26  22844356.905 4 118956574.07312     -1428.950          33.000  
C10  37974887.082 1 197745182.106 1       469.850          41.000  
C 8  37412284.279 1 194815558.85811       875.271          38.000  
C 2  38025151.876 1 198006915.112 1       -72.594          40.000  
C13  38413564.301 1 200029511.30011      1144.006          42.000  
C25  27120820.865 4 141225209.759 2      2939.922          32.000  
C 5  40137607.738 2 209007021.297 1       -66.839          37.000  
C 6  40423312.684 4 210494785.64013     -1447.180          27.000  
G17  24995924.327 4 131354466.72122      1758.386          35.000  
> 2020  3 14  8 44 33.0030000  0 18                     
G 1  21235129.692 1 111591357.512 1      1093.477          42.000  
G 7  21356174.908 1 112227441.666 1       829.172          45.000  
G11  21470569.426 1 112828610.736 1     -1458.619          43.000  
G30  23123704.147 1 121515835.757 1      2511.181          45.000  
C 3  37166014.905 1 193533165.429 1       -57.906          41.000  
C12  22718770.655 1 118302580.719 1       -17.727          43.000  
C24  23166723.642 1 120635179.133 1      1343.977          47.000  
G 8  23364406.029 2 122780723.480 1     -2384.039          36.000  
C 7  36991696.758 1 192625440.246 1       442.722          41.000  
C26  22844631.327 4 118958002.885 2     -1428.392          33.000  
C10  37974797.213 1 197744712.293 1       469.500          41.000  
C 8  37412116.408 1 194814683.822 1       875.287          39.000  
C 2  38025166.150 1 198006987.945 1       -72.692          40.000  
C13  38413344.498 1 200028367.376 1      1144.000          41.000  
C25  27120255.932 4 141222269.277 2      2940.546          31.000  
C 5  40137620.686 1 209007088.502 1       -67.442          37.000  
C 6  40423589.828 4 210496233.135 3     -1447.805          27.000  
G17  24995589.876 2 131352708.78421      1757.713          36.000  
> 2020  3 14  8 44 34.0030000  0 18                     
G 1  21234921.616 1 111590264.208 1      1092.889          42.000  
G 7  21356017.402 1 112226612.624 1       828.569          45.000  
G11  21470847.164 1 112830069.572 1     -1459.168          43.000  
G30  23123226.255 1 121513324.501 1      2510.936          45.000  
C 3  37166026.353 1 193533223.353 1       -58.248          41.000  
C12  22718773.970 1 118302598.482 1       -18.229          43.000  
C24  23166465.903 1 120633835.383 1      1343.402          47.000  
G 8  23364859.979 2 122783107.488 1     -2384.078          36.000  
C 7  36991611.671 1 192624997.513 1       442.662          41.000  
C26  22844905.959 2 118959432.228 1     -1429.668          34.000  
C10  37974706.926 1 197744242.437 1       469.691          41.000  
C 8  37411948.467 1 194813808.963 1       874.875          39.000  
C 2  38025180.005 1 198007060.799 1       -73.031          40.000  
C13  38413124.695 1 200027223.627 1      1143.654          42.000  
C25  27119691.138 4 141219328.841 2      2940.890          32.000  
C 5  40137633.355 2 209007155.729 1       -67.463          37.000  
C 6  40423866.728 4 210497680.478 3     -1447.652          27.000  
G17  24995255.356 2 131350951.17121      1756.669          35.000  
> 2020  3 14  8 44 35.0030000  0 19                     
G 1  21234713.714 1 111589171.562 1      1092.061          42.000  
G 7  21355860.106 1 112225784.205 1       827.835          45.000  
G11  21471124.762 1 112831528.866 1     -1460.040          43.000  
G30  23122748.154 1 121510813.650 1      2510.271          45.000  
C 3  37166037.067 1 193533281.239 1       -58.331          41.000  
C12  22718777.356 1 118302616.614 1       -18.634          43.000  
C24  23166207.814 1 120632491.991 1      1342.825          47.000  
G 8  23365313.370 2 122785491.508 1     -2384.594          36.000  
C 7  36991526.653 1 192624554.762 1       442.488          41.000  
C26  22845180.695 2 118960861.952 1     -1430.264          34.000  
C10  37974616.638 1 197743772.517 1       469.745          41.000  
C 8  37411780.387 1 194812934.261 1       874.369          39.000  
C 2  38025194.070 1 198007133.632 1       -73.397          40.000  
C13  38412905.102 1 200026079.955 1      1143.459          41.000  
C25  27119127.776 4 141216388.447 2      2939.932          31.000  
C 1  37712074.692 9               9       -54.781          30.000  
C 5  40137646.372 2 209007222.932 1       -67.748          37.000  
C 6  40424144.361 4 210499127.770 3     -1447.571          27.000  
G17  24994921.114 2 131349193.75721      1756.793          35.000  
> 2020  3 14  8 44 36.0030000  0 19                     
G 1  21234506.161 1 111588079.735 1      1091.398          42.000  
G 7  21355702.740 1 112224956.563 1       827.306          45.000  
G11  21471402.639 1 112832988.774 1     -1460.101          43.000  
G30  23122270.123 1 121508303.343 1      2509.705          45.000  
C 3  37166048.200 1 193533339.270 1       -58.054          41.000  
C12  22718781.369 1 118302635.255 1       -19.118          43.000  
C24  23165949.760 1 120631149.111 1      1342.534          47.000  
G 8  23365766.866 2 122787875.618 1     -2384.134          35.000  
C 7  36991441.636 1 192624112.098 1       442.266          41.000  
C26  22845455.327 2 118962292.273 1     -1430.639          34.000  
C10  37974526.490 1 197743302.697 1       469.524          41.000  
C 8  37411612.271 1 194812059.861 1       874.213          39.000  
C 2  38025208.240 1 198007206.591 1       -73.248          40.000  
C13  38412685.648 1 200024936.545 1      1143.381          41.000  
C25  27118565.879 8 141213448.201 3      2939.777          31.000  
C 1  37712089.874 9               9       -87.305          30.000  
C 5  40137659.181 2 209007290.250 1       -67.032          37.000  
C 6  40424421.610 4 210500575.090 3     -1447.933          27.000  
G17  24994586.454 2 131347436.79521      1756.489          35.000  
> 2020  3 14  8 44 37.0030000  0 19                     
G 1  21234298.783 1 111586988.698 1      1090.589          42.000  
G 7  21355545.478 1 112224129.655 1       826.610          45.000  
G11  21471680.656 1 112834449.281 1     -1460.817          43.000  
G30  23121792.406 1 121505793.514 1      2509.750          44.000  
C 3  37166059.648 1 193533397.413 1       -58.283          41.000  
C12  22718784.894 1 118302654.372 1       -19.343          43.000  
C24  23165692.125 1 120629806.684 1      1342.232          47.000  
G 8  23366220.607 2 122790259.839 1     -2384.043          35.000  
C 7  36991356.548 1 192623669.510 1       442.359          41.000  
C26  22845730.133 2 118963723.133 1     -1431.632          34.000  
C10  37974435.994 1 197742832.896 1       469.819          41.000  
C 8  37411444.330 1 194811185.742 1       874.133          39.000  
C 2  38025222.305 1 198007279.659 1       -73.116          40.000  
C13  38412466.089 1 200023793.344 1      1143.325          41.000  
C25  27117999.270 8 141210508.047 3      2939.981          31.000  
C 1  37712102.578 9 196376782.81135       -72.329          30.000  
C 5  40137671.989 1 209007357.699 1       -67.553          37.000  
C 6  40424698.476 4 210502022.332 3     -1446.758          27.000  
G17  24994252.387 2 131345679.66411      1756.946          35.000  
> 2020  3 14  8 44 38.0030000  0 19                     
G 1  21234091.265 1 111585897.768 1      1090.839          42.000  
G 7  21355388.252 1 112223302.827 1       826.853          45.000  
G11  21471958.463 1 112835909.704 1     -1460.373          43.000  
G30  23121314.235 1 121503283.549 1      2510.115          44.000  
C 3  37166070.641 1 193533454.985 1       -57.376          41.000  
C12  22718788.559 1 118302673.313 1       -18.844          43.000  
C24  23165434.350 1 120628464.092 1      1342.689          47.000  
G 8  23366674.243 2 122792643.511 1     -2383.176          35.000  
C 7  36991271.636 1 192623226.375 1       443.437          41.000  
C26  22846004.939 2 118965153.855 1     -1431.125          34.000  
C10  37974345.636 1 197742362.500 1       470.626          41.000  
C 8  37411276.320 1 194810311.233 1       874.850          39.000  
C 2  38025236.265 1 198007352.176 1       -72.247          40.000  
C13  38412246.286 1 200022649.722 1      1143.927          41.000  
C25  27117432.592 8 141207567.314 3      2941.114          31.000  
C 1  37712115.630 9               9       -71.680          30.000  
C 5  40137684.833 2 209007424.560 1       -66.273          37.000  
C 6  40424976.737 4 210503469.034 3     -1446.359          27.000  
G17  24993918.111 2 131343922.794 1      1757.140          35.000  
> 2020  3 14  8 44 39.0030000  0 20                     
G 1  21233883.782 1 111584807.566 1      1089.528          42.000  
G 7  21355231.060 1 112222476.701 1       825.351          45.000  
G11  21472236.550 1 112837370.676 1     -1461.586          43.000  
G30  23120836.204 1 121500774.051 1      2508.658          44.000  
C 3  37166081.356 1 193533512.631 1       -58.220          41.000  
C12  22718792.049 1 118302692.711 1       -20.066          43.000  
C24  23165176.820 1 120627121.936 1      1341.502          47.000  
G 8  23367127.669 2 122795027.192 1     -2383.676          35.000  
C 7  36991186.339 1 192622783.265 1       442.591          41.000  
C26  22846279.640 4 118966585.060 2     -1431.745          34.000  
C10  37974255.349 1 197741892.083 1       469.675          41.000  
C 8  37411108.588 1 194809436.972 1       873.722          39.000  
C 4  39240341.309 9               9       -74.951          28.000  
C 2  38025250.295 1 198007424.740 1       -73.270          40.000  
C13  38412026.972 1 200021506.260 1      1143.157          41.000  
C25  27116865.285 8 141204626.699 3      2940.374          30.000  
C 1  37712127.113 9               9       -68.066          29.000  
C 5  40137697.711 2 209007491.501 1       -67.342          37.000  
C 6  40425256.219 4 210504915.592 3     -1446.984          27.000  
G17  24993583.834 2 131342166.259 1      1755.727          35.000  
> 2020  3 14  8 44 40.0030000  0 21                     
G 1  21233676.717 1 111583718.798 1      1088.195          43.000  
G 7  21355074.183 1 112221651.954 1       824.132          45.000  
G11  21472514.951 1 112838832.884 1     -1462.863          43.000  
G30  23120358.242 1 121498265.684 1      2507.931          44.000  
C 3  37166092.873 1 193533571.022 1       -58.870          41.000  
C12  22718795.923 1 118302713.218 1       -20.974          43.000  
C24  23164919.220 1 120625780.880 1      1340.423          47.000  
G 8  23367581.340 2 122797411.670 1     -2384.795          34.000  
C 7  36991101.042 1 192622340.853 1       442.260          41.000  
C26  22846554.865 2 118968017.510 1     -1433.272          34.000  
C10  37974164.992 1 197741422.356 1       469.509          41.000  
C 8  37410940.926 1 194808563.656 1       872.736          39.000  
C11  25920310.137 1 134973825.06711      2125.252          40.000  
C 4  39240349.022 9               9       -88.623          27.000  
C 2  38025264.011 1 198007498.053 1       -73.945          40.000  
C13  38411807.239 1 200020363.691 1      1141.791          41.000  
C25  27116304.156 4 141201686.816 2      2940.020          31.000  
C 1  37712141.177 9               7       -73.110          30.000  
C 5  40137710.624 1 209007559.197 1       -68.222          37.000  
C 6  40425532.945 4 210506362.862 3     -1447.448          27.000  
G17  24993249.697 2 131340410.730 1      1754.691          35.000  
> 2020  3 14  8 44 41.0030000  0 21                     
G 1  21233469.897 1 111582631.088 1      1087.271          43.000  
G 7  21354917.515 1 112220828.217 1       823.339          45.000  
G11  21472793.596 1 112840295.940 1     -1463.411          43.000  
G30  23119880.560 1 121495758.106 1      2507.293          43.000  
C 3  37166104.111 1 193533629.754 1       -58.730          41.000  
C12  22718800.146 1 118302734.508 1       -21.713          43.000  
C24  23164661.864 1 120624440.566 1      1339.910          47.000  
G 8  23368034.767 2 122799796.477 2     -2384.876          34.000  
C 7  36991016.060 1 192621898.822 1       441.993          41.000  
C26  22846830.194 2 118969450.707 1     -1433.304          34.000  
C10  37974075.018 1 197740952.942 1       469.402          41.000  
C 8  37410773.265 1 194807690.841 1       872.478          39.000  
C11  25919902.081 1 134971700.004 1      2124.908          40.000  
C 4  39240366.612 9               9       -96.777          27.000  
C 2  38025278.355 1 198007571.702 1       -73.716          40.000  
C13  38411587.994 1 200019221.579 1      1141.900          41.000  
C25  27115737.617 8 141198747.345 2      2939.568          31.000  
C 1  37712156.778 9 196377057.26134       -74.173          30.000  
C 5  40137723.956 1 209007627.233 1       -68.248          37.000  
C 6  40425809.950 4 210507810.409 3     -1447.594          27.000  
G17  24992915.665 2 131338655.878 1      1754.184          35.000  
> 2020  3 14  8 44 42.0030000  0 21                     
G 1  21233263.287 1 111581544.251 1      1086.372          42.000  
G 7  21354760.916 1 112220005.325 1       822.607          45.000  
G11  21473071.997 1 112841759.709 1     -1464.193          43.000  
G30  23119402.843 1 121493251.145 1      2506.621          43.000  
C 3  37166115.139 1 193533688.734 1       -59.085          41.000  
C12  22718804.543 1 118302756.358 1       -22.155          43.000  
C24  23164404.543 1 120623100.839 1      1339.417          47.000  
G 8  23368488.088 4 122802181.542 2     -2386.152          33.000  
C 7  36990931.356 1 192621456.991 1       441.606          41.000  
C26  22847105.698 4 118970884.601 2     -1434.294          34.000  
C10  37973984.975 1 197740483.689 1       469.277          41.000  
C 8  37410605.847 1 194806818.420 1       872.557          39.000  
C11  25919494.060 1 134969575.443 1      2124.160          40.000  
C 4  39240383.399 9               9      -100.000          28.000  
C 2  38025292.524 1 198007645.584 1       -74.229          40.000  
C13  38411368.715 1 200018079.813 1      1141.420          41.000  
C25  27115175.476 8 141195808.140 3      2937.286          31.000  
C 1  37712171.855 8 196377130.83123       -73.359          30.000  
C 5  40137737.079 1 209007695.523 1       -68.820          37.000  
C 6  40426089.537 4 210509257.968 4     -1447.205          27.000  
G17  24992581.668 2 131336901.444 1      1754.686          35.000  
> 2020  3 14  8 44 43.0030000  0 21                     
G 1  21233056.746 1 111580458.182 1      1085.373          43.000  
G 7  21354604.562 1 112219183.142 1       821.670          45.000  
G11  21473350.537 1 112843224.012 1     -1464.742          43.000  
G30  23118925.230 1 121490744.642 1      2506.267          42.000  
C 3  37166126.691 1 193533747.766 1       -59.183          41.000  
C12  22718808.975 1 118302778.663 1       -22.729          43.000  
C24  23164147.536 1 120621761.552 1      1338.866          47.000  
G 8  23368941.445 4 122804566.610 2     -2385.522          33.000  
C 7  36990846.339 1 192621015.192 1       441.568          41.000  
C26  22847381.168 4 118972318.957 2     -1434.516          33.000  
C10  37973894.827 1 197740014.468 1       469.072          41.000  
C 8  37410438.360 1 194805946.243 1       872.123          39.000  
C11  25919086.248 1 134967451.226 1      2123.930          40.000  
C 4  39240395.579 9               9       -84.570          27.000  
C 2  38025306.694 1 198007719.520 1       -73.880          40.000  
C13  38411149.331 1 200016938.216 1      1141.265          41.000  
C25  27114613.195 8 141192868.871 3      2939.081          30.000  
C 1  37712186.269 4 196377204.49323       -74.328          30.000  
C 5  40137750.201 2 209007763.822 1       -68.649          37.000  
C 6  40426369.857 4 210510705.589 4     -1447.387          27.000  
G17  24992247.985 2 131335147.389 1      1753.428          35.000  
> 2020  3 14  8 44 44.0030000  0 21                     
G 1  21232850.205 1 111579372.790 1      1084.920          42.000  
G 7  21354448.104 1 112218361.621 1       821.222          45.000  
G11  21473629.357 1 112844688.843 1     -1465.297          43.000  
G30  23118447.443 1 121488238.584 1      2505.599          42.000  
C 3  37166138.208 1 193533806.830 1       -59.219          41.000  
C12  22718813.338 1 118302801.379 1       -22.961          43.000  
C24  23163890.425 1 120620422.671 1      1338.583          47.000  
G 8  23369394.802 4 122806951.688 2     -2384.822          32.000  
C 7  36990761.496 1 192620573.397 1       441.768          41.000  
C26  22847657.021 4 118973753.816 2     -1435.384          34.000  
C10  37973804.610 1 197739545.196 1       469.106          41.000  
C 8  37410270.873 1 194805074.275 1       871.851          39.000  
C11  25918678.297 1 134965327.325 1      2123.603          40.000  
C 4  39240408.073 9               9       -77.441          28.000  
C 2  38025320.898 1 198007793.506 1       -73.880          40.000  
C13  38410929.877 1 200015796.779 1      1141.432          41.000  
C25  27114050.041 4 141189929.705 2      2939.810          30.000  
C 1  37712200.404 8 196377278.29723       -75.744          30.000  
C 5  40137763.463 2 209007832.166 1       -68.226          37.000  
C 6  40426646.723 4 210512153.105 4     -1447.263          27.000  
G17  24991913.918 2 131333393.661 1      1753.042          35.000  
> 2020  3 14  8 44 45.0030000  0 21                     
G 1  21232643.979 1 111578288.114 1      1084.074          42.000  
G 7  21354291.855 1 112217540.762 1       820.316          45.000  
G11  21473908.106 1 112846154.156 1     -1465.806          43.000  
G30  23117969.621 1 121485732.946 1      2505.188          42.000  
C 3  37166149.342 1 193533865.929 1       -59.360          41.000  
C12  22718817.770 1 118302824.483 1       -23.329          43.000  
C24  23163633.383 1 120619084.185 1      1338.106          47.000  
G 8  23369848.019 4 122809336.801 2     -2384.757          32.000  
C 7  36990676.548 1 192620131.620 1       441.637          41.000  
C26  22847932.874 4 118975189.132 2     -1435.573          34.000  
C10  37973714.288 1 197739075.886 1       469.145          41.000  
C 8  37410103.630 1 194804202.500 1       871.328          39.000  
C11  25918270.660 1 134963203.728 1      2123.398          40.000  
C 4  39240417.252 9               9       -40.869          27.000  
C 2  38025334.719 1 198007867.507 1       -74.227          40.000  
C13  38410710.772 1 200014655.457 1      1141.272          41.000  
C25  27113485.492 8 141186990.663 3      2938.946          31.000  
C 1  37712214.433 8 196377351.91324       -73.669          30.000  
C 5  40137776.446 1 209007900.564 1       -68.748          37.000  
C 6  40426924.111 4 210513600.579 4     -1447.587          27.000  
G17  24991579.677 2 131331640.195 1      1752.851          35.000  
> 2020  3 14  8 44 46.0030000  0 21                     
G 1  21232437.612 1 111577204.218 1      1083.644          42.000  
G 7  21354135.745 1 112216720.636 1       819.835          45.000  
G11  21474186.926 1 112847620.074 1     -1466.125          43.000  
G30  23117492.183 1 121483227.805 1      2504.976          42.000  
C 3  37166160.510 1 193533925.101 1       -59.157          41.000  
C12  22718822.377 1 118302848.073 1       -23.643          43.000  
C24  23163376.272 1 120617746.171 1      1337.814          47.000  
G 8  23370300.852 4 122811722.019 2     -2385.326          32.000  
C 7  36990591.670 1 192619689.909 1       441.649          41.000  
C26  22848208.482 4 118976624.936 2     -1435.458          34.000  
C10  37973624.140 1 197738606.614 1       469.476          41.000  
C 8  37409936.143 1 194803331.000 1       871.334          39.000  
C11  25917862.988 1 134961080.509 1      2123.095          40.000  
C 4  39240433.306 9               9       -87.988          27.000  
C 2  38025349.028 1 198007941.614 1       -74.140          40.000  
C13  38410491.737 1 200013514.367 1      1140.979          41.000  
C25  27112920.489 8 141184051.642 3      2939.420          30.000  
C 1  37712228.603 8 196377425.77423       -73.771          30.000  
C 5  40137789.778 1 209007969.019 1       -68.303          37.000  
C 6  40427202.233 4 210515047.970 4     -1446.906          27.000  
G17  24991245.889 2 131329887.110 1      1752.961          34.000  
> 2020  3 14  8 44 47.0030000  0 21                     
G 1  21232231.455 1 111576120.955 1      1082.976          42.000  
G 7  21353979.880 1 112215901.128 1       819.096          45.000  
G11  21474466.025 1 112849086.437 1     -1466.726          43.000  
G30  23117014.711 1 121480723.056 1      2504.430          41.000  
C 3  37166172.167 1 193533984.263 1       -58.999          41.000  
C12  22718826.635 1 118302872.026 1       -24.222          43.000  
C24  23163119.335 1 120616408.499 1      1337.493          47.000  
G 8  23370753.615 4 122814107.219 2     -2384.737          31.000  
C 7  36990506.827 1 192619248.136 1       441.874          41.000  
C26  22848484.335 4 118978061.254 2     -1436.371          33.000  
C10  37973534.027 1 197738137.269 1       469.553          41.000  
C 8  37409768.725 1 194802459.657 1       871.133          39.000  
C11  25917455.281 1 134958957.520 1      2123.057          40.000  
C 4  39240449.046 9               9       -86.279          27.000  
C 2  38025363.337 1 198008015.682 1       -74.101          40.000  
C13  38410272.492 1 200012373.377 1      1140.870          41.000  
C25  27112355.241 8 141181112.688 3      2938.266          30.000  
C 1  37712243.157 9               9       -71.436          30.000  
C 5  40137802.901 1 209008037.460 1       -68.437          37.000  
C 6  40427478.470 4 210516495.347 4     -1447.706          27.000  
G17  24990912.171 2 131328134.286 1      1752.093          34.000  
> 2020  3 14  8 44 48.0030000  0 21                     
G 1  21232025.333 1 111575038.361 1      1082.792          42.000  
G 7  21353823.944 1 112215082.219 1       819.179          45.000  
G11  21474745.228 1 112850553.267 1     -1466.489          43.000  
G30  23116537.342 1 121478218.670 1      2504.877          41.000  
C 3  37166183.335 1 193534043.404 1       -58.587          41.000  
C12  22718831.242 1 118302896.327 1       -23.796          43.000  
C24  23162862.712 1 120615071.184 1      1337.753          47.000  
G 8  23371203.552 4 122816492.387 3     -2384.123          31.000  
C 7  36990421.880 1 192618806.362 1       442.389          41.000  
C26  22848760.189 4 118979497.963 2     -1437.059          33.000  
C10  37973444.019 1 197737667.856 1       470.205          41.000  
C 8  37409601.483 1 194801588.444 1       871.741          39.000  
C11  25917047.539 1 134956834.817 1      2123.174          39.000  
C 4  39240466.078 9               9       -46.729          26.000  
C 2  38025377.402 1 198008089.712 1       -73.230          40.000  
C13  38410053.701 1 200011232.484 1      1141.240          41.000  
C25  27111790.029 8 141178173.617 3      2939.901          30.000  
C 1  37712257.117 9 196377587.82535       -71.694          30.000  
C 5  40137816.023 1 209008105.897 1       -67.963          37.000  
C 6  40427755.614 4 210517942.450 4     -1446.289          27.000  
G17  24990578.453 4 131326381.721 2      1751.887          34.000  
> 2020  3 14  8 44 49.0030000  0 21                     
G 1  21231819.142 1 111573955.771 1      1082.236          42.000  
G 7  21353667.521 1 112214263.287 1       818.743          45.000  
G11  21475023.978 1 112852019.893 1     -1466.803          43.000  
G30  23116060.114 1 121475714.032 1      2504.463          41.000  
C 3  37166194.363 1 193534101.874 1       -58.211          41.000  
C12  22718835.953 1 118302920.348 1       -24.254          43.000  
C24  23162605.914 1 120613733.576 1      1337.500          47.000  
G 8  23371649.579 8 122818876.837 3     -2383.956          31.000  
C 7  36990336.967 1 192618363.895 1       442.353          41.000  
C26  22849036.042 2 118980934.363 2     -1436.144          34.000  
C10  37973353.696 1 197737197.727 1       470.038          41.000  
C 8  37409434.205 1 194800716.759 1       871.547          39.000  
C11  25916639.798 1 134954711.736 1      2122.853          39.000  
C 4  39240479.759 9               9      -105.566          27.000  
C 2  38025391.502 1 198008163.087 1       -73.036          40.000  
C13  38409834.317 1 200010091.020 1      1141.591          41.000  
C25  27111223.804 4 141175234.001 3      2939.618          30.000  
C 1  37712271.182 8 196377660.95824       -72.507          30.000  
C 5  40137828.937 1 209008173.628 1       -67.272          37.000  
C 6  40428034.853 4 210519388.906 4     -1446.443          27.000  
G17  24990244.595 4 131324628.708 2      1752.665          34.000  
> 2020  3 14  8 44 50.0030000  0 21                     
G 1  21231613.543 1 111572874.547 1      1080.510          42.000  
G 7  21353511.795 1 112213445.687 1       816.715          45.000  
G11  21475303.356 1 112853487.728 1     -1468.815          43.000  
G30  23115583.269 1 121473210.486 1      2502.867          41.000  
C 3  37166206.055 1 193534161.060 1       -59.729          41.000  
C12  22718840.979 1 118302945.450 1       -25.861          43.000  
C24  23162349.326 1 120612397.036 1      1335.747          47.000  
G 8  23372104.611 8 122821262.008 2     -2385.639          31.000  
C 7  36990252.264 1 192617922.083 1       441.212          41.000  
C26  22849312.104 2 118982371.995 1     -1438.420          34.000  
C10  37973263.479 1 197736728.224 1       469.015          41.000  
C 8  37409267.206 1 194799845.930 1       870.298          39.000  
C11  25916232.230 1 134952589.612 1      2121.340          39.000  
C 4  39240492.811 9               9       -45.605          27.000  
C 2  38025405.706 1 198008237.170 1       -74.632          40.000  
C13  38409615.247 1 200008950.379 1      1140.107          41.000  
C25  27110659.150 8 141172295.029 3      2938.653          30.000  
C 1  37712285.595 9               9       -67.285          30.000  
C 5  40137842.164 1 209008242.101 1       -69.296          37.000  
C 6  40428312.381 4 210520835.906 3     -1447.691          27.000  
G17  24989910.703 2 131322876.681 1      1751.417          34.000  
> 2020  3 14  8 44 51.0030000  0 21                     
G 1  21231407.840 1 111571794.546 1      1079.418          42.000  
G 7  21353356.209 1 112212629.256 1       815.940          44.000  
G11  21475582.769 1 112854956.559 1     -1469.215          43.000  
G30  23115106.843 1 121470707.889 1      2502.080          41.000  
C 3  37166217.642 1 193534220.742 1       -59.626          41.000  
C12  22718846.005 1 118302971.439 1       -26.473          43.000  
C24  23162092.983 1 120611061.386 1      1335.181          47.000  
G 8  23372558.770 8 122823647.676 3     -2385.668          31.000  
C 7  36990167.560 1 192617480.767 1       440.993          41.000  
C26  22849588.271 4 118983810.524 2     -1438.787          34.000  
C10  37973173.575 1 197736259.168 1       469.075          41.000  
C 8  37409100.068 1 194798975.792 1       869.896          39.000  
C11  25915824.872 1 134950468.305 1      2120.672          39.000  
C 4  39240507.714 9               9       -78.223          27.000  
C 2  38025420.190 1 198008311.761 1       -74.777          40.000  
C13  38409396.317 1 200007810.368 1      1139.723          41.000  
C25  27110098.893 8 141169356.617 3      2938.000          30.000  
C 1  37712300.044 9 196377811.13834       -73.702          31.000  
C 5  40137855.391 2 209008311.048 1       -69.297          37.000  
C 6  40428591.375 4 210522283.346 4     -1447.621          27.000  
G17  24989576.880 2 131321125.483 2      1750.683          34.000  
> 2020  3 14  8 44 52.0030000  0 21                     
G 1  21231202.556 1 111570715.439 1      1078.701          42.000  
G 7  21353200.797 1 112211813.686 1       815.097          44.000  
G11  21475862.217 1 112856426.112 1     -1470.066          43.000  
G30  23114630.801 1 121468205.902 1      2501.809          42.000  
C 3  37166228.880 1 193534280.692 1       -60.358          41.000  
C12  22718851.170 1 118302998.026 1       -26.736          43.000  
C24  23161836.604 1 120609726.329 1      1334.843          47.000  
G 8  23373014.535 4 122826033.594 2     -2385.984          31.000  
C 7  36990082.857 1 192617039.682 1       440.900          41.000  
C26  22849864.648 4 118985249.734 2     -1439.308          34.000  
C10  37973083.532 1 197735790.305 1       468.869          41.000  
C 8  37408932.965 1 194798106.074 1       869.197          39.000  
C11  25915417.759 1 134948347.494 1      2120.551          39.000  
C 4  39240521.569 9               9       -61.719          27.000  
C 2  38025434.534 1 198008386.570 1       -74.793          40.000  
C13  38409177.631 1 200006670.707 1      1139.321          41.000  
C25  27109531.936 8 141166418.432 3      2938.283          30.000  
C 1  37712314.493 8 196377885.71523       -74.007          30.000  
C 5  40137868.409 2 209008380.246 1       -69.281          37.000  
C 6  40428869.427 4 210523730.920 3     -1447.640          27.000  
G17  24989243.442 2 131319374.782 2      1750.019          34.000  
> 2020  3 14  8 44 53.0030000  0 21                     
G 1  21230997.271 1 111569637.056 1      1078.113          42.000  
G 7  21353045.490 1 112210998.806 1       814.568          44.000  
G11  21476141.979 1 112857896.183 1     -1470.437          43.000  
G30  23114155.283 1 121465704.366 1      2501.487          42.000  
C 3  37166240.606 1 193534340.649 1       -59.954          41.000  
C12  22718856.545 1 118303025.058 1       -27.147          43.000  
C24  23161580.295 1 120608391.703 1      1334.506          47.000  
G 8  23373460.702 8 122828419.550 3     -2385.989          31.000  
C 7  36989998.293 1 192616598.582 1       441.188          41.000  
C26  22850141.408 4 118986689.440 2     -1440.553          34.000  
C10  37972993.245 1 197735321.415 1       469.005          41.000  
C 8  37408766.001 1 194797236.560 1       869.608          39.000  
C11  25915010.750 1 134946227.011 1      2120.371          39.000  
C 4  39240537.659 9               9       -70.898          27.000  
C 2  38025448.878 1 198008461.424 1       -74.446          40.000  
C13  38408958.631 1 200005531.173 1      1139.669          41.000  
C25  27108969.271 4 141163480.318 2      2938.374          30.000  
C 1  37712328.837 8 196377960.32424       -73.191          30.000  
C 5  40137881.601 2 209008449.475 1       -68.987          37.000  
C 6  40429145.489 4 210525178.382 3     -1447.239          27.000  
G17  24988910.282 2 131317624.377 1      1750.164          34.000  
> 2020  3 14  8 44 54.0030000  0 21                     
G 1  21230792.161 1 111568559.291 1      1077.469          42.000  
G 7  21352890.428 1 112210184.509 1       814.105          44.000  
G11  21476421.636 1 112859366.688 1     -1470.655          43.000  
G30  23113679.625 1 121463203.200 1      2500.990          42.000  
C 3  37166252.263 1 193534400.562 1       -59.973          41.000  
C12  22718861.466 1 118303052.415 1       -27.246          43.000  
C24  23161324.056 1 120607057.395 1      1334.298          47.000  
G 8  23373918.352 8 122830805.438 3     -2385.943          31.000  
C 7  36989913.415 1 192616157.439 1       441.125          41.000  
C26  22850418.134 4 118988129.525 2     -1440.248          33.000  
C10  37972903.236 1 197734852.419 1       469.232          41.000  
C 8  37408598.758 1 194796367.185 1       869.291          39.000  
C11  25914603.950 1 134944106.760 1      2120.226          39.000  
C 4  39240540.555 9               9        22.754          27.000  
C 2  38025463.397 1 198008536.245 1       -74.852          40.000  
C13  38408739.700 1 200004391.749 1      1139.449          41.000  
C25  27108400.743 4 141160542.152 3      2938.463          29.000  
C 1  37712343.321 8 196378034.89823       -74.182          30.000  
C 5  40137894.794 2 209008518.671 1       -69.186          37.000  
C 6  40429424.134 4 210526625.778 3     -1447.325          27.000  
G17  24988576.913 2 131315874.229 1      1749.973          34.000  
> 2020  3 14  8 44 55.0030000  0 21                     
G 1  21230587.191 1 111567482.180 1      1076.929          42.000  
G 7  21352735.365 1 112209370.814 1       813.432          44.000  
G11  21476701.467 1 112860837.640 1     -1471.077          43.000  
G30  23113203.862 1 121460702.402 1      2500.524          42.000  
C 3  37166263.292 1 193534460.444 1       -59.824          41.000  
C12  22718866.561 1 118303080.123 1       -27.800          43.000  
C24  23161067.957 1 120605723.444 1      1333.796          47.000  
G 8  23374371.674 8 122833191.319 2     -2385.752          31.000  
C 7  36989828.607 1 192615716.244 1       441.255          41.000  
C26  22850694.720 4 118989570.008 2     -1440.524          33.000  
C10  37972813.298 1 197734383.330 1       468.884          41.000  
C 8  37408431.864 1 194795497.932 1       869.305          39.000  
C11  25914196.837 1 134941986.787 1      2119.823          39.000  
C 4  39240533.226 9               9        86.768          27.000  
C 2  38025477.706 1 198008611.019 1       -74.858          40.000  
C13  38408521.014 1 200003252.409 1      1139.458          41.000  
C25  27107836.019 4 141157604.008 2      2938.407          29.000  
C 1  37712357.874 8 196378109.50424       -75.032          30.000  
C 5  40137908.230 2 209008587.824 1       -68.745          37.000  
C 6  40429703.058 4 210528072.962 4     -1447.353          27.000  
G17  24988243.614 2 131314124.252 1      1749.887          33.000  
> 2020  3 14  8 44 56.0030000  0 20                     
G 1  21230382.500 1 111566405.757 1      1075.666          42.000  
G 7  21352580.442 1 112208557.760 1       812.626          44.000  
G11  21476981.474 1 112862309.088 1     -1471.916          43.000  
G30  23112728.763 1 121458201.981 1      2500.204          42.000  
C 3  37166274.809 1 193534520.340 1       -60.096          41.000  
C12  22718871.831 1 118303108.209 1       -28.317          43.000  
C24  23160811.683 1 120604389.846 1      1333.302          47.000  
G 8  23374829.567 4 122835577.183 2     -2386.300          31.000  
C 7  36989743.974 1 192615275.023 1       440.913          41.000  
C26  22850971.096 4 118991010.950 2     -1441.676          33.000  
C10  37972723.220 1 197733914.173 1       468.944          41.000  
C 8  37408265.145 1 194794628.871 1       868.583          39.000  
C11  25913789.584 1 134939867.077 1      2119.170          39.000  
C 2  38025492.120 1 198008685.786 1       -75.129          40.000  
C13  38408302.328 1 200002113.193 1      1139.034          41.000  
C25  27107273.598 4 141154665.853 2      2937.985          29.000  
C 1  37712371.974 9 196378186.03935       -75.678          30.000  
C 5  40137921.597 1 209008656.984 1       -69.436          37.000  
C 6  40429980.377 4 210529520.082 4     -1447.228          27.000  
G17  24987910.385 2 131312374.626 2      1749.069          33.000  
> 2020  3 14  8 44 57.0030000  0 20                     
G 1  21230177.844 1 111565330.061 1      1075.279          42.000  
G 7  21352425.903 1 112207745.391 1       812.097          44.000  
G11  21477261.585 1 112863781.071 1     -1472.328          43.000  
G30  23112253.628 1 121455702.033 1      2499.821          43.000  
C 3  37166286.500 1 193534580.288 1       -59.959          41.000  
C12  22718877.590 1 118303136.736 1       -28.675          43.000  
C24  23160555.898 1 120603056.690 1      1332.957          47.000  
G 8  23375284.704 4 122837963.070 2     -2385.596          31.000  
C 7  36989659.236 1 192614833.846 1       441.022          41.000  
C26  22851247.996 4 118992452.381 2     -1441.679          33.000  
C10  37972633.107 1 197733445.033 1       468.981          41.000  
C 8  37408098.565 1 194793760.026 1       868.835          39.000  
C11  25913382.645 1 134937747.720 1      2118.875          39.000  
C 2  38025506.499 1 198008760.622 1       -74.890          40.000  
C13  38408083.432 1 200000974.159 1      1138.755          41.000  
C25  27106705.803 8 141151727.761 4      2938.150          29.000  
C 1  37712386.318 8 196378260.58124       -74.142          30.000  
C 5  40137934.790 1 209008726.162 1       -68.743          37.000  
C 6  40430257.626 4 210530967.132 4     -1446.943          27.000  
G17  24987577.050 4 131310625.314 2      1748.627          33.000  
> 2020  3 14  8 44 58.0030000  0 20                     
G 1  21229973.258 1 111564255.038 1      1074.626          42.000  
G 7  21352271.294 1 112206933.645 1       811.449          44.000  
G11  21477542.044 1 112865253.519 1     -1472.699          43.000  
G30  23111778.598 1 121453202.472 1      2499.447          43.000  
C 3  37166297.878 1 193534640.235 1       -60.128          41.000  
C12  22718883.104 1 118303165.620 1       -29.156          42.000  
C24  23160300.078 1 120601723.884 1      1332.666          47.000  
G 8  23375738.933 4 122840348.938 2     -2385.410          31.000  
C 7  36989574.602 1 192614392.622 1       441.270          41.000  
C26  22851525.001 2 118993894.234 1     -1441.601          33.000  
C10  37972543.238 1 197732975.807 1       469.311          41.000  
C 8  37407931.846 1 194792891.338 1       869.191          39.000  
C11  25912975.636 1 134935628.595 1      2118.831          39.000  
C 2  38025520.634 1 198008835.428 1       -74.639          40.000  
C13  38407864.746 1 199999835.226 1      1138.829          41.000  
C25  27106141.428 4 141148789.709 3      2937.819          29.000  
C 1  37712400.662 8 196378335.19523       -75.159          30.000  
C 5  40137948.157 1 209008795.407 1       -69.320          37.000  
C 6  40430536.620 4 210532414.094 4     -1446.895          27.000  
G17  24987243.996 4 131308876.240 2      1748.681          33.000  
> 2020  3 14  8 44 59.0030000  0 20                     
G 1  21229768.671 1 111563180.296 1      1074.805          42.000  
G 7  21352116.894 1 112206122.156 1       811.700          44.000  
G11  21477822.190 1 112866726.058 1     -1472.136          43.000  
G30  23111303.534 1 121450702.931 1      2499.985          43.000  
C 3  37166309.256 1 193534699.776 1       -58.857          41.000  
C12  22718888.548 1 118303194.518 1       -28.697          42.000  
C24  23160044.013 1 120600391.082 1      1333.123          47.000  
G 8  23376192.534 4 122842734.453 2     -2384.621          32.000  
C 7  36989489.654 1 192613951.015 1       442.046          41.000  
C26  22851801.831 4 118995336.165 2     -1441.396          33.000  
C10  37972452.846 1 197732506.155 1       470.252          41.000  
C 8  37407764.952 1 194792022.486 1       869.241          39.000  
C11  25912568.627 1 134933509.387 1      2119.504          39.000  
C 2  38025535.082 1 198008909.856 1       -73.713          40.000  
C13  38407645.920 1 199998696.007 1      1139.816          41.000  
C25  27105578.449 4 141145851.255 2      2938.693          29.000  
C 1  37712414.902 8 196378409.43023       -73.881          30.000  
C 5  40137961.488 2 209008864.190 1       -68.146          37.000  
C 6  40430815.126 4 210533860.487 4     -1445.217          26.000  
G17  24986910.941 4 131307127.040 2      1749.313          33.000  
> 2020  3 14  8 45  0.0030000  0 20                     
G 1  21229564.155 1 111562105.955 1      1073.688          42.000  
G 7  21351962.495 1 112205311.037 1       810.645          44.000  
G11  21478102.545 1 112868198.825 1     -1473.225          43.000  
G30  23110828.329 1 121448203.543 1      2498.607          43.000  
C 3  37166320.773 1 193534759.070 1       -59.541          41.000  
C12  22718894.272 1 118303223.517 1       -29.545          42.000  
C24  23159788.088 1 120599058.385 1      1332.217          47.000  
G 8  23376647.496 4 122845119.664 2     -2385.225          32.000  
C 7  36989404.986 1 192613509.137 1       441.295          41.000  
C26  22852078.592 4 118996778.235 2     -1442.358          33.000  
C10  37972362.594 1 197732036.172 1       469.787          41.000  
C 8  37407598.058 1 194791153.500 1       868.571          39.000  
C11  25912161.688 1 134931390.197 1      2118.608          38.000  
C 2  38025549.322 1 198008984.008 1       -74.233          40.000  
C13  38407427.130 1 199997556.667 1      1139.028          41.000  
C25  27105007.513 4 141142912.572 3      2938.024          29.000  
C 1  37712428.966 8 196378483.32723       -73.660          30.000  
C 5  40137974.506 1 209008932.758 1       -69.125          37.000  
C 6  40431092.305 4 210535306.676 4     -1446.167          27.000  
G17  24986577.921 4 131305377.866 2      1748.810          33.000  
> 2020  3 14  8 45  1.0030000  0 20                     
G 1  21229359.603 1 111561033.045 1      1072.271          42.000  
G 7  21351808.444 1 112204501.305 1       809.195          44.000  
G11  21478383.215 1 112869672.805 1     -1474.354          43.000  
G30  23110353.474 1 121445705.283 1      2497.812          44.000  
C 3  37166332.185 1 193534819.104 1       -60.241          41.000  
C12  22718899.856 1 118303253.624 1       -30.384          42.000  
C24  23159532.198 1 120597726.796 1      1331.211          47.000  
G 8  23377101.446 4 122847505.613 2     -2385.641          32.000  
C 7  36989320.213 1 192613067.935 1       441.161          41.000  
C26  22852355.876 2 118998221.530 1     -1443.718          33.000  
C10  37972272.481 1 197731566.892 1       469.134          41.000  
C 8  37407431.234 1 194790285.440 1       867.617          39.000  
C11  25911754.923 1 134929272.019 1      2117.666          38.000  
C 2  38025563.456 1 198009058.940 1       -75.271          40.000  
C13  38407208.513 1 199996418.183 1      1138.076          41.000  
C25  27104444.744 4 141139974.593 3      2937.927          28.000  
C 1  37712443.520 8 196378558.06724       -75.240          30.000  
C 5  40137987.734 1 209009002.040 1       -70.231          37.000  
C 6  40431369.659 4 210536753.383 4     -1446.680          27.000  
G17  24986245.110 4 131303629.694 2      1747.854          33.000  
> 2020  3 14  8 45  2.0030000  0 20                     
G 1  21229155.645 1 111559961.192 1      1071.092          42.000  
G 7  21351654.498 1 112203692.578 1       808.074          44.000  
G11  21478663.954 1 112871147.663 1     -1475.538          43.000  
G30  23109879.212 1 121443207.812 1      2496.776          44.000  
C 3  37166343.632 1 193534879.519 1       -60.899          41.000  
C12  22718905.650 1 118303284.509 1       -31.569          42.000  
C24  23159276.727 1 120596395.965 1      1330.258          47.000  
G 8  23377555.919 4 122849891.940 2     -2386.565          32.000  
C 7  36989235.649 1 192612627.120 1       440.426          41.000  
C26  22852633.264 2 118999665.613 1     -1444.955          33.000  
C10  37972182.507 1 197731097.946 1       468.405          41.000  
C 8  37407264.724 1 194789417.912 1       867.157          39.000  
C11  25911348.193 1 134927154.508 1      2116.811          39.000  
C 2  38025577.766 1 198009134.251 1       -76.249          40.000  
C13  38406989.932 1 199995280.175 1      1137.352          41.000  
C25  27103883.091 4 141137037.044 3      2937.060          28.000  
C 1  37712457.899 8 196378633.14923       -76.462          30.000  
C 5  40138000.786 2 209009071.653 1       -70.009          37.000  
C 6  40431645.652 4 210538200.398 4     -1447.180          26.000  
G17  24985912.404 2 131301882.176 1      1747.206          33.000  
> 2020  3 14  8 45  3.0030000  0 20                     
G 1  21228951.757 1 111558890.073 1      1070.830          42.000  
G 7  21351500.448 1 112202884.556 1       807.725          44.000  
G11  21478944.867 1 112872623.045 1     -1475.458          44.000  
G30  23109404.915 1 121440710.812 1      2496.857          44.000  
C 3  37166355.778 1 193534940.003 1       -60.676          41.000  
C12  22718911.373 1 118303315.825 1       -31.638          42.000  
C24  23159021.151 1 120595065.569 1      1330.160          47.000  
G 8  23378010.114 4 122852278.348 2     -2386.626          32.000  
C 7  36989151.120 1 192612186.351 1       440.651          41.000  
C26  22852910.653 4 119001110.196 2     -1445.068          33.000  
C10  37972092.499 1 197730629.004 1       468.826          41.000  
C 8  37407098.493 1 194788550.630 1       867.363          39.000  
C11  25910941.394 1 134925037.324 1      2117.578          39.000  
C 2  38025592.179 1 198009209.570 1       -75.525          40.000  
C13  38406771.281 1 199994142.328 1      1137.906          41.000  
C25  27103315.261 4 141134099.574 2      2937.843          29.000  
C 1  37712472.383 8 196378708.22224       -74.786          30.000  
C 5  40138014.258 2 209009141.362 1       -69.302          37.000  
C 6  40431924.646 4 210539647.407 4     -1447.145          26.000  
G17  24985579.733 4 131300135.041 2      1746.496          33.000  
> 2020  3 14  8 45  4.0030000  0 20                     
G 1  21228748.183 1 111557819.617 1      1070.030          42.000  
G 7  21351346.956 1 112202077.149 1       807.216          44.000  
G11  21479225.851 1 112874098.897 1     -1476.050          44.000  
G30  23108930.513 1 121438214.184 1      2496.323          44.000  
C 3  37166367.574 1 193535000.430 1       -60.353          41.000  
C12  22718917.376 1 118303347.507 1       -31.786          42.000  
C24  23158765.820 1 120593735.522 1      1329.909          47.000  
G 8  23378464.413 4 122854664.674 2     -2386.211          32.000  
C 7  36989066.487 1 192611745.504 1       441.203          41.000  
C26  22853188.042 4 119002555.194 2     -1445.165          33.000  
C10  37972002.351 1 197730159.938 1       469.346          41.000  
C 8  37406932.088 1 194787683.514 1       867.219          39.000  
C11  25910534.699 1 134922920.443 1      2116.568          39.000  
C 2  38025606.489 1 198009284.891 1       -75.418          40.000  
C13  38406552.699 1 199993004.588 1      1137.737          41.000  
C25  27102752.352 4 141131162.076 2      2937.386          29.000  
C 1  37712486.901 8 196378783.35724       -74.926          30.000  
C 5  40138027.939 1 209009211.078 1       -69.671          37.000  
C 6  40432201.371 4 210541094.216 4     -1446.359          27.000  
G17  24985246.923 4 131298388.074 2      1747.095          34.000  
> 2020  3 14  8 45  5.0030000  0 20                     
G 1  21228544.504 1 111556749.944 1      1069.390          42.000  
G 7  21351193.429 1 112201270.487 1       806.349          44.000  
G11  21479506.590 1 112875575.329 1     -1476.554          44.000  
G30  23108456.007 1 121435718.070 1      2495.945          45.000  
C 3  37166378.987 1 193535060.986 1       -60.579          41.000  
C12  22718923.309 1 118303379.659 1       -32.288          42.000  
C24  23158510.279 1 120592405.944 1      1329.488          47.000  
G 8  23378918.502 2 122857051.127 1     -2386.448          32.000  
C 7  36988981.678 1 192611304.779 1       440.619          41.000  
C26  22853465.570 4 119004000.735 2     -1445.866          33.000  
C10  37971912.238 1 197729690.947 1       469.088          41.000  
C 8  37406765.508 1 194786816.656 1       867.130          39.000  
C11  25910128.144 1 134920803.915 1      2116.165          39.000  
C 2  38025621.286 1 198009360.293 1       -75.083          40.000  
C13  38406334.188 1 199991867.111 1      1137.334          41.000  
C25  27102186.406 2 141128224.735 2      2937.062          29.000  
C 1  37712501.455 8 196378858.53924       -74.680          30.000  
C 5  40138041.236 2 209009280.863 1       -69.877          37.000  
C 6  40432479.144 4 210542541.072 3     -1446.786          27.000  
G17  24984914.531 2 131296641.553 1      1745.911          33.000  
> 2020  3 14  8 45  6.0030000  0 20                     
G 1  21228340.895 1 111555680.836 1      1068.756          42.000  
G 7  21351040.146 1 112200464.353 1       805.851          44.000  
G11  21479787.992 1 112877052.156 1     -1477.226          44.000  
G30  23107981.745 1 121433222.250 1      2495.800          45.000  
C 3  37166390.957 1 193535121.441 1       -60.472          41.000  
C12  22718929.417 1 118303412.105 1       -32.838          42.000  
C24  23158254.738 1 120591076.651 1      1329.104          47.000  
G 8  23379372.906 2 122859437.417 1     -2385.616          32.000  
C 7  36988897.185 1 192610863.906 1       440.853          41.000  
C26  22853743.133 4 119005446.592 2     -1445.830          33.000  
C10  37971822.091 1 197729221.778 1       469.299          41.000  
C 8  37406598.893 1 194785949.893 1       866.552          39.000  
C11  25909721.589 1 134918687.546 1      2116.425          39.000  
C 2  38025635.700 1 198009435.619 1       -75.389          40.000  
C13  38406115.816 1 199990729.617 1      1137.424          41.000  
C25  27101623.148 4 141125287.255 3      2937.636          28.000  
C 1  37712515.973 8 196378933.68224       -75.407          30.000  
C 5  40138054.952 1 209009350.572 1       -70.085          37.000  
C 6  40432757.475 4 210543987.734 3     -1446.363          26.000  
G17  24984582.453 4 131294895.180 2      1745.660          34.000  
> 2020  3 14  8 45  7.0030000  0 20                     
G 1  21228137.599 1 111554612.359 1      1068.024          42.000  
G 7  21350886.829 1 112199658.808 1       805.142          44.000  
G11  21480069.080 1 112878529.389 1     -1477.603          44.000  
G30  23107507.308 1 121430726.798 1      2495.159          45.000  
C 3  37166402.544 1 193535181.840 1       -60.604          41.000  
C12  22718935.769 1 118303444.850 1       -33.032          42.000  
C24  23157999.580 1 120589747.661 1      1328.987          47.000  
G 8  23379827.310 4 122861823.709 2     -2386.160          33.000  
C 7  36988812.760 1 192610422.968 1       441.032          41.000  
C26  22854020.871 2 119006892.875 1     -1446.878          34.000  
C10  37971731.978 1 197728752.502 1       469.385          41.000  
C 8  37406432.488 1 194785083.237 1       866.461          39.000  
C11  25909315.208 1 134916571.426 1      2116.035          38.000  
C 2  38025650.463 1 198009510.844 1       -75.146          40.000  
C13  38405897.374 1 199989592.206 1      1137.229          41.000  
C25  27101059.122 4 141122349.732 3      2937.720          28.000  
C 1  37712530.666 9               6       -74.759          30.000  
C 5  40138068.249 1 209009420.188 1       -69.844          37.000  
C 6  40433034.480 4 210545434.152 4     -1445.856          27.000  
G17  24984250.341 4 131293148.967 2      1746.299          34.000  
> 2020  3 14  8 45  8.0030000  0 20                     
G 1  21227934.758 1 111553544.605 1      1067.432          42.000  
G 7  21350733.965 1 112198853.949 1       804.558          44.000  
G11  21480350.483 1 112880007.176 1     -1477.996          44.000  
G30  23107032.663 1 121428231.787 1      2494.994          45.000  
C 3  37166413.643 1 193535242.302 1       -60.345          41.000  
C12  22718941.946 1 118303478.054 1       -33.503          42.000  
C24  23157744.528 1 120588419.121 1      1328.488          47.000  
G 8  23380281.574 4 122864210.061 2     -2386.852          33.000  
C 7  36988728.092 1 192609982.051 1       441.289          41.000  
C26  22854298.643 2 119008339.635 2     -1447.057          34.000  
C10  37971641.760 1 197728283.251 1       469.227          41.000  
C 8  37406266.013 1 194784216.820 1       866.028          39.000  
C11  25908908.793 1 134914455.656 1      2115.459          39.000  
C 2  38025664.947 1 198009586.173 1       -75.460          41.000  
C13  38405678.932 1 199988454.953 1      1137.109          41.000  
C25  27100492.793 4 141119412.379 3      2937.038          28.000  
C 1  37712545.080 9               9       -74.316          30.000  
C 5  40138081.581 1 209009489.874 1       -69.712          37.000  
C 6  40433312.845 4 210546880.648 4     -1445.945          27.000  
G17  24983918.124 2 131291403.130 1      1745.847          34.000  
> 2020  3 14  8 45  9.0030000  0 21                     
G 1  21227731.812 1 111552477.539 1      1066.953          42.000  
G 7  21350580.996 1 112198049.741 1       804.058          44.000  
G11  21480631.710 1 112881485.448 1     -1478.259          44.000  
G30  23106558.086 1 121425737.211 1      2494.653          45.000  
C 3  37166425.369 1 193535302.787 1       -60.623          41.000  
C12  22718948.368 1 118303511.640 1       -33.927          42.000  
C24  23157489.860 1 120587090.965 1      1328.115          47.000  
G 8  23380736.431 2 122866596.387 2     -2386.723          33.000  
C 7  36988643.319 1 192609541.163 1       440.764          41.000  
C26  22854576.939 2 119009786.855 2     -1447.436          34.000  
C10  37971551.682 1 197727813.912 1       469.721          41.000  
C 8  37406099.712 1 194783350.561 1       866.443          39.000  
C11  25908502.447 1 134912340.183 1      2115.053          38.000  
C 4  39240747.585 9               9       -65.625          27.000  
C 2  38025679.291 1 198009661.489 1       -75.207          40.000  
C13  38405460.490 1 199987317.831 1      1137.267          41.000  
C25  27099929.395 2 141116474.982 3      2937.322          28.000  
C 1  37712558.866 9 196379158.52235       -74.633          30.000  
C 5  40138095.052 1 209009559.578 1       -69.437          37.000  
C 6  40433590.932 4 210548326.977 3     -1446.210          27.000  
G17  24983586.290 2 131289657.579 1      1746.448          34.000  
> 2020  3 14  8 45 10.0030000  0 21                     
G 1  21227529.006 1 111551410.519 1      1066.755          42.000  
G 7  21350428.097 1 112197245.517 1       804.113          45.000  
G11  21480912.868 1 112882963.547 1     -1478.250          44.000  
G30  23106083.301 1 121423242.374 1      2494.729          45.000  
C 3  37166437.026 1 193535362.607 1       -59.747          41.000  
C12  22718954.929 1 118303544.956 1       -33.415          42.000  
C24  23157234.563 1 120585762.538 1      1328.210          47.000  
G 8  23381190.835 2 122868982.021 1     -2385.587          33.000  
C 7  36988558.546 1 192609099.589 1       441.564          41.000  
C26  22854854.503 2 119011233.844 1     -1447.076          34.000  
C10  37971461.499 1 197727343.904 1       470.219          41.000  
C 8  37405933.412 1 194782483.845 1       866.558          39.000  
C11  25908095.927 1 134910224.305 1      2115.984          38.000  
C 4  39240758.509 9               9       -67.432          27.000  
C 2  38025693.705 1 198009736.175 1       -74.780          41.000  
C13  38405241.944 1 199986180.178 1      1137.375          41.000  
C25  27099364.462 4 141113536.933 3      2938.241          28.000  
C 1  37712573.419 8 196379233.03324       -74.503          30.000  
C 5  40138108.140 2 209009628.653 1       -69.005          37.000  
C 6  40433869.089 4 210549772.572 3     -1445.196          27.000  
G17  24983254.283 2 131287911.674 1      1745.791          34.000  
> 2020  3 14  8 45 11.0030000  0 21                     
G 1  21227326.164 1 111550344.468 1      1065.032          42.000  
G 7  21350275.443 1 112196442.238 1       802.322          45.000  
G11  21481194.305 1 112884442.439 1     -1479.666          44.000  
G30  23105608.795 1 121420748.237 1      2493.342          45.000  
C 3  37166448.334 1 193535422.715 1       -60.534          41.000  
C12  22718961.455 1 118303578.949 1       -34.926          42.000  
C24  23156979.650 1 120584434.762 1      1326.898          47.000  
G 8  23381645.308 2 122871368.009 1     -2386.975          33.000  
C 7  36988473.493 1 192608658.278 1       440.760          41.000  
C26  22855132.485 4 119012681.589 2     -1448.901          34.000  
C10  37971371.282 1 197726874.130 1       469.055          41.000  
C 8  37405767.076 1 194781617.586 1       865.442          39.000  
C11  25907689.546 1 134908109.061 1      2114.588          38.000  
C 4  39240775.331 9               9       -80.273          27.000  
C 2  38025708.014 1 198009811.144 1       -75.554          40.000  
C13  38405023.572 1 199985042.930 1      1136.571          40.000  
C25  27098800.436 2 141110599.192 2      2937.535          28.000  
C 1  37712587.833 9               7       -78.945          30.000  
C 5  40138121.577 2 209009698.004 1       -70.117          37.000  
C 6  40434145.744 4 210551218.399 3     -1446.284          27.000  
G17  24982922.449 2 131286166.321 1      1744.511          34.000  
> 2020  3 14  8 45 12.0030000  0 21                     
G 1  21227123.602 1 111549279.740 1      1064.150          42.000  
