% program   : RTKLIB ver.2.4.2
% inp file  : /home/wws/FGO-GNSSV3.0/src/global_fusion/dataset/Jiulongtang_ublox_M8T/COM55_200314_084357.obs
% inp file  : /home/wws/FGO-GNSSV3.0/src/global_fusion/dataset/Jiulongtang_ublox_M8T/hksc0740.20o
% inp file  : /home/wws/FGO-GNSSV3.0/src/global_fusion/dataset/Jiulongtang_ublox_M8T/hksc0740.20b
% inp file  : /home/wws/FGO-GNSSV3.0/src/global_fusion/dataset/Jiulongtang_ublox_M8T/hksc0740.20n
% obs start : 2020/03/14 08:44:32.0 GPST (week2096 549872.0s)
% obs end   : 2020/03/14 09:28:39.0 GPST (week2096 552519.0s)
% pos mode  : kinematic
% freqs     : L1+L2
% solution  : forward
% elev mask : 15.0 deg
% dynamics  : off
% tidecorr  : off
% ionos opt : broadcast
% tropo opt : saastamoinen
% ephemeris : broadcast
% navi sys  : gps glonass galileo qzss sbas
% amb res   : instantaneous
% amb glo   : on
% val thres : 3.0
% antenna1  :                       ( 0.0000  0.0000  0.0000)
% antenna2  :                       ( 0.0000  0.0000  0.0000)
% ref pos   : 22.322172082, 114.141187963,   20.2386
%
% (lat/lon/height=WGS84/ellipsoidal,Q=1:fix,2:float,3:sbas,4:dgps,5:single,6:ppp,ns=# of satellites)
%  GPST        , latitude(deg),longitude(deg), height(m),  Q, ns,  sdn(m),  sde(m),  sdu(m), sdne(m), sdeu(m), sdun(m),age(s), ratio
2096,549872.000,  22.330486436, 114.179524980,   19.4596,  2, 16,  0.4353,  0.5717,  1.3192,  0.0803, -0.4948, -0.1582,  2.00,   1.2
2096,549873.000,  22.330486122, 114.179528081,   18.7128,  2, 16,  0.4354,  0.5717,  1.3191,  0.0802, -0.4947, -0.1582,  3.00,   1.3
2096,549874.000,  22.330485213, 114.179527684,   18.0213,  2, 16,  0.4354,  0.5717,  1.3191,  0.0801, -0.4946, -0.1581,  4.00,   1.3
2096,549875.000,  22.330485894, 114.179528701,   17.6536,  2, 16,  0.4354,  0.5716,  1.3190,  0.0800, -0.4945, -0.1581,  5.00,   1.3
2096,549876.000,  22.330486454, 114.179530668,   16.8126,  2, 16,  0.4355,  0.5716,  1.3190,  0.0799, -0.4944, -0.1581,  6.00,   1.5
2096,549877.000,  22.330487146, 114.179532339,   15.9470,  2, 17,  0.4318,  0.5119,  1.2932,  0.1445, -0.4225, -0.1995,  7.00,   1.4
2096,549878.000,  22.330487526, 114.179529568,   15.9343,  2, 16,  0.4356,  0.5716,  1.3190,  0.0796, -0.4942, -0.1580,  8.00,   1.6
2096,549879.000,  22.330489141, 114.179528851,   16.4795,  2, 16,  0.4356,  0.5716,  1.3189,  0.0795, -0.4941, -0.1580,  9.00,   1.5
2096,549880.000,  22.330492812, 114.179531314,   17.7493,  2, 17,  0.4326,  0.5666,  1.2374,  0.0494, -0.5277, -0.2199, 10.00,   1.0
2096,549881.000,  22.330492032, 114.179540347,   16.2059,  2, 18,  0.4290,  0.5054,  1.2120,  0.1295, -0.4635, -0.2496, 11.00,   1.2
2096,549882.000,  22.330494386, 114.179536925,   16.2499,  2, 18,  0.4291,  0.5054,  1.2120,  0.1294, -0.4634, -0.2496, 12.00,   1.1
2096,549883.000,  22.330497313, 114.179537012,   16.0831,  2, 18,  0.4291,  0.5054,  1.2120,  0.1294, -0.4634, -0.2496, 13.00,   1.3
2096,549884.000,  22.330498459, 114.179536431,   15.0507,  2, 18,  0.4292,  0.5054,  1.2120,  0.1293, -0.4634, -0.2496, 14.00,   1.0
2096,549885.000,  22.330501027, 114.179535646,   14.0337,  2, 18,  0.4292,  0.5054,  1.2120,  0.1292, -0.4633, -0.2496, 15.00,   1.4
2096,549886.000,  22.330503217, 114.179537899,   13.3868,  2, 18,  0.4293,  0.5054,  1.2120,  0.1292, -0.4633, -0.2496, 16.00,   1.0
2096,549887.000,  22.330506216, 114.179534986,   12.3136,  2, 17,  0.4330,  0.5665,  1.2374,  0.0480, -0.5274, -0.2198, 17.00,   1.0
2096,549888.000,  22.330510545, 114.179546810,    8.8165,  2, 18,  0.4294,  0.5054,  1.2121,  0.1291, -0.4632, -0.2496, 18.00,   1.1
2096,549889.000,  22.330521110, 114.179562148,    3.9290,  2, 18,  0.4294,  0.5055,  1.2121,  0.1290, -0.4632, -0.2496, 19.00,   1.0
2096,549890.000,  22.330520200, 114.179558700,    4.2106,  2, 17,  0.4332,  0.5666,  1.2374,  0.0473, -0.5273, -0.2198, 20.00,   1.1
2096,549891.000,  22.330519616, 114.179557029,    4.7917,  2, 18,  0.4296,  0.5055,  1.2122,  0.1289, -0.4631, -0.2497, 21.00,   1.0
2096,549892.000,  22.330517117, 114.179552148,    6.3057,  2, 18,  0.4296,  0.5055,  1.2122,  0.1289, -0.4631, -0.2497, 22.00,   1.1
2096,549893.000,  22.330526870, 114.179570509,    0.3998,  2, 18,  0.4297,  0.5055,  1.2122,  0.1288, -0.4631, -0.2497, 23.00,   1.3
2096,549894.000,  22.330522421, 114.179561546,    3.6345,  2, 18,  0.4298,  0.5055,  1.2123,  0.1287, -0.4631, -0.2497, 24.00,   1.1
2096,549895.000,  22.330523034, 114.179561354,    4.0085,  2, 18,  0.4298,  0.5056,  1.2123,  0.1287, -0.4630, -0.2497, 25.00,   1.1
2096,549896.000,  22.330517136, 114.179553613,    6.8832,  2, 18,  0.4299,  0.5056,  1.2124,  0.1286, -0.4630, -0.2497, 26.00,   1.1
2096,549897.000,  22.330514799, 114.179552808,    7.2262,  2, 18,  0.4300,  0.5056,  1.2124,  0.1286, -0.4630, -0.2498, 27.00,   1.2
2096,549898.000,  22.330512927, 114.179551158,    7.9943,  2, 18,  0.4301,  0.5056,  1.2125,  0.1285, -0.4630, -0.2498, 28.00,   1.2
2096,549899.000,  22.330514044, 114.179553112,    8.3102,  2, 18,  0.4301,  0.5057,  1.2125,  0.1285, -0.4630, -0.2498, 29.00,   1.1
2096,549900.000,  22.330511624, 114.179552006,    8.6503,  2, 18,  0.4293,  0.5047,  1.2109,  0.1283, -0.4620, -0.2491,  0.00,   1.5
2096,549901.000,  22.330510365, 114.179551117,    9.0361,  2, 18,  0.4293,  0.5047,  1.2108,  0.1282, -0.4619, -0.2491,  1.00,   1.5
2096,549902.000,  22.330507260, 114.179550807,    9.0378,  2, 18,  0.4294,  0.5047,  1.2108,  0.1282, -0.4618, -0.2491,  2.00,   1.6
2096,549903.000,  22.330507164, 114.179549293,    9.7471,  2, 18,  0.4294,  0.5046,  1.2107,  0.1281, -0.4617, -0.2491,  3.00,   1.6
2096,549904.000,  22.330506204, 114.179550017,    9.6150,  2, 18,  0.4294,  0.5046,  1.2107,  0.1281, -0.4617, -0.2490,  4.00,   1.6
2096,549905.000,  22.330506405, 114.179550827,   10.0742,  2, 18,  0.4295,  0.5046,  1.2107,  0.1280, -0.4616, -0.2490,  5.00,   1.5
2096,549906.000,  22.330505752, 114.179550276,   10.8109,  2, 18,  0.4295,  0.5046,  1.2107,  0.1279, -0.4616, -0.2490,  6.00,   1.5
2096,549907.000,  22.330503476, 114.179554285,   10.5220,  2, 17,  0.4332,  0.5655,  1.2358,  0.0437, -0.5255, -0.2190,  7.00,   1.2
2096,549908.000,  22.330503441, 114.179553911,   10.7300,  2, 17,  0.4333,  0.5655,  1.2358,  0.0435, -0.5255, -0.2190,  8.00,   1.0
2096,549909.000,  22.330502913, 114.179549328,   11.4119,  2, 18,  0.4296,  0.5045,  1.2106,  0.1278, -0.4614, -0.2490,  9.00,   1.1
2096,549910.000,  22.330503509, 114.179548544,   11.5036,  2, 18,  0.4296,  0.5045,  1.2106,  0.1277, -0.4613, -0.2490, 10.00,   1.1
2096,549911.000,  22.330502056, 114.179552072,   11.1773,  2, 17,  0.4334,  0.5654,  1.2357,  0.0427, -0.5253, -0.2189, 11.00,   1.0
2096,549912.000,  22.330501469, 114.179547745,   11.7429,  2, 18,  0.4297,  0.5045,  1.2106,  0.1276, -0.4612, -0.2490, 12.00,   1.0
2096,549913.000,  22.330502712, 114.179547449,   11.7564,  2, 18,  0.4298,  0.5045,  1.2106,  0.1275, -0.4612, -0.2490, 13.00,   1.1
2096,549914.000,  22.330496361, 114.179538401,   14.3335,  2, 17,  0.4336,  0.5654,  1.2357,  0.0420, -0.5251, -0.2189, 14.00,   1.6
2096,549915.000,  22.330495861, 114.179537880,   14.5504,  2, 17,  0.4336,  0.5654,  1.2357,  0.0418, -0.5251, -0.2189, 15.00,   1.5
2096,549916.000,  22.330495975, 114.179534515,   14.5286,  2, 17,  0.4337,  0.5654,  1.2357,  0.0415, -0.5250, -0.2188, 16.00,   1.8
2096,549917.000,  22.330500676, 114.179536903,   13.8753,  2, 16,  0.4434,  0.5746,  1.3553, -0.0879, -0.5766,  0.0587, 17.00,   1.4
2096,549918.000,  22.330499249, 114.179530912,   15.0224,  2, 16,  0.4435,  0.5746,  1.3553, -0.0880, -0.5766,  0.0588, 18.00,   1.9
2096,549919.000,  22.330499518, 114.179525935,   15.3944,  2, 16,  0.4436,  0.5746,  1.3553, -0.0881, -0.5765,  0.0589, 19.00,   2.4
2096,549920.000,  22.330502324, 114.179530144,   13.5879,  2, 16,  0.4436,  0.5746,  1.3553, -0.0882, -0.5765,  0.0589, 20.00,   2.0
2096,549921.000,  22.330497979, 114.179520652,   16.2980,  2, 16,  0.4437,  0.5746,  1.3554, -0.0884, -0.5765,  0.0590, 21.00,   1.2
2096,549922.000,  22.330502098, 114.179529269,   12.9607,  2, 16,  0.4438,  0.5746,  1.3554, -0.0885, -0.5765,  0.0591, 22.00,   2.1
2096,549923.000,  22.330505080, 114.179534650,   11.3330,  2, 16,  0.4438,  0.5747,  1.3554, -0.0886, -0.5764,  0.0591, 23.00,   1.1
2096,549924.000,  22.330505696, 114.179533349,   11.1431,  2, 16,  0.4439,  0.5747,  1.3554, -0.0888, -0.5764,  0.0592, 24.00,   1.0
2096,549925.000,  22.330501273, 114.179529183,   12.6689,  2, 17,  0.4382,  0.5081,  1.3137,  0.1059, -0.4926, -0.1424, 25.00,   1.8
2096,549926.000,  22.330502869, 114.179524441,   12.7562,  2, 16,  0.4441,  0.5747,  1.3555, -0.0890, -0.5764,  0.0593, 26.00,   1.3
2096,549927.000,  22.330503027, 114.179524247,   11.7007,  2, 16,  0.4441,  0.5748,  1.3556, -0.0892, -0.5764,  0.0594, 27.00,   1.0
2096,549928.000,  22.330502359, 114.179522284,   11.4029,  2, 16,  0.4442,  0.5748,  1.3556, -0.0893, -0.5763,  0.0595, 28.00,   1.1
2096,549929.000,  22.330503005, 114.179524014,   10.9871,  2, 16,  0.4443,  0.5748,  1.3557, -0.0894, -0.5763,  0.0595, 29.00,   1.0
2096,549930.000,  22.330503979, 114.179524552,   11.1735,  2, 16,  0.4434,  0.5737,  1.3536, -0.0890, -0.5750,  0.0597,  0.00,   2.8
2096,549931.000,  22.330503513, 114.179525449,   11.5089,  2, 16,  0.4435,  0.5736,  1.3535, -0.0891, -0.5749,  0.0597,  1.00,   2.4
2096,549932.000,  22.330497038, 114.179529150,   13.6369,  1, 16,  0.0049,  0.0063,  0.0146, -0.0011, -0.0064,  0.0006,  2.00,   3.7
2096,549933.000,  22.330497037, 114.179529131,   13.6384,  1, 16,  0.0054,  0.0069,  0.0157, -0.0013, -0.0070,  0.0006,  3.00,   3.2
2096,549934.000,  22.330493734, 114.179532314,    6.1813,  2, 16,  0.4436,  0.5735,  1.3533, -0.0894, -0.5747,  0.0599,  4.00,   1.2
2096,549935.000,  22.330497728, 114.179522998,    8.2749,  2, 16,  0.4436,  0.5735,  1.3533, -0.0895, -0.5746,  0.0600,  5.00,   1.5
2096,549936.000,  22.330496406, 114.179521767,    7.2228,  2, 16,  0.4436,  0.5735,  1.3532, -0.0896, -0.5745,  0.0601,  6.00,   1.0
2096,549937.000,  22.330490901, 114.179532990,    7.8710,  2, 16,  0.4437,  0.5735,  1.3531, -0.0898, -0.5745,  0.0601,  7.00,   1.1
2096,549938.000,  22.330489711, 114.179534008,    6.6632,  2, 16,  0.4437,  0.5734,  1.3531, -0.0899, -0.5744,  0.0602,  8.00,   1.3
2096,549939.000,  22.330490789, 114.179528058,    6.4039,  2, 16,  0.4438,  0.5734,  1.3531, -0.0900, -0.5743,  0.0603,  9.00,   1.1
2096,549940.000,  22.330492070, 114.179524908,    7.8400,  2, 16,  0.4438,  0.5734,  1.3530, -0.0901, -0.5743,  0.0603, 10.00,   1.0
2096,549941.000,  22.330490404, 114.179528498,    7.5414,  2, 16,  0.4438,  0.5734,  1.3530, -0.0902, -0.5742,  0.0604, 11.00,   1.0
2096,549942.000,  22.330491024, 114.179528317,    7.6016,  2, 16,  0.4439,  0.5734,  1.3530, -0.0903, -0.5742,  0.0605, 12.00,   1.2
2096,549943.000,  22.330493277, 114.179525386,   10.3206,  2, 16,  0.4439,  0.5734,  1.3529, -0.0904, -0.5741,  0.0605, 13.00,   1.3
2096,549944.000,  22.330490592, 114.179528892,    9.3076,  2, 16,  0.4440,  0.5734,  1.3529, -0.0905, -0.5741,  0.0606, 14.00,   1.2
2096,549945.000,  22.330490200, 114.179532985,   10.1076,  2, 16,  0.4441,  0.5734,  1.3529, -0.0907, -0.5740,  0.0607, 15.00,   1.1
2096,549946.000,  22.330490269, 114.179531559,   10.1910,  2, 16,  0.4441,  0.5734,  1.3529, -0.0908, -0.5740,  0.0607, 16.00,   1.1
2096,549947.000,  22.330489372, 114.179536942,   11.1206,  2, 16,  0.4442,  0.5734,  1.3529, -0.0909, -0.5739,  0.0608, 17.00,   1.1
2096,549948.000,  22.330488621, 114.179534766,    9.5172,  2, 16,  0.4442,  0.5734,  1.3529, -0.0910, -0.5739,  0.0609, 18.00,   1.0
2096,549949.000,  22.330487156, 114.179537537,   10.0870,  2, 16,  0.4443,  0.5734,  1.3529, -0.0912, -0.5738,  0.0609, 19.00,   1.1
2096,549950.000,  22.330487244, 114.179536668,   10.0061,  2, 16,  0.4444,  0.5734,  1.3529, -0.0913, -0.5738,  0.0610, 20.00,   1.0
2096,549951.000,  22.330486286, 114.179543299,   11.3807,  2, 16,  0.4444,  0.5734,  1.3529, -0.0914, -0.5738,  0.0611, 21.00,   1.3
2096,549952.000,  22.330488364, 114.179542904,   10.8321,  2, 16,  0.4445,  0.5734,  1.3530, -0.0915, -0.5737,  0.0611, 22.00,   1.1
2096,549953.000,  22.330493045, 114.179534870,   12.4389,  2, 16,  0.4446,  0.5734,  1.3530, -0.0917, -0.5737,  0.0612, 23.00,   1.5
2096,549954.000,  22.330497867, 114.179531548,   12.8953,  2, 16,  0.4447,  0.5735,  1.3530, -0.0918, -0.5737,  0.0612, 24.00,   1.7
2096,549955.000,  22.330501575, 114.179528507,   13.1856,  2, 15,  0.4719,  0.6990,  1.7548,  0.2337, -0.8807, -0.4154, 25.00,   2.8
2096,549956.000,  22.330483118, 114.179476203,   28.4886,  2, 16,  0.4448,  0.5735,  1.3531, -0.0920, -0.5737,  0.0614, 26.00,   1.0
2096,549957.000,  22.330478606, 114.179467162,   32.0578,  2, 16,  0.4449,  0.5735,  1.3531, -0.0922, -0.5736,  0.0614, 27.00,   1.4
2096,549958.000,  22.330490235, 114.179496248,   22.9279,  2, 16,  0.4450,  0.5736,  1.3532, -0.0923, -0.5736,  0.0615, 28.00,   1.2
2096,549959.000,  22.330507454, 114.179536889,   11.2777,  2, 16,  0.4451,  0.5736,  1.3532, -0.0924, -0.5736,  0.0615, 29.00,   1.0
2096,549960.000,  22.330518615, 114.179519886,   13.6946,  1, 16,  0.0047,  0.0070,  0.0193,  0.0024, -0.0087, -0.0041,  0.00,   3.1
2096,549961.000,  22.330537483, 114.179515361,   13.7475,  1, 15,  0.0049,  0.0072,  0.0197,  0.0024, -0.0089, -0.0043,  1.00,   4.2
2096,549962.000,  22.330562441, 114.179513238,   13.8178,  1, 16,  0.0052,  0.0078,  0.0208,  0.0026, -0.0096, -0.0046,  2.00,   7.9
2096,549963.000,  22.330593857, 114.179512013,   13.8698,  1, 15,  0.0058,  0.0086,  0.0273,  0.0029, -0.0107, -0.0040,  3.00,   4.3
2096,549964.000,  22.330631650, 114.179511760,   13.8835,  1, 15,  0.0064,  0.0096,  0.0302,  0.0032, -0.0120, -0.0045,  4.00,   5.4
2096,549965.000,  22.330674080, 114.179513334,   13.9299,  1, 14,  0.0072,  0.0108,  0.0336,  0.0036, -0.0136, -0.0050,  5.00,   4.1
2096,549966.000,  22.330718431, 114.179515663,   13.9911,  1, 15,  0.0080,  0.0121,  0.0374,  0.0040, -0.0152, -0.0056,  6.00,   5.0
2096,549967.000,  22.330760451, 114.179518706,   13.9909,  1, 14,  0.0097,  0.0135,  0.0576,  0.0038, -0.0153, -0.0141,  7.00,   3.5
2096,549968.000,  22.330799342, 114.179521089,   14.0522,  1, 15,  0.0108,  0.0149,  0.0635,  0.0042, -0.0169, -0.0157,  8.00,   3.5
2096,549969.000,  22.330836251, 114.179518119,   11.6405,  2, 14,  0.4693,  0.5921,  1.7483,  0.2461,  0.2653,  0.3840,  9.00,   2.3
2096,549970.000,  22.330872916, 114.179519562,   12.8970,  2, 15,  0.4480,  0.5314,  1.6557,  0.1551, -0.2759,  0.2624, 10.00,   2.2
2096,549971.000,  22.330909840, 114.179527065,   13.4491,  2, 15,  0.4481,  0.5314,  1.6557,  0.1550, -0.2757,  0.2624, 11.00,   1.8
2096,549972.000,  22.330950727, 114.179526415,   12.2164,  2, 15,  0.4481,  0.5314,  1.6557,  0.1550, -0.2755,  0.2625, 12.00,   1.4
2096,549973.000,  22.330992113, 114.179530428,   14.1540,  1, 15,  0.0146,  0.0243,  0.0590,  0.0034,  0.0210,  0.0119, 13.00,   3.5
2096,549974.000,  22.331034444, 114.179528205,   14.3744,  2, 17,  0.4302,  0.4648,  1.2708,  0.1211,  0.0502, -0.2068, 14.00,   1.7
2096,549975.000,  22.331076851, 114.179535443,   11.9321,  2, 16,  0.4302,  0.5248,  1.4129,  0.1161, -0.3845, -0.1993, 15.00,   1.5
2096,549976.000,  22.331116720, 114.179537116,   14.2125,  1, 16,  0.0171,  0.0247,  0.0632, -0.0071,  0.0115,  0.0088, 16.00,   3.7
2096,549977.000,  22.331157189, 114.179540327,   14.2204,  1, 18,  0.0181,  0.0261,  0.0668, -0.0075,  0.0121,  0.0093, 17.00,   3.3
2096,549978.000,  22.331200394, 114.179544818,   14.2689,  1, 17,  0.0191,  0.0275,  0.0704, -0.0079,  0.0128,  0.0098, 18.00,   4.8
2096,549979.000,  22.331248863, 114.179549718,   15.2279,  2, 16,  0.4305,  0.5249,  1.4130,  0.1158, -0.3840, -0.1994, 19.00,   2.7
2096,549980.000,  22.331295232, 114.179551979,   13.2805,  2, 16,  0.4305,  0.5250,  1.4130,  0.1158, -0.3839, -0.1995, 20.00,   2.7
2096,549981.000,  22.331341986, 114.179556223,   14.3089,  1, 16,  0.0218,  0.0271,  0.0743, -0.0044, -0.0180,  0.0161, 21.00,   3.5
2096,549982.000,  22.331391622, 114.179561245,   14.2656,  1, 16,  0.0211,  0.0282,  0.0599, -0.0068, -0.0223, -0.0119, 22.00,   3.8
2096,549983.000,  22.331442881, 114.179565913,   14.2433,  1, 15,  0.0220,  0.0294,  0.0625, -0.0072, -0.0233, -0.0124, 23.00,   3.7
2096,549984.000,  22.331495640, 114.179570330,   14.1999,  1, 16,  0.0229,  0.0306,  0.0650, -0.0075, -0.0243, -0.0130, 24.00,   3.9
2096,549985.000,  22.331552450, 114.179580517,   12.4475,  2, 15,  0.4353,  0.5890,  1.4407, -0.0568, -0.4709, -0.1499, 25.00,   1.1
2096,549986.000,  22.331607923, 114.179584181,   11.3681,  2, 16,  0.4309,  0.5252,  1.4133,  0.1154, -0.3833, -0.1997, 26.00,   1.1
2096,549987.000,  22.331654554, 114.179581504,   14.0655,  1, 15,  0.0283,  0.0441,  0.1001,  0.0162, -0.0514, -0.0323, 27.00,   3.7
2096,549988.000,  22.331709026, 114.179588485,   12.2945,  2, 17,  0.4289,  0.5160,  1.2934,  0.0950, -0.4503, -0.2543, 28.00,   1.4
2096,549989.000,  22.331756053, 114.179588075,   13.3511,  2, 16,  0.4312,  0.5253,  1.4135,  0.1153, -0.3831, -0.1999, 29.00,   2.6
2096,549990.000,  22.331799813, 114.179590215,   14.4659,  2, 15,  0.4348,  0.5880,  1.4387, -0.0571, -0.4694, -0.1495,  0.00,   2.9
2096,549991.000,  22.331847253, 114.179591649,   11.3833,  2, 14,  0.4491,  0.6389,  1.5376, -0.1771, -0.2909, -0.2888,  1.00,   1.2
2096,549992.000,  22.331877110, 114.179584252,   17.1115,  2, 14,  0.4491,  0.6389,  1.5375, -0.1772, -0.2906, -0.2887,  2.00,   1.2
2096,549993.000,  22.331912121, 114.179607753,   13.8296,  1, 13,  0.0063,  0.0094,  0.0260,  0.0030, -0.0087, -0.0083,  3.00,   3.6
2096,549994.000,  22.331931032, 114.179618492,   15.2274,  2, 13,  0.5136,  0.6585,  2.1660,  0.2589, -0.5158, -0.6739,  4.00,   1.4
2096,549995.000,  22.331945773, 114.179644348,   13.8728,  1, 13,  0.0079,  0.0122,  0.0516,  0.0038, -0.0046, -0.0102,  5.00,   4.0
2096,549996.000,  22.331953563, 114.179663367,   15.6744,  2, 12,  0.5543,  0.7746,  2.1009,  0.4200,  1.0005,  0.5930,  6.00,   1.0
2096,549997.000,  22.331953223, 114.179700326,   11.2662,  2, 12,  0.6905,  0.5825,  1.6756,  0.4107,  0.1774, -0.2140,  7.00,   1.0
2096,549998.000,  22.331977064, 114.179730482,   16.8165,  2,  8,  1.9654,  1.2792,  3.0696,  1.4662,  1.6771,  2.1364,  8.00,   2.9
2096,549999.000,  22.331931213, 114.179778382,   19.0421,  2, 11,  0.5732,  0.6791,  1.8705,  0.1237,  0.6348,  0.3615,  9.00,   1.4
2096,550000.000,  22.331954411, 114.179808715,   18.5648,  2, 13,  0.5831,  0.8466,  2.5306,  0.4914,  1.2338,  0.8201, 10.00,  73.9
2096,550001.000,  22.331962110, 114.179874859,   18.8144,  2, 15,  0.4521,  0.5438,  1.6873,  0.1210,  0.5585, -0.1082, 11.00,   6.6
2096,550002.000,  22.331947399, 114.179914219,   16.3373,  2, 14,  0.5852,  0.5046,  1.4871,  0.2510,  0.3777,  0.3590, 12.00, 999.9
2096,550003.000,  22.331942896, 114.179958456,   16.3001,  1, 14,  0.4846,  0.1369,  1.0167, -0.2218,  0.2147,  0.2938, 13.00,  42.6
2096,550004.000,  22.331938390, 114.180017361,   14.6285,  2, 16,  0.4476,  0.4837,  1.4557,  0.1752,  0.3162,  0.2085, 14.00,   1.9
2096,550005.000,  22.331952847, 114.180074641,   15.5328,  1, 16,  0.4207,  0.1278,  1.0368, -0.1855,  0.2168,  0.3024, 15.00,  26.8
2096,550006.000,  22.331943310, 114.180134108,   16.8304,  2, 16,  0.4477,  0.4838,  1.4559,  0.1751,  0.3165,  0.2085, 16.00,   1.2
2096,550007.000,  22.331942815, 114.180179605,   16.4246,  1, 16,  0.4214,  0.1348,  1.0893, -0.1853,  0.2361,  0.2931, 17.00,  12.2
2096,550008.000,  22.331943739, 114.180233565,   18.3747,  2, 16,  0.4479,  0.4839,  1.4560,  0.1751,  0.3168,  0.2085, 18.00,   1.8
2096,550009.000,  22.331934116, 114.180277082,   15.2281,  2, 16,  0.4479,  0.4839,  1.4561,  0.1751,  0.3170,  0.2085, 19.00,   1.3
2096,550010.000,  22.331927600, 114.180327943,   16.0228,  2, 15,  0.4971,  0.4987,  1.5660,  0.2380,  0.4123,  0.4094, 20.00,   1.0
2096,550011.000,  22.331928569, 114.180376985,   16.8486,  2, 15,  0.4972,  0.4988,  1.5661,  0.2380,  0.4124,  0.4094, 21.00,   1.0
2096,550012.000,  22.331915728, 114.180422373,   16.0582,  2, 14,  0.5638,  0.6195,  1.8004,  0.3927,  0.7046,  0.6352, 22.00,   1.1
2096,550013.000,  22.331920287, 114.180476320,   16.7824,  2, 15,  0.4974,  0.4989,  1.5663,  0.2380,  0.4127,  0.4095, 23.00,   1.1
2096,550014.000,  22.331914159, 114.180522836,   17.3795,  2, 15,  0.4974,  0.4989,  1.5664,  0.2380,  0.4128,  0.4095, 24.00,   1.0
2096,550015.000,  22.331920890, 114.180574435,   18.8791,  2, 16,  0.4483,  0.4842,  1.4568,  0.1750,  0.3179,  0.2085, 25.00,   1.0
2096,550016.000,  22.331911329, 114.180612871,   16.2142,  2, 15,  0.4692,  0.5555,  1.5500,  0.2613,  0.4951,  0.3415, 26.00,   1.2
2096,550017.000,  22.331913009, 114.180656644,   19.3741,  2, 15,  0.4731,  0.5038,  1.6640,  0.2270, -0.1012, -0.2788, 27.00,   1.3
2096,550018.000,  22.331908464, 114.180695607,   19.3886,  2, 15,  0.4732,  0.5038,  1.6643,  0.2270, -0.1008, -0.2789, 28.00,   1.5
2096,550019.000,  22.331914474, 114.180734648,   17.9765,  2, 15,  0.4978,  0.4992,  1.5670,  0.2381,  0.4135,  0.4095, 29.00,   1.0
2096,550020.000,  22.331904123, 114.180763901,   18.2784,  1, 15,  0.0063,  0.0093,  0.0642,  0.0053,  0.0192,  0.0123,  0.00,   4.1
2096,550021.000,  22.331900892, 114.180792968,   18.4430,  1, 16,  0.0064,  0.0096,  0.0658,  0.0055,  0.0197,  0.0126,  1.00,   3.0
2096,550022.000,  22.331892931, 114.180817509,   18.4728,  1, 16,  0.0066,  0.0097,  0.0359,  0.0053,  0.0154,  0.0075,  2.00,   4.3
2096,550023.000,  22.331879914, 114.180836477,   18.4665,  1, 14,  0.0076,  0.0114,  0.0777,  0.0065,  0.0234,  0.0149,  3.00,   5.2
2096,550024.000,  22.331875745, 114.180852945,   19.8217,  2, 16,  0.4478,  0.4835,  1.4550,  0.1745,  0.3184,  0.2079,  4.00,   1.2
2096,550025.000,  22.331858129, 114.180861095,   22.2274,  2, 16,  0.4478,  0.4835,  1.4550,  0.1745,  0.3185,  0.2079,  5.00,   1.0
2096,550026.000,  22.331833303, 114.180868123,   17.7810,  2, 15,  0.4490,  0.5304,  1.6527,  0.1529, -0.2632,  0.2619,  6.00,   1.3
2096,550027.000,  22.331804723, 114.180865197,   24.5668,  2, 14,  0.4743,  0.5943,  2.1090,  0.2536, -0.6485, -0.3625,  7.00,   1.3
2096,550028.000,  22.331789291, 114.180865730,   17.0428,  2, 13,  0.4705,  0.6968,  2.1260,  0.2376,  0.7251,  0.3698,  8.00,   1.4
2096,550029.000,  22.331762044, 114.180866264,   14.8423,  2, 12,  0.4746,  0.7179,  1.6002, -0.1906,  0.2587, -0.3227,  9.00,   1.5
2096,550030.000,  22.331728558, 114.180862802,   14.2280,  2,  8,  0.5705,  1.1700,  2.5101,  0.2247, -0.2041, -0.4634, 10.00,   1.1
2096,550031.000,  22.331682572, 114.180925862,   14.1932,  2,  6,  1.3205,  4.5978,  4.9776, -2.2587, -3.7366,  1.6286, 11.00,  57.1
2096,550032.000,  22.331647388, 114.180857484,   27.6441,  2,  8,  0.6065,  1.4921,  3.7958,  0.6142, -1.2717, -0.7304, 12.00,   0.0
2096,550033.000,  22.331613099, 114.180848178,   24.6543,  2, 12,  0.5143,  0.7005,  3.3210,  0.2659,  0.5928, -0.6259, 13.00,   0.0
2096,550034.000,  22.331575992, 114.180848336,   21.4574,  2, 11,  0.5181,  0.8210,  3.3213,  0.3121,  0.5781, -0.6279, 14.00,   0.0
2096,550035.000,  22.331537055, 114.180850279,   19.2691,  2, 11,  0.5144,  0.7721,  3.4371,  0.2685,  0.2556, -0.6290, 15.00,   0.0
2096,550036.000,  22.331500881, 114.180849511,   15.5149,  2, 12,  0.4737,  0.7567,  2.1322,  0.2029,  0.6933,  0.3813, 16.00,   0.0
2096,550037.000,  22.331465418, 114.180858574,   24.0280,  2, 12,  0.4738,  0.7568,  2.1322,  0.2028,  0.6936,  0.3813, 17.00,   0.0
2096,550038.000,  22.331420585, 114.180831354,   24.4717,  2, 13,  0.4710,  0.6976,  2.1262,  0.2374,  0.7270,  0.3703, 18.00,   0.0
2096,550039.000,  22.331389758, 114.180843591,   24.7522,  2, 14,  0.4476,  0.6211,  1.5647,  0.0988,  0.2671, -0.2722, 19.00,   0.0
2096,550040.000,  22.331350724, 114.180837509,   20.0984,  2, 13,  0.4712,  0.6587,  1.5627, -0.2331, -0.1723, -0.3541, 20.00,   0.0
2096,550041.000,  22.331308584, 114.180819436,   19.4643,  1, 15,  0.1109,  0.5371,  0.4206,  0.2244, -0.4176, -0.2048, 21.00,   6.7
2096,550042.000,  22.331275798, 114.180825727,   19.7499,  2, 16,  0.4967,  0.4876,  1.5258,  0.1324, -0.3019, -0.5578, 22.00,   1.8
2096,550043.000,  22.331219691, 114.180826568,   19.4339,  2, 16,  0.4968,  0.4877,  1.5259,  0.1323, -0.3018, -0.5579, 23.00,   1.0
2096,550044.000,  22.331185491, 114.180817400,   18.8680,  1, 16,  0.1130,  0.5170,  0.4379,  0.2171, -0.4056, -0.2086, 24.00,   5.7
2096,550045.000,  22.331138268, 114.180812740,   15.0869,  1, 14,  0.1221,  0.5742,  0.4696,  0.2400, -0.4480, -0.2254, 25.00,   5.2
2096,550046.000,  22.331094269, 114.180815691,   17.7381,  1, 13,  0.1258,  0.6031,  0.4822,  0.2490, -0.4621, -0.2315, 26.00,   5.8
2096,550047.000,  22.331046995, 114.180809693,   26.9785,  2, 12,  0.5150,  0.7019,  3.3228,  0.2650,  0.6000, -0.6253, 27.00,   2.8
2096,550048.000,  22.331005816, 114.180813731,   22.7155,  2, 10,  0.5468,  0.8393,  2.3592, -0.0763, -0.7880, -0.6128, 28.00,   9.5
2096,550049.000,  22.330950002, 114.180812966,   28.8300,  2, 10,  0.7409,  0.7669,  3.6494,  0.3820,  0.6937, -0.9920, 29.00,   0.0
2096,550050.000,  22.330904098, 114.180808236,   27.5065,  2, 13,  0.5135,  0.6576,  2.1533,  0.2535, -0.4987, -0.6687,  0.00,   0.0
2096,550051.000,  22.330863569, 114.180822113,   18.0471,  2, 13,  0.4708,  0.6975,  2.1237,  0.2369,  0.7283,  0.3702,  1.00,   1.4
2096,550052.000,  22.330818400, 114.180800084,   21.4785,  2, 13,  0.4709,  0.6975,  2.1236,  0.2369,  0.7284,  0.3702,  2.00,  13.1
2096,550053.000,  22.330757413, 114.180801819,   18.8724,  2, 13,  0.4522,  0.6755,  1.5862, -0.0881,  0.0233, -0.2364,  3.00,   1.3
2096,550054.000,  22.330712925, 114.180798909,   30.9616,  2, 14,  0.4985,  0.5449,  2.1845,  0.1326,  0.5394, -0.5490,  4.00,   1.6
2096,550055.000,  22.330657001, 114.180789770,   19.8005,  2, 16,  0.4484,  0.4835,  1.4548,  0.1735,  0.3220,  0.2072,  5.00,   1.4
2096,550056.000,  22.330593033, 114.180790106,   16.4700,  2, 13,  0.5820,  0.6318,  2.1365,  0.3689,  0.5992,  0.7543,  6.00,   1.1
2096,550057.000,  22.330539215, 114.180795914,   18.2180,  2, 11,  0.6480,  0.7247,  2.1749,  0.4480,  0.6184,  0.8178,  7.00,   1.1
2096,550058.000,  22.330481563, 114.180783979,   18.9856,  2,  8,  0.7096,  1.4709,  2.2127, -0.6579, -0.2493,  0.5010,  8.00,   1.2
2096,550059.000,  22.330426642, 114.180762556,   18.9877,  2,  9,  0.7092,  1.2735,  1.8516, -0.6731, -0.9761,  0.4665,  9.00,   2.2
2096,550060.000,  22.330374464, 114.180766195,   20.5241,  2, 12,  0.5848,  0.6141,  1.4082, -0.2440, -0.3757, -0.3276, 10.00,   1.0
2096,550061.000,  22.330335815, 114.180760014,   24.0361,  1, 15,  0.0269,  0.1184,  0.4680,  0.0205,  0.1816,  0.0789, 11.00,   4.2
2096,550062.000,  22.330314993, 114.180758976,   20.5859,  2, 15,  0.5134,  0.4916,  1.3735, -0.1247,  0.2904, -0.2965, 12.00,   1.1
2096,550063.000,  22.330328324, 114.180737335,   21.5806,  2, 16,  0.4502,  0.4872,  1.3700,  0.0266,  0.2793, -0.2532, 13.00,   1.9
2096,550064.000,  22.330302751, 114.180733096,   17.7966,  2, 17,  0.4412,  0.4543,  1.2623,  0.1284, -0.1251, -0.1278, 14.00,   1.1
2096,550065.000,  22.330289473, 114.180694430,   23.9598,  2, 15,  0.4733,  0.5027,  1.6648,  0.2250, -0.0793, -0.2805, 15.00,   1.0
2096,550066.000,  22.330298854, 114.180654504,   19.4301,  2, 13,  0.6374,  0.5297,  1.6790,  0.3196,  0.1500, -0.2529, 16.00,   1.2
2096,550067.000,  22.330296424, 114.180624241,   21.0869,  2, 14,  0.6296,  0.5019,  1.4498,  0.2919, -0.3477, -0.3858, 17.00,   1.4
2096,550068.000,  22.330284306, 114.180558293,   20.3719,  2, 14,  0.5435,  0.5156,  1.6972,  0.2260, -0.0844, -0.5113, 18.00,   1.6
2096,550069.000,  22.330283131, 114.180503035,   21.1964,  2, 14,  0.4991,  0.5456,  2.1849,  0.1312,  0.5419, -0.5493, 19.00,   1.7
2096,550070.000,  22.330299228, 114.180430713,   17.3538,  2, 13,  0.5441,  0.5749,  2.2086,  0.2373,  0.5934, -0.4817, 20.00,   1.3
2096,550071.000,  22.330316642, 114.180360465,   17.1512,  2, 10,  1.2137,  0.6246,  2.3617, -0.4150,  0.4507,  0.4466, 21.00,   1.4
2096,550072.000,  22.330308217, 114.180293436,   14.7187,  2, 12,  0.6841,  0.5755,  2.2649,  0.2159,  0.6035, -0.6629, 22.00,   1.1
2096,550073.000,  22.330313047, 114.180207880,   15.3268,  2, 13,  0.5316,  0.5739,  2.3790,  0.2223,  0.6789, -0.3611, 23.00,   1.2
2096,550074.000,  22.330302463, 114.180116650,    9.8980,  2, 12,  0.6474,  0.6158,  1.8026,  0.4503,  0.4258,  0.4331, 24.00,   1.1
2096,550075.000,  22.330323351, 114.180043084,   11.0214,  2, 14,  0.5204,  0.5174,  1.7625,  0.2767,  0.2530,  0.2103, 25.00,   1.5
2096,550076.000,  22.330351628, 114.179953209,   18.1235,  2,  9,  1.3244,  0.6714,  2.5265,  0.6009,  0.7307, -0.2727, 26.00,   2.2
2096,550077.000,  22.330312368, 114.179861194,   13.3183,  2, 11,  0.9182,  0.5880,  1.7434,  0.4634,  0.2581,  0.4698, 27.00,   1.4
2096,550078.000,  22.330316755, 114.179776703,   15.1232,  2, 12,  0.6478,  0.6161,  1.8032,  0.4505,  0.4260,  0.4327, 28.00,   1.5
2096,550079.000,  22.330323138, 114.179700200,   14.4559,  2, 14,  0.5208,  0.5177,  1.7633,  0.2768,  0.2538,  0.2100, 29.00,   1.3
2096,550080.000,  22.330333710, 114.179649006,   13.1310,  2, 13,  0.5310,  0.5733,  2.3753,  0.2217,  0.6786, -0.3606,  0.00,   1.2
2096,550081.000,  22.330364671, 114.179590893,   17.2308,  2, 11,  0.6470,  0.9089,  3.4685,  0.3976,  1.4942,  0.4077,  1.00,   2.0
2096,550082.000,  22.330339948, 114.179543384,   15.2456,  1, 13,  0.3456,  0.0846,  0.2118, -0.1652,  0.1256, -0.2292,  2.00,   4.5
2096,550083.000,  22.330360316, 114.179508479,   10.8466,  2, 12,  0.6217,  0.7057,  1.7750,  0.4914,  0.5248,  0.3617,  3.00,   1.8
2096,550084.000,  22.330388983, 114.179489268,   15.1077,  2, 14,  0.5486,  0.6706,  1.6357,  0.3839, -0.7540, -0.4849,  4.00,   1.4
2096,550085.000,  22.330418518, 114.179473803,   16.7967,  2, 14,  0.4573,  0.5877,  1.6939,  0.0462, -0.4001,  0.3149,  5.00,   1.1
2096,550086.000,  22.330452157, 114.179493054,   21.4491,  2, 14,  0.4573,  0.5877,  1.6939,  0.0461, -0.3999,  0.3149,  6.00,   1.4
2096,550087.000,  22.330476670, 114.179502125,   18.9169,  2, 13,  0.4689,  0.6511,  1.6990, -0.1639, -0.4438,  0.3359,  7.00,   2.8
2096,550088.000,  22.330514311, 114.179502974,   14.3978,  2, 15,  0.4736,  0.6907,  1.7452,  0.2242, -0.8684, -0.4107,  8.00,   2.4
2096,550089.000,  22.330554493, 114.179502625,   16.8121,  2, 15,  0.4729,  0.5890,  1.7794,  0.2450, -0.6926, -0.4311,  9.00,   1.2
2096,550090.000,  22.330601864, 114.179503184,   16.1076,  2, 14,  0.4753,  0.5921,  2.1111,  0.2508, -0.6408, -0.3632, 10.00,   1.3
2096,550091.000,  22.330643655, 114.179504109,   15.8059,  2, 15,  0.4504,  0.5294,  1.6498,  0.1503, -0.2476,  0.2612, 11.00,   1.1
2096,550092.000,  22.330693822, 114.179517392,   13.9772,  1, 14,  0.0203,  0.0358,  0.1346,  0.0153, -0.0516, -0.0276, 12.00,   3.8
2096,550093.000,  22.330738235, 114.179534120,   16.2498,  2, 14,  0.4576,  0.5877,  1.6939,  0.0448, -0.3987,  0.3149, 13.00,   1.0
2096,550094.000,  22.330791221, 114.179523442,   15.6409,  2, 14,  0.4577,  0.5877,  1.6939,  0.0447, -0.3985,  0.3149, 14.00,   1.4
2096,550095.000,  22.330846291, 114.179516955,   15.0645,  2, 15,  0.4506,  0.5295,  1.6499,  0.1502, -0.2467,  0.2612, 15.00,   1.2
2096,550096.000,  22.330901338, 114.179528523,   15.8234,  2, 15,  0.4506,  0.5295,  1.6500,  0.1501, -0.2465,  0.2612, 16.00,   1.7
2096,550097.000,  22.330953428, 114.179529616,   15.9968,  2, 15,  0.4507,  0.5295,  1.6501,  0.1501, -0.2463,  0.2612, 17.00,   1.3
2096,550098.000,  22.331006476, 114.179521248,   16.9453,  2, 17,  0.4329,  0.4645,  1.2674,  0.1154,  0.1022, -0.2100, 18.00,   1.1
2096,550099.000,  22.331056645, 114.179530040,   17.6450,  2, 16,  0.4330,  0.5226,  1.4046,  0.1086, -0.3667, -0.2007, 19.00,   1.3
2096,550100.000,  22.331105218, 114.179532518,   17.8715,  2, 16,  0.4331,  0.5227,  1.4047,  0.1086, -0.3666, -0.2007, 20.00,   1.1
2096,550101.000,  22.331148406, 114.179536468,   17.8313,  2, 18,  0.4311,  0.5023,  1.2149,  0.0855, -0.4851, -0.2544, 21.00,   1.0
2096,550102.000,  22.331191852, 114.179538620,   17.2071,  2, 17,  0.4311,  0.5124,  1.2848,  0.0858, -0.4394, -0.2539, 22.00,   1.1
2096,550103.000,  22.331234685, 114.179545209,   15.2348,  2, 16,  0.4333,  0.5228,  1.4048,  0.1084, -0.3663, -0.2008, 23.00,   1.2
2096,550104.000,  22.331286664, 114.179536707,   22.3849,  2, 17,  0.4333,  0.4647,  1.2678,  0.1151,  0.1041, -0.2103, 24.00,   1.0
2096,550105.000,  22.331337008, 114.179546383,   20.6100,  2, 17,  0.4334,  0.4648,  1.2678,  0.1151,  0.1044, -0.2104, 25.00,   1.0
2096,550106.000,  22.331391335, 114.179552238,   18.4144,  2, 16,  0.4374,  0.4955,  1.2693,  0.0560,  0.0315, -0.2021, 26.00,   1.7
2096,550107.000,  22.331447198, 114.179561376,   16.2699,  2, 17,  0.4335,  0.4649,  1.2680,  0.1150,  0.1050, -0.2105, 27.00,   1.1
2096,550108.000,  22.331505577, 114.179566647,   15.4734,  2, 16,  0.4337,  0.5230,  1.4051,  0.1080, -0.3658, -0.2011, 28.00,   1.2
2096,550109.000,  22.331567244, 114.179569389,   15.3819,  2, 15,  0.4690,  0.5923,  1.7647,  0.2474, -0.6560, -0.4804, 29.00,   1.1
2096,550110.000,  22.331632476, 114.179581600,   14.0914,  1, 15,  0.0051,  0.0070,  0.0220,  0.0018, -0.0071, -0.0067,  0.00,   7.0
2096,550111.000,  22.331693408, 114.179585092,   14.0371,  1, 16,  0.0053,  0.0072,  0.0224,  0.0018, -0.0073, -0.0069,  1.00,   6.5
2096,550112.000,  22.331747108, 114.179579269,   15.5199,  2, 15,  0.4377,  0.5846,  1.4284, -0.0730, -0.4512, -0.1514,  2.00,   2.9
2096,550113.000,  22.331806775, 114.179592865,   13.7298,  2, 14,  0.4522,  0.6397,  1.5208, -0.1865, -0.2608, -0.2866,  3.00,   1.4
2096,550114.000,  22.331859467, 114.179600742,   13.3901,  2, 13,  0.4615,  0.6834,  1.5614, -0.2385, -0.3911, -0.2228,  4.00,   1.4
2096,550115.000,  22.331898898, 114.179603581,   16.0285,  2, 12,  0.5142,  0.7611,  2.1890,  0.2255, -0.6389, -0.6532,  5.00,   1.0
2096,550116.000,  22.331935098, 114.179636907,   16.4867,  2, 14,  0.5024,  0.5731,  1.7865,  0.1639,  0.3855, -0.5603,  6.00,   1.1
2096,550117.000,  22.331953457, 114.179658911,   13.4931,  2, 15,  0.4542,  0.5459,  1.6779,  0.1137,  0.5660, -0.1113,  7.00,   1.3
2096,550118.000,  22.331947047, 114.179691403,   16.6127,  2, 13,  0.5557,  0.6401,  1.6726,  0.3974,  0.6743,  0.5446,  8.00,   1.1
2096,550119.000,  22.331976639, 114.179736441,   15.2890,  2, 11,  0.9176,  0.5871,  1.7449,  0.4627,  0.2585,  0.4668,  9.00,   1.3
2096,550120.000,  22.331951280, 114.179770737,   12.6158,  1, 11,  0.3951,  0.2004,  1.5967,  0.2788,  0.5504,  0.7743, 10.00,   6.2
2096,550121.000,  22.331953440, 114.179823571,   19.4128,  1, 14,  0.2923,  0.1501,  1.1792,  0.2055,  0.3965,  0.5550, 11.00,   6.6
2096,550122.000,  22.331944274, 114.179856757,   14.3453,  2, 13,  0.5883,  0.5167,  1.7647,  0.2696,  0.2623,  0.1142, 12.00,   1.1
2096,550123.000,  22.331919075, 114.179892878,   14.1925,  1, 14,  0.3502,  0.1796,  1.4006,  0.2463,  0.4747,  0.6651, 13.00,   5.9
2096,550124.000,  22.331934156, 114.179947420,   12.4292,  2, 14,  0.5573,  0.4998,  1.5607,  0.2188,  0.4210,  0.4107, 14.00,   1.1
2096,550125.000,  22.331938426, 114.179992067,   14.2703,  1, 16,  0.1576,  0.0733,  0.8543,  0.0934,  0.1989,  0.2950, 15.00,   3.2
2096,550126.000,  22.331924102, 114.180018468,   19.6437,  2, 16,  0.4499,  0.4837,  1.4548,  0.1713,  0.3302,  0.2050, 16.00,   1.0
2096,550127.000,  22.331925011, 114.180066751,   17.1098,  2, 16,  0.4500,  0.4837,  1.4549,  0.1712,  0.3303,  0.2050, 17.00,   2.8
2096,550128.000,  22.331929215, 114.180111404,   17.7469,  2, 16,  0.4501,  0.4837,  1.4550,  0.1712,  0.3305,  0.2050, 18.00,   2.5
2096,550129.000,  22.331921657, 114.180162667,   17.1137,  2, 16,  0.4501,  0.4838,  1.4551,  0.1712,  0.3306,  0.2049, 19.00,   1.1
2096,550130.000,  22.331925004, 114.180216989,   16.8733,  2, 16,  0.4502,  0.4838,  1.4552,  0.1712,  0.3308,  0.2049, 20.00,   1.2
2096,550131.000,  22.331922128, 114.180277237,   17.9326,  2, 16,  0.4502,  0.4838,  1.4553,  0.1711,  0.3309,  0.2049, 21.00,   1.1
2096,550132.000,  22.331924446, 114.180338355,   17.9245,  2, 15,  0.4991,  0.4991,  1.5610,  0.2359,  0.4227,  0.4044, 22.00,   1.1
2096,550133.000,  22.331923955, 114.180394540,   17.9291,  2, 15,  0.4992,  0.4992,  1.5611,  0.2359,  0.4228,  0.4044, 23.00,   1.0
2096,550134.000,  22.331921538, 114.180454652,   18.4471,  2, 15,  0.4993,  0.4992,  1.5612,  0.2359,  0.4230,  0.4044, 24.00,   1.1
2096,550135.000,  22.331917875, 114.180514418,   19.5128,  2, 15,  0.4993,  0.4993,  1.5613,  0.2359,  0.4231,  0.4044, 25.00,   1.0
2096,550136.000,  22.331916358, 114.180568394,   20.0338,  2, 15,  0.4994,  0.4993,  1.5615,  0.2359,  0.4232,  0.4044, 26.00,   1.0
2096,550137.000,  22.331910161, 114.180618073,   18.8940,  2, 16,  0.4507,  0.4841,  1.4560,  0.1710,  0.3318,  0.2049, 27.00,   1.2
2096,550138.000,  22.331907851, 114.180666223,   20.0158,  2, 15,  0.4751,  0.5027,  1.6700,  0.2225, -0.0105, -0.2843, 28.00,   1.2
2096,550139.000,  22.331905257, 114.180708963,   19.7510,  2, 16,  0.4508,  0.4843,  1.4563,  0.1710,  0.3321,  0.2049, 29.00,   1.2
2096,550140.000,  22.331894666, 114.180751836,   18.1693,  1, 15,  0.0060,  0.0066,  0.0201,  0.0041,  0.0059,  0.0056,  0.00,   3.2
2096,550141.000,  22.331902977, 114.180782745,   20.5338,  2, 16,  0.4499,  0.4834,  1.4539,  0.1707,  0.3316,  0.2043,  1.00,   2.8
2096,550142.000,  22.331899653, 114.180806717,   19.3134,  2, 16,  0.4500,  0.4834,  1.4539,  0.1706,  0.3317,  0.2043,  2.00,   2.6
2096,550143.000,  22.331886656, 114.180822153,   21.3424,  2, 16,  0.4500,  0.4834,  1.4539,  0.1706,  0.3318,  0.2042,  3.00,   1.6
2096,550144.000,  22.331876360, 114.180838688,   20.0394,  2, 15,  0.4987,  0.4986,  1.5591,  0.2354,  0.4232,  0.4034,  4.00,   2.6
2096,550145.000,  22.331858775, 114.180849450,   20.2502,  2, 16,  0.4500,  0.4834,  1.4539,  0.1705,  0.3321,  0.2042,  5.00,   2.8
2096,550146.000,  22.331829706, 114.180855687,   21.1605,  2, 16,  0.4501,  0.4834,  1.4539,  0.1705,  0.3322,  0.2042,  6.00,   2.0
2096,550147.000,  22.331797029, 114.180854972,   16.6086,  2, 14,  0.4554,  0.6119,  1.4447, -0.0853,  0.4956, -0.2854,  7.00,   1.2
2096,550148.000,  22.331769706, 114.180868371,   21.0982,  2, 10,  0.5658,  0.9216,  1.8972,  0.1371, -0.5157, -0.6372,  8.00,   1.3
2096,550149.000,  22.331737316, 114.180904950,   21.3370,  2, 10,  0.4915,  1.3838,  1.6841, -0.4346, -0.7780, -0.0911,  9.00,   1.1
2096,550150.000,  22.331700526, 114.180851758,   23.2334,  2,  8,  0.6028,  1.0215,  2.7221,  0.2970, -1.2812, -0.6940, 10.00,   1.1
2096,550151.000,  22.331666180, 114.180860060,   29.4484,  2,  9,  0.7531,  0.8607,  4.3933,  0.4103, -0.7220, -1.3617, 11.00,  98.7
2096,550152.000,  22.331619216, 114.180852578,   32.1958,  2, 10,  0.5848,  0.7802,  2.5381,  0.2361,  0.7776, -0.4689, 12.00,   2.9
2096,550153.000,  22.331587182, 114.180855425,   22.1826,  2, 11,  0.5193,  0.8268,  3.2965,  0.3113,  0.6275, -0.6146, 13.00,   3.5
2096,550154.000,  22.331539892, 114.180843660,   19.8308,  2, 10,  0.5195,  0.9541,  3.4018,  0.3203, -0.0735, -0.6227, 14.00,   7.0
2096,550155.000,  22.331487261, 114.180839391,   21.1496,  2, 13,  0.4729,  0.7018,  2.1145,  0.2338,  0.7428,  0.3708, 15.00,   4.0
2096,550156.000,  22.331441403, 114.180845648,   18.4069,  2, 12,  0.4768,  0.7598,  2.1189,  0.1921,  0.7160,  0.3818, 16.00, 340.3
2096,550157.000,  22.331398187, 114.180878280,   34.3850,  2, 13,  0.4803,  0.6405,  1.7909,  0.1935,  0.0618,  0.4270, 17.00, 999.9
2096,550158.000,  22.331356512, 114.180844223,   23.7993,  2, 13,  0.4572,  0.7050,  1.5578, -0.1398,  0.2092, -0.2481, 18.00,  87.5
2096,550159.000,  22.331319005, 114.180820624,   22.8860,  2, 15,  0.4536,  0.6185,  1.3516, -0.1954, -0.4203, -0.3000, 19.00,   5.3
2096,550160.000,  22.331267928, 114.180831342,   21.5743,  2, 16,  0.4979,  0.4866,  1.5136,  0.1227, -0.2892, -0.5537, 20.00,   0.0
2096,550161.000,  22.331240131, 114.180827563,   23.6322,  1, 16,  0.1072,  0.4826,  0.4199,  0.2054, -0.3903, -0.2010, 21.00,  24.9
2096,550162.000,  22.331193509, 114.180830485,   19.6225,  1, 19,  0.1091,  0.4790,  0.4326,  0.2058, -0.3959, -0.2056, 22.00,   7.5
2096,550163.000,  22.331141223, 114.180830705,   22.1581,  2, 14,  0.4540,  0.6409,  1.5154, -0.1907, -0.2483, -0.2863, 23.00,   1.2
2096,550164.000,  22.331111812, 114.180824431,   24.0016,  1, 14,  0.1228,  0.5688,  0.4797,  0.2396, -0.4553, -0.2299, 24.00, 999.9
2096,550165.000,  22.331070217, 114.180815968,   21.3825,  2, 13,  0.4735,  0.7028,  2.1151,  0.2337,  0.7448,  0.3711, 25.00,   1.3
2096,550166.000,  22.331030118, 114.180815511,   23.0217,  1, 14,  0.0665,  0.0984,  0.3038, -0.0503,  0.1117, -0.1163, 26.00,   4.4
2096,550167.000,  22.330989968, 114.180817695,   19.6382,  2, 11,  0.5356,  0.8823,  1.6296, -0.2610, -0.4038, -0.3059, 27.00,   2.5
2096,550168.000,  22.330973683, 114.180805576,   20.6575,  2, 11,  0.6750,  0.6842,  2.2317, -0.1030, -0.4403, -0.7942, 28.00,   2.3
2096,550169.000,  22.330911297, 114.180814900,   19.3897,  2, 13,  0.5145,  0.6577,  2.1289,  0.2422, -0.4627, -0.6590, 29.00,   2.5
2096,550170.000,  22.330893166, 114.180824352,   16.3061,  2, 13,  0.4729,  0.7019,  2.1120,  0.2332,  0.7443,  0.3706,  0.00,   1.1
2096,550171.000,  22.330840654, 114.180812188,   23.8244,  2, 13,  0.4729,  0.7019,  2.1119,  0.2332,  0.7444,  0.3706,  1.00,   1.9
2096,550172.000,  22.330808365, 114.180818992,   23.8504,  2, 15,  0.4423,  0.5628,  1.4179,  0.1696, -0.2777, -0.1451,  2.00,   1.1
2096,550173.000,  22.330772383, 114.180815683,   19.1982,  2, 13,  0.4577,  0.6953,  1.4560,  0.0973,  0.3915, -0.2710,  3.00,   1.1
2096,550174.000,  22.330725442, 114.180813255,   22.5428,  2, 15,  0.4594,  0.5390,  1.4041,  0.1333,  0.4018, -0.1885,  4.00,   1.1
2096,550175.000,  22.330682312, 114.180792803,   25.6556,  2, 14,  0.4712,  0.6808,  1.9197,  0.2476,  0.8402,  0.3186,  5.00,   1.4
2096,550176.000,  22.330636124, 114.180783840,   22.4670,  2, 15,  0.4711,  0.5557,  1.5524,  0.2576,  0.5117,  0.3407,  6.00,   1.0
2096,550177.000,  22.330596060, 114.180778020,   18.0296,  2, 14,  0.5651,  0.6218,  1.7992,  0.3917,  0.7181,  0.6323,  7.00,   1.7
2096,550178.000,  22.330557774, 114.180788913,   22.2753,  2, 12,  0.6486,  0.6592,  2.1621,  0.4345,  0.6735,  0.8206,  8.00,   1.3
2096,550179.000,  22.330523519, 114.180790968,   22.9177,  2, 10,  0.6620,  0.8109,  2.2510,  0.4951,  0.4321,  0.7686,  9.00,   1.2
2096,550180.000,  22.330496265, 114.180788716,   22.9879,  2,  8,  0.7183,  1.4518,  2.1952, -0.6555,  0.1398,  0.4985, 10.00,   1.2
2096,550181.000,  22.330470522, 114.180745290,   22.3732,  2,  8,  0.7184,  1.4517,  2.1951, -0.6555,  0.1421,  0.4985, 11.00,   1.5
2096,550182.000,  22.330447494, 114.180743927,   22.1217,  2,  9,  0.7158,  1.2848,  2.1769, -0.6227,  0.4598,  0.4806, 12.00,   1.6
2096,550183.000,  22.330429636, 114.180750270,   22.1774,  2, 11,  0.6789,  0.8432,  1.7126, -0.4937, -0.7054,  0.3820, 13.00,   1.4
2096,550184.000,  22.330417995, 114.180771036,   22.9210,  2, 12,  0.6689,  0.6799,  1.5913, -0.4308, -0.4265,  0.2688, 14.00,   1.2
2096,550185.000,  22.330391490, 114.180811068,   22.9210,  2, 16,  0.5447,  0.5196,  1.2393, -0.1885, -0.4955, -0.1815, 15.00,   1.7
2096,550186.000,  22.330384161, 114.180792768,   25.7784,  2, 16,  0.5447,  0.5196,  1.2394, -0.1886, -0.4955, -0.1814, 16.00,   1.2
2096,550187.000,  22.330383922, 114.180798598,   23.2255,  2, 12,  0.6206,  0.6838,  1.7084, -0.3279, -0.7430,  0.4208, 17.00,   2.3
2096,550188.000,  22.330384526, 114.180764982,   23.4324,  2, 15,  0.5778,  0.5492,  1.2636, -0.2642, -0.4494, -0.2828, 18.00,   1.1
2096,550189.000,  22.330360084, 114.180757371,   26.8250,  2, 14,  0.5672,  0.5246,  1.4553, -0.1660, -0.4485,  0.2928, 19.00,   1.0
2096,550190.000,  22.330355917, 114.180745058,   23.4682,  2, 15,  0.5175,  0.4913,  1.3632, -0.1338,  0.2960, -0.2945, 20.00,   1.1
2096,550191.000,  22.330337459, 114.180763402,   24.3563,  2, 17,  0.4972,  0.4419,  1.1648, -0.0324, -0.2457, -0.2281, 21.00,   1.1
2096,550192.000,  22.330333168, 114.180753568,   20.6781,  2, 16,  0.5170,  0.4661,  1.2187, -0.1483, -0.0862, -0.3203, 22.00,   1.0
2096,550193.000,  22.330308998, 114.180749715,   18.6455,  2, 18,  0.4405,  0.4399,  1.1644,  0.0933, -0.2484, -0.2116, 23.00,   1.0
2096,550194.000,  22.330302140, 114.180743171,   21.8078,  2, 17,  0.4443,  0.4527,  1.2594,  0.1216, -0.1026, -0.1323, 24.00,   1.8
2096,550195.000,  22.330295304, 114.180727316,   19.9028,  2, 17,  0.4444,  0.4527,  1.2595,  0.1215, -0.1024, -0.1324, 25.00,   1.1
2096,550196.000,  22.330281144, 114.180718124,   23.6748,  2, 17,  0.4444,  0.4527,  1.2595,  0.1215, -0.1023, -0.1324, 26.00,   1.3
2096,550197.000,  22.330289531, 114.180695310,   25.3048,  2, 16,  0.4723,  0.4789,  1.4467,  0.1991, -0.3485, -0.3622, 27.00,   1.0
2096,550198.000,  22.330285338, 114.180673458,   21.8025,  2, 15,  0.4760,  0.5021,  1.6726,  0.2200,  0.0711, -0.2869, 28.00,   1.5
2096,550199.000,  22.330280862, 114.180641673,   18.4551,  2, 14,  0.6333,  0.4991,  1.4523,  0.2863, -0.3386, -0.3873, 29.00,   1.3
2096,550200.000,  22.330300351, 114.180634620,   24.8227,  2, 16,  0.5069,  0.4949,  1.3213,  0.2464, -0.3851, -0.4196,  0.00,   1.2
2096,550201.000,  22.330292285, 114.180590983,   18.9469,  2, 14,  0.5506,  0.5356,  1.4532,  0.3251, -0.3707, -0.3733,  1.00,   1.0
2096,550202.000,  22.330298142, 114.180565130,   21.6099,  2, 16,  0.4715,  0.4781,  1.4449,  0.1986, -0.3474, -0.3616,  2.00,   1.3
2096,550203.000,  22.330295126, 114.180522769,   18.3318,  2, 15,  0.4751,  0.5012,  1.6702,  0.2195,  0.0736, -0.2866,  3.00,   1.1
2096,550204.000,  22.330309517, 114.180491222,   18.1065,  2, 15,  0.4751,  0.5012,  1.6703,  0.2194,  0.0742, -0.2867,  4.00,   1.9
2096,550205.000,  22.330300945, 114.180446706,   19.1107,  2, 14,  0.5001,  0.5475,  2.1706,  0.1174,  0.5579, -0.5461,  5.00,   2.8
2096,550206.000,  22.330297912, 114.180398804,   20.8589,  2, 14,  0.5001,  0.5476,  2.1706,  0.1173,  0.5580, -0.5460,  6.00,   1.1
2096,550207.000,  22.330292123, 114.180336657,   18.5262,  2, 12,  0.6054,  0.5987,  2.2561,  0.3083,  0.5394, -0.6023,  7.00,   1.2
2096,550208.000,  22.330315310, 114.180288861,   18.4706,  2, 14,  0.5001,  0.5476,  2.1705,  0.1170,  0.5583, -0.5460,  8.00,   1.1
2096,550209.000,  22.330317450, 114.180237105,   16.6902,  1, 13,  0.0206,  0.0142,  0.0520,  0.0094,  0.0167, -0.0134,  9.00,   4.5
2096,550210.000,  22.330322933, 114.180172950,   15.2570,  2, 13,  0.5454,  0.5606,  2.2451,  0.1990,  0.4935, -0.6504, 10.00,   1.1
2096,550211.000,  22.330330509, 114.180125423,   17.2718,  2, 13,  0.5648,  0.5750,  1.6838,  0.3628,  0.1997, -0.1869, 11.00,   1.0
2096,550212.000,  22.330345661, 114.180076981,   20.6464,  2, 15,  0.4754,  0.5013,  1.6710,  0.2191,  0.0789, -0.2872, 12.00,   1.6
2096,550213.000,  22.330323878, 114.180027519,   17.6237,  2, 14,  0.5214,  0.5161,  1.7625,  0.2725,  0.2739,  0.1932, 13.00,   2.2
2096,550214.000,  22.330329026, 114.179985048,   15.4796,  1, 12,  0.0302,  0.0206,  0.0749,  0.0135,  0.0247, -0.0193, 14.00,   3.2
2096,550215.000,  22.330314828, 114.179936492,   16.2448,  2,  9,  1.3150,  0.6707,  2.5242,  0.5922,  0.7310, -0.3331, 15.00,   1.0
2096,550216.000,  22.330323140, 114.179887666,   17.5479,  2, 11,  0.9185,  0.5868,  1.7543,  0.4617,  0.2602,  0.4609, 16.00,   1.2
2096,550217.000,  22.330316914, 114.179826034,   15.7648,  2, 13,  0.5652,  0.5751,  1.6847,  0.3628,  0.2001, -0.1883, 17.00,   1.1
2096,550218.000,  22.330338342, 114.179774846,   16.1785,  2, 14,  0.5217,  0.5162,  1.7630,  0.2725,  0.2748,  0.1925, 18.00,   1.4
2096,550219.000,  22.330330610, 114.179698712,   12.6701,  2, 14,  0.5217,  0.5163,  1.7631,  0.2725,  0.2750,  0.1924, 19.00,   1.1
2096,550220.000,  22.330350906, 114.179656239,   16.6112,  2, 13,  0.5331,  0.5768,  2.3514,  0.2148,  0.6896, -0.3647, 20.00,   1.8
2096,550221.000,  22.330330912, 114.179611650,   18.2741,  2, 12,  0.5930,  0.8873,  3.2696,  0.4702,  1.4168,  0.6757, 21.00,   1.6
2096,550222.000,  22.330326547, 114.179547078,   10.3604,  2, 12,  0.6486,  0.6415,  1.9673,  0.4155,  0.6373,  0.4880, 22.00,   2.0
2096,550223.000,  22.330354742, 114.179526061,   14.4940,  1, 13,  0.1056,  0.0847,  0.2270,  0.0831,  0.1292,  0.1238, 23.00,   5.9
2096,550224.000,  22.330372264, 114.179516802,   14.2731,  2, 14,  0.4927,  0.6346,  1.7935,  0.2981, -0.6286, -0.3859, 24.00,   1.3
2096,550225.000,  22.330394449, 114.179491299,   15.1672,  2, 14,  0.4928,  0.6347,  1.7936,  0.2980, -0.6286, -0.3860, 25.00,   1.6
2096,550226.000,  22.330435119, 114.179499446,   15.9282,  2, 14,  0.4744,  0.5903,  1.7488,  0.2400,  0.3339,  0.3871, 26.00,   2.2
2096,550227.000,  22.330470215, 114.179494834,   14.4385,  2, 12,  0.5004,  0.7349,  2.3458,  0.2911, -0.7284, -0.1412, 27.00,   1.0
2096,550228.000,  22.330510539, 114.179506229,   14.6029,  1, 14,  0.0523,  0.0704,  1.0961,  0.0272,  0.1429,  0.0439, 28.00,   3.4
2096,550229.000,  22.330534910, 114.179529075,   13.5002,  2, 15,  0.4759,  0.5842,  1.7791,  0.2381, -0.6834, -0.4313, 29.00,   1.6
2096,550230.000,  22.330552306, 114.179524339,   12.8920,  2, 15,  0.4749,  0.5829,  1.7760,  0.2376, -0.6816, -0.4303,  0.00,   2.3
2096,550231.000,  22.330564461, 114.179519479,   14.7505,  2, 14,  0.4759,  0.6836,  1.8957,  0.2132, -0.8374, -0.4060,  1.00,   1.0
2096,550232.000,  22.330576494, 114.179541929,   14.7745,  2, 14,  0.4759,  0.6835,  1.8956,  0.2131, -0.8373, -0.4059,  2.00,   1.6
2096,550233.000,  22.330582780, 114.179533454,   13.7129,  2, 13,  0.4786,  0.6837,  2.2703,  0.2152, -0.8238, -0.3192,  3.00,   1.0
2096,550234.000,  22.330576920, 114.179505885,   27.1619,  2, 14,  0.4604,  0.5842,  1.6832, -0.0123, -0.3707,  0.3119,  4.00,   2.1
2096,550235.000,  22.330578371, 114.179514538,   24.0834,  2, 14,  0.4604,  0.5842,  1.6831, -0.0130, -0.3705,  0.3119,  5.00,   1.1
2096,550236.000,  22.330581412, 114.179520225,   21.3855,  2, 14,  0.4605,  0.5842,  1.6831, -0.0136, -0.3703,  0.3119,  6.00,   1.5
2096,550237.000,  22.330580200, 114.179512501,   25.0673,  2, 14,  0.4605,  0.5842,  1.6831, -0.0142, -0.3701,  0.3119,  7.00,   1.5
2096,550238.000,  22.330573945, 114.179497539,   30.9102,  2, 14,  0.4606,  0.5842,  1.6831, -0.0148, -0.3699,  0.3118,  8.00,   1.1
2096,550239.000,  22.330573906, 114.179498250,   29.2304,  2, 14,  0.4606,  0.5842,  1.6830, -0.0154, -0.3697,  0.3118,  9.00,   1.2
2096,550240.000,  22.330573279, 114.179501012,   28.3589,  2, 14,  0.4606,  0.5842,  1.6830, -0.0159, -0.3695,  0.3118, 10.00,   1.1
2096,550241.000,  22.330578337, 114.179511936,   22.2747,  2, 14,  0.4607,  0.5842,  1.6830, -0.0164, -0.3693,  0.3118, 11.00,   1.2
2096,550242.000,  22.330583610, 114.179520982,   18.2648,  2, 14,  0.4607,  0.5842,  1.6830, -0.0170, -0.3692,  0.3118, 12.00,   1.1
2096,550243.000,  22.330585967, 114.179531061,   14.5143,  2, 14,  0.4608,  0.5842,  1.6830, -0.0175, -0.3690,  0.3118, 13.00,   2.8
2096,550244.000,  22.330583955, 114.179521953,   17.9778,  2, 14,  0.4608,  0.5842,  1.6831, -0.0180, -0.3688,  0.3118, 14.00,   1.3
2096,550245.000,  22.330580951, 114.179513104,   20.3445,  2, 14,  0.4609,  0.5842,  1.6831, -0.0185, -0.3686,  0.3118, 15.00,   1.0
2096,550246.000,  22.330577845, 114.179511487,   20.4996,  2, 14,  0.4609,  0.5843,  1.6831, -0.0189, -0.3684,  0.3118, 16.00,   1.0
2096,550247.000,  22.330581262, 114.179520052,   15.6742,  2, 14,  0.4610,  0.5843,  1.6832, -0.0194, -0.3682,  0.3118, 17.00,   1.5
2096,550248.000,  22.330576176, 114.179511905,   20.7125,  2, 14,  0.4611,  0.5843,  1.6832, -0.0199, -0.3681,  0.3118, 18.00,   1.1
2096,550249.000,  22.330574569, 114.179507091,   22.6081,  2, 14,  0.4611,  0.5843,  1.6833, -0.0203, -0.3679,  0.3118, 19.00,   1.0
2096,550250.000,  22.330575940, 114.179516502,   18.6126,  2, 14,  0.4612,  0.5844,  1.6833, -0.0208, -0.3677,  0.3118, 20.00,   1.0
2096,550251.000,  22.330576588, 114.179517035,   18.7763,  2, 14,  0.4612,  0.5844,  1.6834, -0.0212, -0.3675,  0.3118, 21.00,   1.1
2096,550252.000,  22.330572494, 114.179503935,   24.2557,  2, 14,  0.4613,  0.5844,  1.6835, -0.0217, -0.3674,  0.3118, 22.00,   1.2
2096,550253.000,  22.330568626, 114.179495220,   28.6718,  2, 14,  0.4614,  0.5845,  1.6835, -0.0221, -0.3672,  0.3118, 23.00,   1.3
2096,550254.000,  22.330569074, 114.179499522,   27.3283,  2, 14,  0.4615,  0.5845,  1.6836, -0.0225, -0.3670,  0.3118, 24.00,   1.3
2096,550255.000,  22.330564757, 114.179495025,   29.6008,  2, 14,  0.4615,  0.5846,  1.6837, -0.0230, -0.3669,  0.3119, 25.00,   1.1
2096,550256.000,  22.330564969, 114.179493827,   30.2500,  2, 14,  0.4616,  0.5846,  1.6838, -0.0234, -0.3667,  0.3119, 26.00,   1.2
2096,550257.000,  22.330565831, 114.179489431,   31.9670,  2, 14,  0.4617,  0.5847,  1.6839, -0.0238, -0.3665,  0.3119, 27.00,   1.2
2096,550258.000,  22.330563650, 114.179479978,   36.3226,  2, 14,  0.4618,  0.5847,  1.6840, -0.0242, -0.3664,  0.3119, 28.00,   1.4
2096,550259.000,  22.330563506, 114.179478986,   37.5255,  2, 14,  0.4619,  0.5848,  1.6841, -0.0246, -0.3662,  0.3119, 29.00,   1.0
2096,550260.000,  22.330563806, 114.179471518,   39.7405,  2, 14,  0.4609,  0.5836,  1.6812, -0.0238, -0.3654,  0.3112,  0.00,   1.0
2096,550261.000,  22.330562437, 114.179472708,   39.6561,  2, 14,  0.4609,  0.5836,  1.6811, -0.0242, -0.3652,  0.3112,  1.00,   1.1
2096,550262.000,  22.330565125, 114.179479759,   37.2969,  2, 14,  0.4610,  0.5836,  1.6811, -0.0245, -0.3650,  0.3111,  2.00,   1.1
2096,550263.000,  22.330562552, 114.179478438,   37.8332,  2, 14,  0.4610,  0.5836,  1.6810, -0.0249, -0.3648,  0.3111,  3.00,   1.1
2096,550264.000,  22.330566136, 114.179484050,   35.5278,  2, 14,  0.4610,  0.5836,  1.6810, -0.0252, -0.3646,  0.3111,  4.00,   1.1
2096,550265.000,  22.330566831, 114.179485662,   34.3050,  2, 14,  0.4611,  0.5836,  1.6809, -0.0255, -0.3644,  0.3111,  5.00,   1.0
2096,550266.000,  22.330565256, 114.179485236,   34.5134,  2, 14,  0.4611,  0.5835,  1.6809, -0.0259, -0.3642,  0.3110,  6.00,   1.0
2096,550267.000,  22.330568360, 114.179485966,   33.9871,  2, 14,  0.4611,  0.5835,  1.6809, -0.0262, -0.3640,  0.3110,  7.00,   1.1
2096,550268.000,  22.330571073, 114.179494434,   31.2286,  2, 14,  0.4612,  0.5835,  1.6808, -0.0265, -0.3638,  0.3110,  8.00,   1.0
2096,550269.000,  22.330574600, 114.179501043,   28.7114,  2, 14,  0.4612,  0.5835,  1.6808, -0.0268, -0.3636,  0.3110,  9.00,   1.0
2096,550270.000,  22.330578892, 114.179510024,   24.5695,  2, 14,  0.4612,  0.5835,  1.6808, -0.0272, -0.3634,  0.3110, 10.00,   1.3
2096,550271.000,  22.330581806, 114.179515585,   22.0115,  2, 14,  0.4613,  0.5836,  1.6808, -0.0275, -0.3632,  0.3110, 11.00,   2.1
2096,550272.000,  22.330586491, 114.179524128,   16.6322,  2, 14,  0.4613,  0.5836,  1.6808, -0.0278, -0.3630,  0.3110, 12.00,   1.5
2096,550273.000,  22.330587617, 114.179528277,   12.7767,  2, 14,  0.4614,  0.5836,  1.6808, -0.0281, -0.3628,  0.3109, 13.00,   2.4
2096,550274.000,  22.330590407, 114.179533487,    9.9199,  2, 14,  0.4614,  0.5836,  1.6808, -0.0284, -0.3627,  0.3109, 14.00,   1.0
2096,550275.000,  22.330590193, 114.179532228,   10.5332,  2, 14,  0.4615,  0.5836,  1.6809, -0.0288, -0.3625,  0.3109, 15.00,   1.2
2096,550276.000,  22.330588129, 114.179528466,   11.6045,  2, 14,  0.4615,  0.5836,  1.6809, -0.0291, -0.3623,  0.3109, 16.00,   1.3
2096,550277.000,  22.330589840, 114.179530263,    9.3871,  2, 14,  0.4616,  0.5837,  1.6809, -0.0294, -0.3621,  0.3109, 17.00,   1.1
2096,550278.000,  22.330590164, 114.179530590,    9.8837,  2, 14,  0.4617,  0.5837,  1.6810, -0.0297, -0.3619,  0.3109, 18.00,   1.0
2096,550279.000,  22.330586934, 114.179524778,   10.7113,  2, 14,  0.4617,  0.5837,  1.6810, -0.0300, -0.3617,  0.3109, 19.00,   1.3
2096,550280.000,  22.330587988, 114.179526756,   10.8159,  2, 14,  0.4618,  0.5837,  1.6811, -0.0303, -0.3616,  0.3109, 20.00,   1.1
2096,550281.000,  22.330586021, 114.179521662,   13.3856,  2, 14,  0.4619,  0.5838,  1.6811, -0.0307, -0.3614,  0.3109, 21.00,   1.9
2096,550282.000,  22.330584330, 114.179516486,   15.7422,  2, 14,  0.4619,  0.5838,  1.6812, -0.0310, -0.3612,  0.3109, 22.00,   1.1
2096,550283.000,  22.330576935, 114.179496633,   24.8745,  2, 14,  0.4620,  0.5839,  1.6813, -0.0313, -0.3610,  0.3109, 23.00,   1.5
2096,550284.000,  22.330578771, 114.179506547,   20.5250,  2, 14,  0.4621,  0.5839,  1.6814, -0.0316, -0.3609,  0.3110, 24.00,   1.7
2096,550285.000,  22.330572102, 114.179493710,   25.3209,  2, 14,  0.4621,  0.5839,  1.6815, -0.0319, -0.3607,  0.3110, 25.00,   1.0
2096,550286.000,  22.330569927, 114.179493334,   26.7734,  2, 14,  0.4622,  0.5840,  1.6816, -0.0322, -0.3605,  0.3110, 26.00,   1.3
2096,550287.000,  22.330568018, 114.179490531,   28.0654,  2, 14,  0.4623,  0.5840,  1.6817, -0.0325, -0.3604,  0.3110, 27.00,   1.1
2096,550288.000,  22.330568450, 114.179494073,   27.1043,  2, 14,  0.4624,  0.5841,  1.6818, -0.0328, -0.3602,  0.3110, 28.00,   1.1
2096,550289.000,  22.330565582, 114.179489298,   29.4455,  2, 14,  0.4625,  0.5842,  1.6819, -0.0331, -0.3600,  0.3110, 29.00,   1.0
2096,550290.000,  22.330566920, 114.179494653,   26.3868,  2, 14,  0.4615,  0.5830,  1.6790, -0.0325, -0.3592,  0.3103,  0.00,   1.1
2096,550291.000,  22.330565825, 114.179498281,   26.3635,  2, 14,  0.4615,  0.5830,  1.6789, -0.0328, -0.3590,  0.3103,  1.00,   1.0
2096,550292.000,  22.330566951, 114.179500500,   25.6719,  2, 14,  0.4616,  0.5830,  1.6788, -0.0330, -0.3588,  0.3102,  2.00,   1.2
2096,550293.000,  22.330566450, 114.179499244,   25.8750,  2, 14,  0.4616,  0.5830,  1.6788, -0.0333, -0.3586,  0.3102,  3.00,   1.2
2096,550294.000,  22.330565227, 114.179493738,   29.5899,  2, 14,  0.4616,  0.5829,  1.6787, -0.0335, -0.3584,  0.3102,  4.00,   1.3
2096,550295.000,  22.330559786, 114.179478312,   35.7072,  2, 14,  0.4617,  0.5829,  1.6787, -0.0338, -0.3582,  0.3101,  5.00,   1.0
2096,550296.000,  22.330567693, 114.179492030,   49.3884,  2, 15,  0.4532,  0.5699,  1.4377, -0.1094, -0.4841,  0.1405,  6.00,   1.0
2096,550297.000,  22.330571923, 114.179497847,   48.9889,  2, 15,  0.4532,  0.5699,  1.4377, -0.1095, -0.4840,  0.1405,  7.00,   1.6
2096,550298.000,  22.330562338, 114.179490476,   32.0558,  2, 14,  0.4618,  0.5829,  1.6786, -0.0346, -0.3576,  0.3101,  8.00,   1.2
2096,550299.000,  22.330563252, 114.179490673,   31.8020,  2, 14,  0.4618,  0.5829,  1.6786, -0.0348, -0.3574,  0.3101,  9.00,   1.0
2096,550300.000,  22.330565108, 114.179493302,   30.6001,  2, 14,  0.4618,  0.5829,  1.6786, -0.0351, -0.3572,  0.3101, 10.00,   1.0
2096,550301.000,  22.330565345, 114.179496190,   29.3371,  2, 14,  0.4619,  0.5829,  1.6786, -0.0353, -0.3570,  0.3100, 11.00,   1.2
2096,550302.000,  22.330567559, 114.179495479,   29.2054,  2, 14,  0.4619,  0.5830,  1.6786, -0.0356, -0.3568,  0.3100, 12.00,   1.0
2096,550303.000,  22.330566730, 114.179494367,   28.9309,  2, 14,  0.4620,  0.5830,  1.6786, -0.0358, -0.3566,  0.3100, 13.00,   1.0
2096,550304.000,  22.330565933, 114.179492695,   29.0247,  2, 14,  0.4620,  0.5830,  1.6786, -0.0361, -0.3565,  0.3100, 14.00,   1.0
2096,550305.000,  22.330567313, 114.179489690,   29.4372,  2, 14,  0.4621,  0.5830,  1.6786, -0.0364, -0.3563,  0.3100, 15.00,   1.0
2096,550306.000,  22.330565404, 114.179487778,   30.0420,  2, 14,  0.4621,  0.5830,  1.6787, -0.0366, -0.3561,  0.3100, 16.00,   1.1
2096,550307.000,  22.330565651, 114.179486111,   30.4629,  2, 14,  0.4622,  0.5830,  1.6787, -0.0369, -0.3559,  0.3100, 17.00,   1.0
2096,550308.000,  22.330563825, 114.179485341,   30.4810,  2, 14,  0.4623,  0.5831,  1.6787, -0.0371, -0.3557,  0.3100, 18.00,   1.0
2096,550309.000,  22.330563275, 114.179484947,   29.8789,  2, 14,  0.4623,  0.5831,  1.6788, -0.0374, -0.3555,  0.3100, 19.00,   1.0
2096,550310.000,  22.330563877, 114.179485920,   30.1843,  2, 14,  0.4624,  0.5831,  1.6788, -0.0376, -0.3553,  0.3100, 20.00,   1.1
2096,550311.000,  22.330563066, 114.179486297,   30.4428,  2, 14,  0.4624,  0.5832,  1.6789, -0.0379, -0.3552,  0.3100, 21.00,   1.0
2096,550312.000,  22.330563231, 114.179486378,   29.6045,  2, 14,  0.4625,  0.5832,  1.6790, -0.0382, -0.3550,  0.3100, 22.00,   1.0
