$GPGGA,112727.000,2222.163267,N,11406.859744,E,1,19,0.8,279.3,M,,M,,*4B
$GPRMC,112727.000,A,2222.163267,N,11406.859744,E,0.3,0.0,300921,,E,A*27
$GPGGA,112728.000,2222.163169,N,11406.859879,E,1,19,0.8,279.4,M,,M,,*4F
$GPRMC,112728.000,A,2222.163169,N,11406.859879,E,0.7,353.440682955,300921,,E,A*20
$GPGGA,112729.000,2222.164643,N,11406.873270,E,1,19,0.8,338.0,M,,M,,*4D
$GPRMC,112729.000,A,2222.164643,N,11406.873270,E,0.6,300.312574971,300921,,E,A*29
$GPGGA,112730.000,2222.164609,N,11406.873386,E,1,19,0.8,338.0,M,,M,,*43
$GPRMC,112730.000,A,2222.164609,N,11406.873386,E,0.4,91.700809471,300921,,E,A*13
$GPGGA,112731.000,2222.164533,N,11406.873419,E,1,19,0.8,337.7,M,,M,,*41
$GPRMC,112731.000,A,2222.164533,N,11406.873419,E,0.3,0.0,300921,,E,A*22
$GPGGA,112732.000,2222.164500,N,11406.873298,E,1,19,0.8,337.2,M,,M,,*48
$GPRMC,112732.000,A,2222.164500,N,11406.873298,E,0.4,8.276084819,300921,,E,A*2E
$GPGGA,112733.000,2222.164426,N,11406.873134,E,1,19,0.8,337.1,M,,M,,*4A
$GPRMC,112733.000,A,2222.164426,N,11406.873134,E,0.7,314.971527138,300921,,E,A*28
$GPGGA,112734.000,2222.164345,N,11406.873025,E,1,19,0.8,337.1,M,,M,,*4E
$GPRMC,112734.000,A,2222.164345,N,11406.873025,E,0.5,300.07928302700003,300921,,E,A*1F
$GPGGA,112735.000,2222.164282,N,11406.873045,E,1,19,0.8,336.9,M,,M,,*4A
$GPRMC,112735.000,A,2222.164282,N,11406.873045,E,0.3,319.703017798,300921,,E,A*29
$GPGGA,112736.000,2222.164408,N,11406.873131,E,1,19,0.8,337.4,M,,M,,*43
$GPRMC,112736.000,A,2222.164408,N,11406.873131,E,0.3,0.0,300921,,E,A*23
$GPGGA,112737.000,2222.164584,N,11406.873505,E,1,19,0.8,338.5,M,,M,,*4A
$GPRMC,112737.000,A,2222.164584,N,11406.873505,E,0.9,0.0,300921,,E,A*2E
$GPGGA,112738.000,2222.164538,N,11406.873693,E,1,19,0.8,338.5,M,,M,,*4E
$GPRMC,112738.000,A,2222.164538,N,11406.873693,E,0.6,0.0,300921,,E,A*25
$GPGGA,112739.000,2222.157773,N,11406.867963,E,1,19,0.8,298.2,M,,M,,*4B
$GPRMC,112739.000,A,2222.157773,N,11406.867963,E,0.1,0.0,300921,,E,A*2B
$GPGGA,112740.000,2222.157647,N,11406.867918,E,1,19,0.8,298.1,M,,M,,*4C
$GPRMC,112740.000,A,2222.157647,N,11406.867918,E,0.5,7.8092550439999995,300921,,E,A*1D
$GPGGA,112741.000,2222.156564,N,11406.866572,E,1,19,0.8,293.4,M,,M,,*41
$GPRMC,112741.000,A,2222.156564,N,11406.866572,E,0.8,222.48591526200002,300921,,E,A*17
$GPGGA,112742.000,2222.145775,N,11406.871716,E,1,19,0.8,273.8,M,,M,,*46
$GPRMC,112742.000,A,2222.145775,N,11406.871716,E,0.5,21.831417569,300921,,E,A*1C
$GPGGA,112743.000,2222.145753,N,11406.871801,E,1,19,0.8,273.5,M,,M,,*47
$GPRMC,112743.000,A,2222.145753,N,11406.871801,E,0.2,258.16650971400003,300921,,E,A*15
$GPGGA,112744.000,2222.145750,N,11406.871956,E,1,19,0.8,273.7,M,,M,,*42
$GPRMC,112744.000,A,2222.145750,N,11406.871956,E,0.4,73.70022819399999,300921,,E,A*2E
$GPGGA,112745.000,2222.145700,N,11406.872132,E,1,19,0.8,274.0,M,,M,,*4F
$GPRMC,112745.000,A,2222.145700,N,11406.872132,E,0.6,80.488596195,300921,,E,A*13
$GPGGA,112746.000,2222.145746,N,11406.872331,E,1,19,0.8,274.5,M,,M,,*4A
$GPRMC,112746.000,A,2222.145746,N,11406.872331,E,0.6,80.516401895,300921,,E,A*13
$GPGGA,112747.000,2222.145796,N,11406.872494,E,1,19,0.8,274.9,M,,M,,*42
$GPRMC,112747.000,A,2222.145796,N,11406.872494,E,0.6,77.865482504,300921,,E,A*18
$GPGGA,112748.000,2222.145812,N,11406.872512,E,1,19,0.8,274.8,M,,M,,*40
$GPRMC,112748.000,A,2222.145812,N,11406.872512,E,0.2,0.0,300921,,E,A*2B
$GPGGA,112749.000,2222.145855,N,11406.872513,E,1,19,0.8,274.8,M,,M,,*43
$GPRMC,112749.000,A,2222.145855,N,11406.872513,E,0.3,77.89420345,300921,,E,A*2C
$GPGGA,112750.000,2222.134558,N,11406.822224,E,1,19,0.8,460.8,M,,M,,*48
$GPRMC,112750.000,A,2222.134558,N,11406.822224,E,0.1,82.196416715,300921,,E,A*17
$GPGGA,112751.000,2222.144440,N,11406.839143,E,1,19,0.8,423.1,M,,M,,*40
$GPRMC,112751.000,A,2222.144440,N,11406.839143,E,0.2,75.16461393899999,300921,,E,A*28
$GPGGA,112752.000,2222.144564,N,11406.839190,E,1,19,0.8,423.4,M,,M,,*4F
$GPRMC,112752.000,A,2222.144564,N,11406.839190,E,0.5,73.984698746,300921,,E,A*18
$GPGGA,112753.000,2222.144549,N,11406.839032,E,1,19,0.8,423.2,M,,M,,*4E
$GPRMC,112753.000,A,2222.144549,N,11406.839032,E,0.4,68.71967468300001,300921,,E,A*25
$GPGGA,112754.000,2222.144506,N,11406.838847,E,1,19,0.8,422.8,M,,M,,*42
$GPRMC,112754.000,A,2222.144506,N,11406.838847,E,0.7,39.704194052,300921,,E,A*1B
$GPGGA,112755.000,2222.144580,N,11406.838732,E,1,19,0.8,422.5,M,,M,,*4D
$GPRMC,112755.000,A,2222.144580,N,11406.838732,E,0.5,0.0,300921,,E,A*29
$GPGGA,112756.000,2222.143219,N,11406.836719,E,1,19,0.8,434.5,M,,M,,*4E
$GPRMC,112756.000,A,2222.143219,N,11406.836719,E,0.3,305.572011938,300921,,E,A*2F
$GPGGA,112757.000,2222.142972,N,11406.836831,E,1,19,0.8,434.1,M,,M,,*49
$GPRMC,112757.000,A,2222.142972,N,11406.836831,E,0.9,57.70099482,300921,,E,A*29
$GPGGA,112758.000,2222.142883,N,11406.836804,E,1,19,0.8,434.1,M,,M,,*4F
$GPRMC,112758.000,A,2222.142883,N,11406.836804,E,0.2,0.0,300921,,E,A*2F
$GPGGA,112759.000,2222.143303,N,11406.836584,E,1,19,0.8,434.1,M,,M,,*49
$GPRMC,112759.000,A,2222.143303,N,11406.836584,E,2.3,0.0,300921,,E,A*2A
$GPGGA,112800.000,2222.143603,N,11406.836389,E,1,19,0.8,433.8,M,,M,,*4A
$GPRMC,112800.000,A,2222.143603,N,11406.836389,E,0.5,0.0,300921,,E,A*23
$GPGGA,112801.000,2222.143664,N,11406.836199,E,1,19,0.8,433.1,M,,M,,*40
$GPRMC,112801.000,A,2222.143664,N,11406.836199,E,0.7,0.0,300921,,E,A*22
$GPGGA,112802.000,2222.143700,N,11406.836078,E,1,19,0.8,432.7,M,,M,,*49
$GPRMC,112802.000,A,2222.143700,N,11406.836078,E,0.5,0.0,300921,,E,A*2E
$GPGGA,112803.000,2222.143733,N,11406.835954,E,1,19,0.8,432.7,M,,M,,*4C
$GPRMC,112803.000,A,2222.143733,N,11406.835954,E,0.5,0.0,300921,,E,A*2B
$GPGGA,112804.000,2222.143871,N,11406.835839,E,1,19,0.8,429.6,M,,M,,*43
$GPRMC,112804.000,A,2222.143871,N,11406.835839,E,0.5,0.0,300921,,E,A*2F
$GPGGA,112805.000,2222.143973,N,11406.835967,E,1,19,0.8,430.3,M,,M,,*46
$GPRMC,112805.000,A,2222.143973,N,11406.835967,E,0.2,232.75886140400002,300921,,E,A*14
$GPGGA,112806.000,2222.144059,N,11406.835870,E,1,19,0.8,430.7,M,,M,,*40
$GPRMC,112806.000,A,2222.144059,N,11406.835870,E,0.4,0.0,300921,,E,A*24
$GPGGA,112807.000,2222.143852,N,11406.836809,E,1,19,0.8,432.0,M,,M,,*4D
$GPRMC,112807.000,A,2222.143852,N,11406.836809,E,1.5,258.268552742,300921,,E,A*2C
$GPGGA,112808.000,2222.143789,N,11406.837055,E,1,19,0.8,432.3,M,,M,,*48
$GPRMC,112808.000,A,2222.143789,N,11406.837055,E,0.3,0.0,300921,,E,A*2D
$GPGGA,112809.000,2222.143831,N,11406.837112,E,1,19,0.8,432.5,M,,M,,*41
$GPRMC,112809.000,A,2222.143831,N,11406.837112,E,0.3,93.593413931,300921,,E,A*1A
$GPGGA,112810.000,2222.143904,N,11406.837264,E,1,19,0.8,433.1,M,,M,,*49
$GPRMC,112810.000,A,2222.143904,N,11406.837264,E,0.6,0.0,300921,,E,A*2A
$GPGGA,112811.000,2222.144002,N,11406.837453,E,1,19,0.8,433.8,M,,M,,*4B
$GPRMC,112811.000,A,2222.144002,N,11406.837453,E,0.7,0.0,300921,,E,A*20
$GPGGA,112812.000,2222.143960,N,11406.837637,E,1,19,0.8,434.2,M,,M,,*4F
$GPRMC,112812.000,A,2222.143960,N,11406.837637,E,0.7,0.0,300921,,E,A*29
$GPGGA,112813.000,2222.144236,N,11406.838366,E,1,19,0.8,434.2,M,,M,,*4F
$GPRMC,112813.000,A,2222.144236,N,11406.838366,E,0.9,0.0,300921,,E,A*27
$GPGGA,112814.000,2222.144202,N,11406.838631,E,1,19,0.8,434.7,M,,M,,*4D
$GPRMC,112814.000,A,2222.144202,N,11406.838631,E,0.9,38.679733967,300921,,E,A*1C
$GPGGA,112815.000,2222.144191,N,11406.838870,E,1,19,0.8,434.9,M,,M,,*40
$GPRMC,112815.000,A,2222.144191,N,11406.838870,E,0.8,281.268094889,300921,,E,A*21
$GPGGA,112816.000,2222.144125,N,11406.839046,E,1,19,0.8,435.0,M,,M,,*48
$GPRMC,112816.000,A,2222.144125,N,11406.839046,E,0.7,0.0,300921,,E,A*2D
$GPGGA,112817.000,2222.144066,N,11406.839171,E,1,19,0.8,435.1,M,,M,,*4B
$GPRMC,112817.000,A,2222.144066,N,11406.839171,E,0.5,0.0,300921,,E,A*2D
$GPGGA,112818.000,2222.144079,N,11406.839218,E,1,19,0.8,435.0,M,,M,,*47
$GPRMC,112818.000,A,2222.144079,N,11406.839218,E,0.3,38.629726736,300921,,E,A*11
$GPGGA,112819.000,2222.144022,N,11406.839234,E,1,19,0.8,435.0,M,,M,,*46
$GPRMC,112819.000,A,2222.144022,N,11406.839234,E,0.4,301.36182864299997,300921,,E,A*13
$GPGGA,112820.000,2222.144012,N,11406.839249,E,1,19,0.8,435.0,M,,M,,*45
$GPRMC,112820.000,A,2222.144012,N,11406.839249,E,0.1,354.482040929,300921,,E,A*2C
$GPGGA,112821.000,2222.144077,N,11406.839224,E,1,19,0.8,435.1,M,,M,,*4D
$GPRMC,112821.000,A,2222.144077,N,11406.839224,E,0.4,257.855080405,300921,,E,A*2B
$GPGGA,112822.000,2222.147070,N,11406.844954,E,1,19,0.8,411.4,M,,M,,*4F
$GPRMC,112822.000,A,2222.147070,N,11406.844954,E,0.7,342.119480349,300921,,E,A*26
$GPGGA,112823.000,2222.147055,N,11406.844975,E,1,19,0.8,411.7,M,,M,,*49
$GPRMC,112823.000,A,2222.147055,N,11406.844975,E,0.3,0.0,300921,,E,A*29
$GPGGA,112824.000,2222.147072,N,11406.845210,E,1,19,0.8,412.2,M,,M,,*44
$GPRMC,112824.000,A,2222.147072,N,11406.845210,E,1.1,0.0,300921,,E,A*21
$GPGGA,112825.000,2222.147051,N,11406.845333,E,1,19,0.8,412.7,M,,M,,*41
$GPRMC,112825.000,A,2222.147051,N,11406.845333,E,0.2,0.0,300921,,E,A*23
$GPGGA,112826.000,2222.147031,N,11406.845393,E,1,19,0.8,413.0,M,,M,,*48
$GPRMC,112826.000,A,2222.147031,N,11406.845393,E,0.5,0.0,300921,,E,A*2B
$GPGGA,112827.000,2222.146988,N,11406.845534,E,1,19,0.8,413.2,M,,M,,*4A
$GPRMC,112827.000,A,2222.146988,N,11406.845534,E,0.5,59.740291254,300921,,E,A*1D
$GPGGA,112828.000,2222.146819,N,11406.846212,E,1,19,0.8,413.9,M,,M,,*47
$GPRMC,112828.000,A,2222.146819,N,11406.846212,E,1.7,10.240578728,300921,,E,A*1E
$GPGGA,112829.000,2222.146708,N,11406.846468,E,1,19,0.8,414.3,M,,M,,*4F
$GPRMC,112829.000,A,2222.146708,N,11406.846468,E,0.4,42.789274423,300921,,E,A*1D
$GPGGA,112830.000,2222.146727,N,11406.846411,E,1,19,0.8,414.4,M,,M,,*43
$GPRMC,112830.000,A,2222.146727,N,11406.846411,E,0.7,0.0,300921,,E,A*21
$GPGGA,112831.000,2222.146833,N,11406.846232,E,1,19,0.8,414.3,M,,M,,*48
$GPRMC,112831.000,A,2222.146833,N,11406.846232,E,0.7,0.0,300921,,E,A*2D
$GPGGA,112832.000,2222.146980,N,11406.846047,E,1,19,0.8,414.2,M,,M,,*43
$GPRMC,112832.000,A,2222.146980,N,11406.846047,E,0.8,279.83438352400003,300921,,E,A*13
$GPGGA,112833.000,2222.146858,N,11406.845859,E,1,19,0.8,412.0,M,,M,,*46
$GPRMC,112833.000,A,2222.146858,N,11406.845859,E,0.8,0.0,300921,,E,A*29
$GPGGA,112834.000,2222.146784,N,11406.845634,E,1,19,0.8,411.9,M,,M,,*40
$GPRMC,112834.000,A,2222.146784,N,11406.845634,E,0.8,27.585343163,300921,,E,A*18
$GPGGA,112835.000,2222.147021,N,11406.845491,E,1,19,0.8,412.1,M,,M,,*4E
$GPRMC,112835.000,A,2222.147021,N,11406.845491,E,0.8,13.70975223,300921,,E,A*2D
$GPGGA,112836.000,2222.146953,N,11406.845435,E,1,19,0.8,411.8,M,,M,,*44
$GPRMC,112836.000,A,2222.146953,N,11406.845435,E,0.6,301.57542232099996,300921,,E,A*18
$GPGGA,112837.000,2222.152820,N,11406.856804,E,1,19,0.8,470.7,M,,M,,*41
$GPRMC,112837.000,A,2222.152820,N,11406.856804,E,0.6,43.106345468,300921,,E,A*1B
$GPGGA,112838.000,2222.152939,N,11406.856664,E,1,19,0.8,470.7,M,,M,,*4F
$GPRMC,112838.000,A,2222.152939,N,11406.856664,E,0.7,0.0,300921,,E,A*2C
$GPGGA,112839.000,2222.152997,N,11406.856579,E,1,19,0.8,470.5,M,,M,,*47
$GPRMC,112839.000,A,2222.152997,N,11406.856579,E,0.3,0.0,300921,,E,A*22
$GPGGA,112840.000,2222.152997,N,11406.856579,E,1,19,0.8,470.5,M,,M,,*49
$GPRMC,112840.000,A,2222.152997,N,11406.856579,E,0.0,0.0,300921,,E,A*2F
$GPGGA,112841.000,2222.153017,N,11406.856568,E,1,19,0.8,470.5,M,,M,,*48
$GPRMC,112841.000,A,2222.153017,N,11406.856568,E,0.1,0.0,300921,,E,A*2F
$GPGGA,112842.000,2222.152960,N,11406.856486,E,1,19,0.8,470.3,M,,M,,*44
$GPRMC,112842.000,A,2222.152960,N,11406.856486,E,0.2,0.0,300921,,E,A*26
$GPGGA,112843.000,2222.152929,N,11406.856432,E,1,19,0.8,470.2,M,,M,,*46
$GPRMC,112843.000,A,2222.152929,N,11406.856432,E,0.2,0.0,300921,,E,A*25
$GPGGA,112844.000,2222.152932,N,11406.856422,E,1,19,0.8,470.1,M,,M,,*49
$GPRMC,112844.000,A,2222.152932,N,11406.856422,E,0.1,0.0,300921,,E,A*2A
$GPGGA,112845.000,2222.152919,N,11406.856419,E,1,19,0.8,469.9,M,,M,,*49
$GPRMC,112845.000,A,2222.152919,N,11406.856419,E,0.1,0.0,300921,,E,A*2A
$GPGGA,112846.000,2222.152938,N,11406.856350,E,1,19,0.8,469.7,M,,M,,*4D
$GPRMC,112846.000,A,2222.152938,N,11406.856350,E,0.2,0.0,300921,,E,A*23
$GPGGA,112847.000,2222.153036,N,11406.856439,E,1,19,0.8,469.8,M,,M,,*4D
$GPRMC,112847.000,A,2222.153036,N,11406.856439,E,0.4,0.0,300921,,E,A*2A
$GPGGA,112848.000,2222.153103,N,11406.856455,E,1,19,0.8,469.7,M,,M,,*40
$GPRMC,112848.000,A,2222.153103,N,11406.856455,E,0.2,301.540123903,300921,,E,A*27
$GPGGA,112849.000,2222.153150,N,11406.856469,E,1,19,0.8,469.8,M,,M,,*47
$GPRMC,112849.000,A,2222.153150,N,11406.856469,E,0.2,301.53479635599996,300921,,E,A*1B
$GPGGA,112850.000,2222.187222,N,11406.760378,E,1,19,0.8,306.4,M,,M,,*4F
$GPRMC,112850.000,A,2222.187222,N,11406.760378,E,0.1,301.526545487,300921,,E,A*23
$GPGGA,112851.000,2222.187214,N,11406.760383,E,1,19,0.8,306.3,M,,M,,*48
$GPRMC,112851.000,A,2222.187214,N,11406.760383,E,0.0,0.0,300921,,E,A*2E
$GPGGA,112852.000,2222.187218,N,11406.760424,E,1,19,0.8,306.4,M,,M,,*4A
$GPRMC,112852.000,A,2222.187218,N,11406.760424,E,0.1,100.769005851,300921,,E,A*2A
$GPGGA,112853.000,2222.187227,N,11406.760403,E,1,19,0.8,306.3,M,,M,,*45
$GPRMC,112853.000,A,2222.187227,N,11406.760403,E,0.0,100.772379964,300921,,E,A*26
$GPGGA,112854.000,2222.187238,N,11406.760385,E,1,19,0.8,306.3,M,,M,,*45
$GPRMC,112854.000,A,2222.187238,N,11406.760385,E,0.0,349.12069753800006,300921,,E,A*1E
$GPGGA,112855.000,2222.187576,N,11406.802071,E,1,19,0.8,342.1,M,,M,,*48
$GPRMC,112855.000,A,2222.187576,N,11406.802071,E,0.2,301.532719978,300921,,E,A*21
$GPGGA,112856.000,2222.125806,N,11406.981434,E,1,19,0.8,268.1,M,,M,,*4F
$GPRMC,112856.000,A,2222.125806,N,11406.981434,E,1.7,340.822536694,300921,,E,A*20
$GPGGA,112857.000,2222.149100,N,11406.936818,E,1,19,0.8,227.8,M,,M,,*47
$GPRMC,112857.000,A,2222.149100,N,11406.936818,E,0.5,0.0,300921,,E,A*2D
$GPGGA,112858.000,2222.151596,N,11406.930623,E,1,19,0.8,221.5,M,,M,,*41
$GPRMC,112858.000,A,2222.151596,N,11406.930623,E,0.2,0.0,300921,,E,A*27
$GPGGA,112859.000,2222.147727,N,11406.912100,E,1,19,0.8,224.3,M,,M,,*4A
$GPRMC,112859.000,A,2222.147727,N,11406.912100,E,0.7,0.0,300921,,E,A*2A
$GPGGA,112900.000,2222.139470,N,11406.914433,E,1,19,0.8,208.4,M,,M,,*45
$GPRMC,112900.000,A,2222.139470,N,11406.914433,E,0.5,121.871722481,300921,,E,A*28
$GPGGA,112901.000,2222.135288,N,11406.931394,E,1,19,0.8,202.3,M,,M,,*49
$GPRMC,112901.000,A,2222.135288,N,11406.931394,E,1.0,90.066741334,300921,,E,A*14
$GPGGA,112902.000,2222.137632,N,11406.923579,E,1,19,0.8,171.5,M,,M,,*4A
$GPRMC,112902.000,A,2222.137632,N,11406.923579,E,0.6,89.830737805,300921,,E,A*1A
$GPGGA,112903.000,2222.138120,N,11406.923870,E,1,19,0.8,171.0,M,,M,,*41
$GPRMC,112903.000,A,2222.138120,N,11406.923870,E,1.0,297.949056283,300921,,E,A*25
$GPGGA,112904.000,2222.138271,N,11406.923959,E,1,19,0.8,170.8,M,,M,,*42
$GPRMC,112904.000,A,2222.138271,N,11406.923959,E,0.5,137.976967223,300921,,E,A*2F
$GPGGA,112905.000,2222.138324,N,11406.923761,E,1,19,0.8,170.5,M,,M,,*4A
$GPRMC,112905.000,A,2222.138324,N,11406.923761,E,0.7,0.0,300921,,E,A*2E
$GPGGA,112906.000,2222.138367,N,11406.923552,E,1,19,0.8,170.4,M,,M,,*4D
$GPRMC,112906.000,A,2222.138367,N,11406.923552,E,0.7,298.929816817,300921,,E,A*28
$GPGGA,112907.000,2222.138448,N,11406.923049,E,1,19,0.8,170.2,M,,M,,*4F
$GPRMC,112907.000,A,2222.138448,N,11406.923049,E,1.4,299.611196497,300921,,E,A*2E
$GPGGA,112908.000,2222.138481,N,11406.922890,E,1,19,0.8,170.0,M,,M,,*4A
$GPRMC,112908.000,A,2222.138481,N,11406.922890,E,0.7,0.0,300921,,E,A*2B
$GPGGA,112909.000,2222.141991,N,11406.925017,E,1,19,0.8,160.8,M,,M,,*40
$GPRMC,112909.000,A,2222.141991,N,11406.925017,E,0.8,37.446225694,300921,,E,A*1B
$GPGGA,112910.000,2222.142188,N,11406.924793,E,1,19,0.8,160.8,M,,M,,*41
$GPRMC,112910.000,A,2222.142188,N,11406.924793,E,0.9,0.0,300921,,E,A*27
$GPGGA,112911.000,2222.142273,N,11406.924529,E,1,19,0.8,160.5,M,,M,,*49
$GPRMC,112911.000,A,2222.142273,N,11406.924529,E,0.8,0.0,300921,,E,A*23
$GPGGA,112912.000,2222.142329,N,11406.924311,E,1,19,0.8,160.4,M,,M,,*48
$GPRMC,112912.000,A,2222.142329,N,11406.924311,E,0.8,0.0,300921,,E,A*23
$GPGGA,112913.000,2222.142387,N,11406.924022,E,1,19,0.8,160.4,M,,M,,*4E
$GPRMC,112913.000,A,2222.142387,N,11406.924022,E,0.9,0.0,300921,,E,A*24
$GPGGA,112914.000,2222.142422,N,11406.923934,E,1,19,0.8,160.6,M,,M,,*4A
$GPRMC,112914.000,A,2222.142422,N,11406.923934,E,0.7,0.0,300921,,E,A*2C
$GPGGA,112915.000,2222.142310,N,11406.925157,E,1,19,0.8,162.1,M,,M,,*43
$GPRMC,112915.000,A,2222.142310,N,11406.925157,E,0.9,38.345987014,300921,,E,A*14
$GPGGA,112916.000,2222.142362,N,11406.925465,E,1,19,0.8,162.3,M,,M,,*43
$GPRMC,112916.000,A,2222.142362,N,11406.925465,E,1.3,281.76260059099997,300921,,E,A*12
$GPGGA,112917.000,2222.142376,N,11406.925607,E,1,19,0.8,162.4,M,,M,,*46
$GPRMC,112917.000,A,2222.142376,N,11406.925607,E,0.7,326.673499135,300921,,E,A*26
$GPGGA,112918.000,2222.142403,N,11406.925721,E,1,19,0.8,162.4,M,,M,,*49
$GPRMC,112918.000,A,2222.142403,N,11406.925721,E,0.5,279.27693079799997,300921,,E,A*16
$GPGGA,112919.000,2222.142431,N,11406.925860,E,1,19,0.8,162.4,M,,M,,*43
$GPRMC,112919.000,A,2222.142431,N,11406.925860,E,0.5,279.27693079799997,300921,,E,A*1C
$GPGGA,112920.000,2222.142452,N,11406.925540,E,1,19,0.8,160.9,M,,M,,*4C
$GPRMC,112920.000,A,2222.142452,N,11406.925540,E,0.2,175.76425158599997,300921,,E,A*1F
$GPGGA,112921.000,2222.142346,N,11406.925260,E,1,19,0.8,161.0,M,,M,,*42
$GPRMC,112921.000,A,2222.142346,N,11406.925260,E,0.6,0.0,300921,,E,A*22
$GPGGA,112922.000,2222.142296,N,11406.925177,E,1,19,0.8,161.1,M,,M,,*49
$GPRMC,112922.000,A,2222.142296,N,11406.925177,E,0.2,60.533214754,300921,,E,A*1E
$GPGGA,112923.000,2222.142301,N,11406.925183,E,1,19,0.8,161.3,M,,M,,*4E
$GPRMC,112923.000,A,2222.142301,N,11406.925183,E,0.1,54.771277348000005,300921,,E,A*12
$GPGGA,112924.000,2222.142287,N,11406.925358,E,1,19,0.8,166.6,M,,M,,*40
$GPRMC,112924.000,A,2222.142287,N,11406.925358,E,0.1,66.51399483899999,300921,,E,A*2F
$GPGGA,112925.000,2222.142424,N,11406.925293,E,1,19,0.8,166.4,M,,M,,*4A
$GPRMC,112925.000,A,2222.142424,N,11406.925293,E,0.3,54.721485269,300921,,E,A*1D
$GPGGA,112926.000,2222.142503,N,11406.925241,E,1,19,0.8,166.1,M,,M,,*47
$GPRMC,112926.000,A,2222.142503,N,11406.925241,E,0.3,0.0,300921,,E,A*24
$GPGGA,112927.000,2222.142569,N,11406.925241,E,1,19,0.8,165.9,M,,M,,*41
$GPRMC,112927.000,A,2222.142569,N,11406.925241,E,0.3,48.689164576,300921,,E,A*15
$GPGGA,112928.000,2222.142959,N,11406.925115,E,1,19,0.8,165.5,M,,M,,*4F
$GPRMC,112928.000,A,2222.142959,N,11406.925115,E,1.0,91.131082895,300921,,E,A*1C
$GPGGA,112929.000,2222.143067,N,11406.925050,E,1,19,0.8,165.5,M,,M,,*4B
$GPRMC,112929.000,A,2222.143067,N,11406.925050,E,0.2,0.0,300921,,E,A*2E
$GPGGA,112930.000,2222.143114,N,11406.924963,E,1,19,0.8,165.5,M,,M,,*4E
$GPRMC,112930.000,A,2222.143114,N,11406.924963,E,0.4,83.714562879,300921,,E,A*13
$GPGGA,112931.000,2222.143140,N,11406.924238,E,1,19,0.8,161.0,M,,M,,*4A
$GPRMC,112931.000,A,2222.143140,N,11406.924238,E,0.6,84.629760427,300921,,E,A*1B
$GPGGA,112932.000,2222.143113,N,11406.924072,E,1,19,0.8,161.1,M,,M,,*42
$GPRMC,112932.000,A,2222.143113,N,11406.924072,E,0.6,117.672645074,300921,,E,A*23
$GPGGA,112933.000,2222.143126,N,11406.924189,E,1,19,0.8,161.3,M,,M,,*42
$GPRMC,112933.000,A,2222.143126,N,11406.924189,E,0.0,42.98114468399999,300921,,E,A*24
$GPGGA,112934.000,2222.143119,N,11406.924105,E,1,19,0.8,161.3,M,,M,,*4D
$GPRMC,112934.000,A,2222.143119,N,11406.924105,E,0.4,49.703700397,300921,,E,A*1F
$GPGGA,112935.000,2222.143119,N,11406.923981,E,1,19,0.8,161.2,M,,M,,*4E
$GPRMC,112935.000,A,2222.143119,N,11406.923981,E,0.4,87.17074109200001,300921,,E,A*2F
$GPGGA,112936.000,2222.143743,N,11406.925872,E,1,19,0.8,175.0,M,,M,,*48
$GPRMC,112936.000,A,2222.143743,N,11406.925872,E,0.7,267.297215987,300921,,E,A*23
$GPGGA,112937.000,2222.143936,N,11406.925851,E,1,19,0.8,175.0,M,,M,,*44
$GPRMC,112937.000,A,2222.143936,N,11406.925851,E,0.7,111.465416895,300921,,E,A*21
$GPGGA,112938.000,2222.143830,N,11406.925756,E,1,19,0.8,174.9,M,,M,,*4C
$GPRMC,112938.000,A,2222.143830,N,11406.925756,E,0.2,285.013114976,300921,,E,A*24
$GPGGA,112939.000,2222.143756,N,11406.925630,E,1,19,0.8,175.1,M,,M,,*4A
$GPRMC,112939.000,A,2222.143756,N,11406.925630,E,0.5,98.993286419,300921,,E,A*1F
$GPGGA,112940.000,2222.143764,N,11406.925238,E,1,19,0.8,175.3,M,,M,,*4B
$GPRMC,112940.000,A,2222.143764,N,11406.925238,E,0.8,243.41477625599998,300921,,E,A*1B
$GPGGA,112941.000,2222.143772,N,11406.925216,E,1,19,0.8,175.8,M,,M,,*4A
$GPRMC,112941.000,A,2222.143772,N,11406.925216,E,0.2,101.286317554,300921,,E,A*2E
$GPGGA,112942.000,2222.143701,N,11406.925079,E,1,19,0.8,175.7,M,,M,,*49
$GPRMC,112942.000,A,2222.143701,N,11406.925079,E,0.7,128.967701715,300921,,E,A*2C
$GPGGA,112943.000,2222.143526,N,11406.925116,E,1,19,0.8,175.7,M,,M,,*47
$GPRMC,112943.000,A,2222.143526,N,11406.925116,E,1.1,162.551755917,300921,,E,A*2F
$GPGGA,112944.000,2222.143449,N,11406.924198,E,1,19,0.8,166.7,M,,M,,*4D
$GPRMC,112944.000,A,2222.143449,N,11406.924198,E,0.4,105.00627767600001,300921,,E,A*19
$GPGGA,112945.000,2222.143374,N,11406.924256,E,1,19,0.8,166.3,M,,M,,*40
$GPRMC,112945.000,A,2222.143374,N,11406.924256,E,0.5,201.96204351,300921,,E,A*1A
$GPGGA,112946.000,2222.143241,N,11406.924258,E,1,19,0.8,166.2,M,,M,,*4B
$GPRMC,112946.000,A,2222.143241,N,11406.924258,E,0.5,235.744910861,300921,,E,A*29
$GPGGA,112947.000,2222.143100,N,11406.924273,E,1,19,0.8,166.3,M,,M,,*44
$GPRMC,112947.000,A,2222.143100,N,11406.924273,E,0.5,118.88694344,300921,,E,A*13
$GPGGA,112948.000,2222.143626,N,11406.928901,E,1,19,0.8,196.3,M,,M,,*45
$GPRMC,112948.000,A,2222.143626,N,11406.928901,E,0.1,53.321310133000004,300921,,E,A*18
$GPGGA,112949.000,2222.143730,N,11406.928888,E,1,19,0.8,196.2,M,,M,,*43
$GPRMC,112949.000,A,2222.143730,N,11406.928888,E,0.6,232.981225045,300921,,E,A*2E
$GPGGA,112950.000,2222.143780,N,11406.928848,E,1,19,0.8,196.2,M,,M,,*4C
$GPRMC,112950.000,A,2222.143780,N,11406.928848,E,0.1,95.095365716,300921,,E,A*11
$GPGGA,112951.000,2222.143826,N,11406.928758,E,1,19,0.8,196.0,M,,M,,*42
$GPRMC,112951.000,A,2222.143826,N,11406.928758,E,0.4,100.415905557,300921,,E,A*22
$GPGGA,112952.000,2222.143929,N,11406.928685,E,1,19,0.8,196.0,M,,M,,*4E
$GPRMC,112952.000,A,2222.143929,N,11406.928685,E,0.4,100.415905557,300921,,E,A*2E
$GPGGA,112953.000,2222.143701,N,11406.928593,E,1,19,0.8,195.8,M,,M,,*44
$GPRMC,112953.000,A,2222.143701,N,11406.928593,E,0.5,253.16853239099999,300921,,E,A*18
$GPGGA,112954.000,2222.143624,N,11406.928678,E,1,19,0.8,195.8,M,,M,,*43
$GPRMC,112954.000,A,2222.143624,N,11406.928678,E,0.2,97.543148449,300921,,E,A*1C
$GPGGA,112955.000,2222.143640,N,11406.928606,E,1,19,0.8,195.4,M,,M,,*45
$GPRMC,112955.000,A,2222.143640,N,11406.928606,E,0.1,99.23454236399999,300921,,E,A*24
$GPGGA,112956.000,2222.143750,N,11406.927383,E,1,19,0.8,188.1,M,,M,,*48
$GPRMC,112956.000,A,2222.143750,N,11406.927383,E,0.5,134.24211045799998,300921,,E,A*11
$GPGGA,112957.000,2222.143690,N,11406.927345,E,1,19,0.8,188.1,M,,M,,*4E
$GPRMC,112957.000,A,2222.143690,N,11406.927345,E,0.2,100.445077295,300921,,E,A*26
$GPGGA,112958.000,2222.143666,N,11406.927349,E,1,19,0.8,187.9,M,,M,,*43
$GPRMC,112958.000,A,2222.143666,N,11406.927349,E,0.1,271.04543260099996,300921,,E,A*15
$GPGGA,112959.000,2222.143655,N,11406.927334,E,1,19,0.8,187.9,M,,M,,*48
$GPRMC,112959.000,A,2222.143655,N,11406.927334,E,0.1,0.0,300921,,E,A*2E
$GPGGA,113000.000,2222.143645,N,11406.927196,E,1,19,0.8,187.5,M,,M,,*4B
$GPRMC,113000.000,A,2222.143645,N,11406.927196,E,0.3,60.762476887,300921,,E,A*14
$GPGGA,113001.000,2222.143642,N,11406.927213,E,1,19,0.8,187.4,M,,M,,*42
$GPRMC,113001.000,A,2222.143642,N,11406.927213,E,0.0,190.00757307799998,300921,,E,A*1E
$GPGGA,113002.000,2222.143630,N,11406.927213,E,1,19,0.8,187.3,M,,M,,*43
$GPRMC,113002.000,A,2222.143630,N,11406.927213,E,0.0,283.14046832900004,300921,,E,A*14
$GPGGA,113003.000,2222.143523,N,11406.927549,E,1,19,0.8,187.4,M,,M,,*4C
$GPRMC,113003.000,A,2222.143523,N,11406.927549,E,0.7,0.0,300921,,E,A*21
$GPGGA,113004.000,2222.143527,N,11406.927728,E,1,19,0.8,187.3,M,,M,,*4D
$GPRMC,113004.000,A,2222.143527,N,11406.927728,E,0.5,0.0,300921,,E,A*25
$GPGGA,113005.000,2222.143546,N,11406.927891,E,1,19,0.8,187.2,M,,M,,*47
$GPRMC,113005.000,A,2222.143546,N,11406.927891,E,0.5,264.370998987,300921,,E,A*24
$GPGGA,113006.000,2222.143607,N,11406.928016,E,1,19,0.8,187.2,M,,M,,*4A
$GPRMC,113006.000,A,2222.143607,N,11406.928016,E,0.5,51.691545016000006,300921,,E,A*1C
$GPGGA,113007.000,2222.143774,N,11406.928134,E,1,19,0.8,187.0,M,,M,,*4D
$GPRMC,113007.000,A,2222.143774,N,11406.928134,E,0.6,126.035665395,300921,,E,A*2C
$GPGGA,113008.000,2222.143908,N,11406.928212,E,1,19,0.8,186.7,M,,M,,*46
$GPRMC,113008.000,A,2222.143908,N,11406.928212,E,0.6,126.15673733,300921,,E,A*1C
$GPGGA,113009.000,2222.143814,N,11406.925189,E,1,19,0.8,171.4,M,,M,,*4C
$GPRMC,113009.000,A,2222.143814,N,11406.925189,E,0.6,67.418694386,300921,,E,A*13
$GPGGA,113010.000,2222.144048,N,11406.925855,E,1,19,0.8,171.7,M,,M,,*49
$GPRMC,113010.000,A,2222.144048,N,11406.925855,E,1.5,109.619660703,300921,,E,A*2F
$GPGGA,113011.000,2222.144066,N,11406.926221,E,1,19,0.8,171.6,M,,M,,*4F
$GPRMC,113011.000,A,2222.144066,N,11406.926221,E,1.2,262.04583864200004,300921,,E,A*1D
$GPGGA,113012.000,2222.144059,N,11406.926755,E,1,19,0.8,171.8,M,,M,,*48
$GPRMC,113012.000,A,2222.144059,N,11406.926755,E,1.7,0.0,300921,,E,A*21
$GPGGA,113013.000,2222.144064,N,11406.927286,E,1,19,0.8,171.9,M,,M,,*4C
$GPRMC,113013.000,A,2222.144064,N,11406.927286,E,1.8,308.190733817,300921,,E,A*21
$GPGGA,113014.000,2222.143938,N,11406.927762,E,1,19,0.8,172.2,M,,M,,*4B
$GPRMC,113014.000,A,2222.143938,N,11406.927762,E,1.7,111.827410095,300921,,E,A*2E
$GPGGA,113015.000,2222.143869,N,11406.928259,E,1,19,0.8,172.5,M,,M,,*4A
$GPRMC,113015.000,A,2222.143869,N,11406.928259,E,1.7,0.0,300921,,E,A*2D
$GPGGA,113016.000,2222.143624,N,11406.928861,E,1,19,0.8,172.6,M,,M,,*4C
$GPRMC,113016.000,A,2222.143624,N,11406.928861,E,1.9,70.122096951,300921,,E,A*12
$GPGGA,113017.000,2222.143543,N,11406.929350,E,1,19,0.8,172.8,M,,M,,*49
$GPRMC,113017.000,A,2222.143543,N,11406.929350,E,1.8,0.0,300921,,E,A*2C
$GPGGA,113018.000,2222.143424,N,11406.929652,E,1,19,0.8,173.0,M,,M,,*48
$GPRMC,113018.000,A,2222.143424,N,11406.929652,E,1.5,144.02205353899998,300921,,E,A*18
$GPGGA,113019.000,2222.142843,N,11406.917776,E,1,19,0.8,159.9,M,,M,,*4E
$GPRMC,113019.000,A,2222.142843,N,11406.917776,E,1.3,105.715681622,300921,,E,A*26
$GPGGA,113020.000,2222.142854,N,11406.918209,E,1,19,0.8,159.9,M,,M,,*40
$GPRMC,113020.000,A,2222.142854,N,11406.918209,E,1.4,0.0,300921,,E,A*21
$GPGGA,113021.000,2222.142700,N,11406.918476,E,1,19,0.8,159.8,M,,M,,*40
$GPRMC,113021.000,A,2222.142700,N,11406.918476,E,1.2,164.488783928,300921,,E,A*2E
$GPGGA,113022.000,2222.142285,N,11406.918941,E,1,19,0.8,159.9,M,,M,,*43
$GPRMC,113022.000,A,2222.142285,N,11406.918941,E,1.5,0.0,300921,,E,A*23
$GPGGA,113023.000,2222.142084,N,11406.919257,E,1,19,0.8,159.9,M,,M,,*4C
$GPRMC,113023.000,A,2222.142084,N,11406.919257,E,1.4,107.32448488899999,300921,,E,A*17
$GPGGA,113024.000,2222.142220,N,11406.909155,E,1,19,0.8,177.9,M,,M,,*4B
$GPRMC,113024.000,A,2222.142220,N,11406.909155,E,1.0,164.545611102,300921,,E,A*20
$GPGGA,113025.000,2222.141973,N,11406.909589,E,1,19,0.8,177.9,M,,M,,*41
$GPRMC,113025.000,A,2222.141973,N,11406.909589,E,1.3,107.354626514,300921,,E,A*2D
$GPGGA,113313.000,2222.106520,N,11406.958248,E,1,19,0.8,24.6,M,,M,,*78
$GPRMC,113313.000,A,2222.106520,N,11406.958248,E,0.3,83.74708824,300921,,E,A*22
$GPGGA,113314.000,2222.106591,N,11406.958403,E,1,19,0.8,24.6,M,,M,,*7C
$GPRMC,113314.000,A,2222.106591,N,11406.958403,E,0.7,67.07323707399999,300921,,E,A*25
$GPGGA,113315.000,2222.106550,N,11406.958511,E,1,19,0.8,24.6,M,,M,,*72
$GPRMC,113315.000,A,2222.106550,N,11406.958511,E,0.4,123.37562087100001,300921,,E,A*1C
$GPGGA,113316.000,2222.106651,N,11406.958518,E,1,19,0.8,24.6,M,,M,,*7A
$GPRMC,113316.000,A,2222.106651,N,11406.958518,E,0.2,132.861100833,300921,,E,A*2E
$GPGGA,113317.000,2222.106580,N,11406.958338,E,1,19,0.8,24.6,M,,M,,*70
$GPRMC,113317.000,A,2222.106580,N,11406.958338,E,0.2,94.818032712,300921,,E,A*1B
$GPGGA,113318.000,2222.106582,N,11406.958286,E,1,19,0.8,24.6,M,,M,,*79
$GPRMC,113318.000,A,2222.106582,N,11406.958286,E,0.2,90.339962565,300921,,E,A*10
$GPGGA,113319.000,2222.106612,N,11406.958289,E,1,19,0.8,24.6,M,,M,,*7D
$GPRMC,113319.000,A,2222.106612,N,11406.958289,E,0.1,87.32874386,300921,,E,A*24
$GPGGA,113320.000,2222.106653,N,11406.958215,E,1,19,0.8,24.6,M,,M,,*77
$GPRMC,113320.000,A,2222.106653,N,11406.958215,E,0.2,87.339863408,300921,,E,A*12
$GPGGA,113321.000,2222.106674,N,11406.958321,E,1,19,0.8,24.6,M,,M,,*75
$GPRMC,113321.000,A,2222.106674,N,11406.958321,E,0.1,82.100391084,300921,,E,A*18
$GPGGA,113322.000,2222.110756,N,11406.953808,E,1,19,0.8,16.8,M,,M,,*74
$GPRMC,113322.000,A,2222.110756,N,11406.953808,E,0.1,88.89334214200001,300921,,E,A*2B
$GPGGA,113323.000,2222.111901,N,11406.952693,E,1,19,0.8,14.4,M,,M,,*7B
$GPRMC,113323.000,A,2222.111901,N,11406.952693,E,0.2,85.633033266,300921,,E,A*11
$GPGGA,113324.000,2222.112276,N,11406.954941,E,1,19,0.8,59.4,M,,M,,*7B
$GPRMC,113324.000,A,2222.112276,N,11406.954941,E,0.3,88.534333734,300921,,E,A*11
$GPGGA,113325.000,2222.112114,N,11406.954900,E,1,19,0.8,59.3,M,,M,,*7F
$GPRMC,113325.000,A,2222.112114,N,11406.954900,E,0.5,82.848440241,300921,,E,A*1C
$GPGGA,113326.000,2222.112046,N,11406.954834,E,1,19,0.8,59.3,M,,M,,*7C
$GPRMC,113326.000,A,2222.112046,N,11406.954834,E,0.4,83.496686672,300921,,E,A*1C
$GPGGA,113327.000,2222.112084,N,11406.954746,E,1,19,0.8,59.4,M,,M,,*7E
$GPRMC,113327.000,A,2222.112084,N,11406.954746,E,0.3,80.524352235,300921,,E,A*1E
$GPGGA,113328.000,2222.112018,N,11406.954786,E,1,19,0.8,59.4,M,,M,,*78
$GPRMC,113328.000,A,2222.112018,N,11406.954786,E,0.2,72.216895504,300921,,E,A*17
$GPGGA,113329.000,2222.112042,N,11406.954760,E,1,19,0.8,59.4,M,,M,,*7E
$GPRMC,113329.000,A,2222.112042,N,11406.954760,E,0.1,63.851901258000005,300921,,E,A*1C
$GPGGA,113330.000,2222.112135,N,11406.954546,E,1,19,0.8,59.4,M,,M,,*71
$GPRMC,113330.000,A,2222.112135,N,11406.954546,E,0.3,72.41055869,300921,,E,A*2D
$GPGGA,113331.000,2222.113051,N,11406.954396,E,1,19,0.8,42.2,M,,M,,*75
$GPRMC,113331.000,A,2222.113051,N,11406.954396,E,0.1,72.388025895,300921,,E,A*15
$GPGGA,113332.000,2222.113038,N,11406.954328,E,1,19,0.8,42.2,M,,M,,*7C
$GPRMC,113332.000,A,2222.113038,N,11406.954328,E,0.2,82.89388149,300921,,E,A*2E
$GPGGA,113333.000,2222.113065,N,11406.954389,E,1,19,0.8,42.2,M,,M,,*7E
$GPRMC,113333.000,A,2222.113065,N,11406.954389,E,0.0,89.49543015399999,300921,,E,A*2A
$GPGGA,113334.000,2222.113045,N,11406.954464,E,1,19,0.8,42.2,M,,M,,*7F
$GPRMC,113334.000,A,2222.113045,N,11406.954464,E,0.1,79.833806442,300921,,E,A*10
$GPGGA,113335.000,2222.112940,N,11406.954391,E,1,19,0.8,42.2,M,,M,,*7E
$GPRMC,113335.000,A,2222.112940,N,11406.954391,E,0.2,91.82601367,300921,,E,A*2F
$GPGGA,113336.000,2222.141383,N,11406.954194,E,1,19,0.8,-9.0,M,,M,,*69
$GPRMC,113336.000,A,2222.141383,N,11406.954194,E,0.1,89.042130984,300921,,E,A*1C
$GPGGA,113337.000,2222.141455,N,11406.954112,E,1,19,0.8,-9.0,M,,M,,*6A
$GPRMC,113337.000,A,2222.141455,N,11406.954112,E,0.2,94.08595936799999,300921,,E,A*22
$GPGGA,113338.000,2222.141374,N,11406.954109,E,1,19,0.8,-9.0,M,,M,,*6B
$GPRMC,113338.000,A,2222.141374,N,11406.954109,E,0.1,76.309442449,300921,,E,A*1E
$GPGGA,113339.000,2222.141358,N,11406.954106,E,1,19,0.8,-9.0,M,,M,,*6B
$GPRMC,113339.000,A,2222.141358,N,11406.954106,E,0.1,100.413658425,300921,,E,A*21
$GPGGA,113340.000,2222.141383,N,11406.954031,E,1,19,0.8,-9.0,M,,M,,*66
$GPRMC,113340.000,A,2222.141383,N,11406.954031,E,0.1,89.075633063,300921,,E,A*13
$GPGGA,113341.000,2222.141372,N,11406.954023,E,1,19,0.8,-9.0,M,,M,,*6A
$GPRMC,113341.000,A,2222.141372,N,11406.954023,E,0.1,89.07887057200001,300921,,E,A*2F
$GPGGA,113342.000,2222.141486,N,11406.953886,E,1,19,0.8,-9.0,M,,M,,*65
$GPRMC,113342.000,A,2222.141486,N,11406.953886,E,0.2,100.283659433,300921,,E,A*25
$GPGGA,113343.000,2222.141717,N,11406.953838,E,1,19,0.8,-9.0,M,,M,,*6A
$GPRMC,113343.000,A,2222.141717,N,11406.953838,E,0.4,76.315009053,300921,,E,A*13
$GPGGA,113344.000,2222.120375,N,11406.942454,E,1,19,0.8,198.8,M,,M,,*40
$GPRMC,113344.000,A,2222.120375,N,11406.942454,E,1.4,98.708037226,300921,,E,A*11
$GPGGA,113345.000,2222.120157,N,11406.942109,E,1,19,0.8,198.9,M,,M,,*4F
$GPRMC,113345.000,A,2222.120157,N,11406.942109,E,1.4,100.19377414200001,300921,,E,A*1B
$GPGGA,113346.000,2222.117750,N,11406.942610,E,1,19,0.8,167.1,M,,M,,*4E
$GPRMC,113346.000,A,2222.117750,N,11406.942610,E,0.2,98.643778805,300921,,E,A*18
$GPGGA,113347.000,2222.117758,N,11406.942439,E,1,19,0.8,167.0,M,,M,,*4F
$GPRMC,113347.000,A,2222.117758,N,11406.942439,E,0.6,98.665792505,300921,,E,A*11
$GPGGA,113348.000,2222.117629,N,11406.942303,E,1,19,0.8,167.0,M,,M,,*49
$GPRMC,113348.000,A,2222.117629,N,11406.942303,E,0.5,98.582771555,300921,,E,A*16
$GPGGA,113349.000,2222.117576,N,11406.942306,E,1,19,0.8,167.0,M,,M,,*44
$GPRMC,113349.000,A,2222.117576,N,11406.942306,E,0.3,107.189001255,300921,,E,A*22
$GPGGA,113350.000,2222.117451,N,11406.942326,E,1,19,0.8,167.0,M,,M,,*4A
$GPRMC,113350.000,A,2222.117451,N,11406.942326,E,0.3,107.182806273,300921,,E,A*2C
$GPGGA,113351.000,2222.118888,N,11406.947218,E,1,19,0.8,189.8,M,,M,,*4D
$GPRMC,113351.000,A,2222.118888,N,11406.947218,E,0.2,98.555744496,300921,,E,A*1F
$GPGGA,113352.000,2222.118652,N,11406.947060,E,1,19,0.8,191.1,M,,M,,*4A
$GPRMC,113352.000,A,2222.118652,N,11406.947060,E,0.4,358.284052115,300921,,E,A*24
$GPGGA,113353.000,2222.118703,N,11406.947162,E,1,19,0.8,191.1,M,,M,,*4D
$GPRMC,113353.000,A,2222.118703,N,11406.947162,E,0.2,92.36745643200001,300921,,E,A*2D
$GPGGA,113354.000,2222.118705,N,11406.947516,E,1,19,0.8,191.0,M,,M,,*4A
$GPRMC,113354.000,A,2222.118705,N,11406.947516,E,0.4,92.322793825,300921,,E,A*1D
$GPGGA,113355.000,2222.117442,N,11406.947828,E,1,19,0.8,163.4,M,,M,,*4D
$GPRMC,113355.000,A,2222.117442,N,11406.947828,E,0.5,98.511320945,300921,,E,A*15
$GPGGA,113356.000,2222.117349,N,11406.947682,E,1,19,0.8,163.4,M,,M,,*4C
$GPRMC,113356.000,A,2222.117349,N,11406.947682,E,0.4,98.463195432,300921,,E,A*10
$GPGGA,113357.000,2222.117402,N,11406.947684,E,1,19,0.8,163.4,M,,M,,*43
$GPRMC,113357.000,A,2222.117402,N,11406.947684,E,0.2,98.45820256299999,300921,,E,A*21
$GPGGA,113358.000,2222.117697,N,11406.947554,E,1,19,0.8,163.3,M,,M,,*4B
$GPRMC,113358.000,A,2222.117697,N,11406.947554,E,0.3,98.473092376,300921,,E,A*17
$GPGGA,113359.000,2222.117666,N,11406.947468,E,1,19,0.8,163.3,M,,M,,*4A
$GPRMC,113359.000,A,2222.117666,N,11406.947468,E,0.2,66.96914499,300921,,E,A*28
$GPGGA,113400.000,2222.117773,N,11406.947637,E,1,19,0.8,163.3,M,,M,,*4C
$GPRMC,113400.000,A,2222.117773,N,11406.947637,E,0.1,98.411675314,300921,,E,A*1D
$GPGGA,113401.000,2222.117807,N,11406.947618,E,1,19,0.8,163.3,M,,M,,*4C
$GPRMC,113401.000,A,2222.117807,N,11406.947618,E,0.1,72.59427029,300921,,E,A*29
$GPGGA,113402.000,2222.115869,N,11406.950065,E,1,19,0.8,195.0,M,,M,,*45
$GPRMC,113402.000,A,2222.115869,N,11406.950065,E,0.5,114.460926164,300921,,E,A*25
$GPGGA,113403.000,2222.114675,N,11406.950722,E,1,19,0.8,174.6,M,,M,,*4B
$GPRMC,113403.000,A,2222.114675,N,11406.950722,E,0.7,114.46266103200001,300921,,E,A*1D
$GPGGA,113404.000,2222.113983,N,11406.952805,E,1,19,0.8,169.9,M,,M,,*46
$GPRMC,113404.000,A,2222.113983,N,11406.952805,E,1.6,114.451432201,300921,,E,A*24
$GPGGA,113405.000,2222.112701,N,11406.953750,E,1,19,0.8,159.1,M,,M,,*47
$GPRMC,113405.000,A,2222.112701,N,11406.953750,E,0.4,114.46105593799999,300921,,E,A*1C
$GPGGA,113406.000,2222.112888,N,11406.953880,E,1,19,0.8,159.0,M,,M,,*49
$GPRMC,113406.000,A,2222.112888,N,11406.953880,E,0.3,114.47666292,300921,,E,A*1F
$GPGGA,113407.000,2222.112978,N,11406.953959,E,1,19,0.8,159.0,M,,M,,*43
$GPRMC,113407.000,A,2222.112978,N,11406.953959,E,0.3,114.47132854200001,300921,,E,A*10
$GPGGA,113408.000,2222.113042,N,11406.954022,E,1,19,0.8,159.0,M,,M,,*4F
$GPRMC,113408.000,A,2222.113042,N,11406.954022,E,0.3,115.778770199,300921,,E,A*2D
$GPGGA,113409.000,2222.113099,N,11406.953977,E,1,19,0.8,159.0,M,,M,,*46
$GPRMC,113409.000,A,2222.113099,N,11406.953977,E,0.2,83.586612944,300921,,E,A*15
$GPGGA,113410.000,2222.113116,N,11406.953919,E,1,19,0.8,159.0,M,,M,,*40
$GPRMC,113410.000,A,2222.113116,N,11406.953919,E,0.1,80.221740701,300921,,E,A*10
$GPGGA,113411.000,2222.113210,N,11406.953896,E,1,19,0.8,159.0,M,,M,,*42
$GPRMC,113411.000,A,2222.113210,N,11406.953896,E,0.2,115.80580408799999,300921,,E,A*1F
$GPGGA,113412.000,2222.112093,N,11406.954337,E,1,19,0.8,147.8,M,,M,,*49
$GPRMC,113412.000,A,2222.112093,N,11406.954337,E,0.0,115.809888541,300921,,E,A*2F
$GPGGA,113413.000,2222.112227,N,11406.954390,E,1,19,0.8,147.8,M,,M,,*48
$GPRMC,113413.000,A,2222.112227,N,11406.954390,E,0.1,83.601741813,300921,,E,A*17
$GPGGA,113414.000,2222.112133,N,11406.954224,E,1,19,0.8,147.8,M,,M,,*47
$GPRMC,113414.000,A,2222.112133,N,11406.954224,E,0.1,83.59131211399999,300921,,E,A*20
$GPGGA,113415.000,2222.111949,N,11406.954201,E,1,19,0.8,147.8,M,,M,,*47
$GPRMC,113415.000,A,2222.111949,N,11406.954201,E,0.2,111.811249867,300921,,E,A*20
$GPGGA,113416.000,2222.111878,N,11406.954252,E,1,19,0.8,147.8,M,,M,,*41
$GPRMC,113416.000,A,2222.111878,N,11406.954252,E,0.2,98.074038569,300921,,E,A*1A
$GPGGA,113417.000,2222.106112,N,11406.962925,E,1,19,0.8,177.2,M,,M,,*44
$GPRMC,113417.000,A,2222.106112,N,11406.962925,E,0.7,111.795560923,300921,,E,A*21
$GPGGA,113418.000,2222.106092,N,11406.962985,E,1,19,0.8,177.2,M,,M,,*48
$GPRMC,113418.000,A,2222.106092,N,11406.962985,E,0.3,113.872314115,300921,,E,A*25
$GPGGA,113419.000,2222.106212,N,11406.962367,E,1,19,0.8,165.1,M,,M,,*45
$GPRMC,113419.000,A,2222.106212,N,11406.962367,E,0.1,113.89373358899999,300921,,E,A*1D
$GPGGA,113420.000,2222.106153,N,11406.962422,E,1,19,0.8,158.3,M,,M,,*43
$GPRMC,113420.000,A,2222.106153,N,11406.962422,E,0.1,113.906260156,300921,,E,A*27
$GPGGA,113421.000,2222.106263,N,11406.962445,E,1,19,0.8,158.3,M,,M,,*43
$GPRMC,113421.000,A,2222.106263,N,11406.962445,E,0.1,114.70619826,300921,,E,A*1C
$GPGGA,113422.000,2222.106244,N,11406.962510,E,1,19,0.8,158.3,M,,M,,*44
$GPRMC,113422.000,A,2222.106244,N,11406.962510,E,0.1,114.72362890299999,300921,,E,A*16
$GPGGA,113423.000,2222.106276,N,11406.962460,E,1,19,0.8,158.3,M,,M,,*42
$GPRMC,113423.000,A,2222.106276,N,11406.962460,E,0.1,114.72028211,300921,,E,A*15
$GPGGA,113424.000,2222.106444,N,11406.962363,E,1,19,0.8,158.3,M,,M,,*46
$GPRMC,113424.000,A,2222.106444,N,11406.962363,E,0.3,114.712468374,300921,,E,A*20
$GPGGA,113425.000,2222.106597,N,11406.962393,E,1,19,0.8,158.3,M,,M,,*47
$GPRMC,113425.000,A,2222.106597,N,11406.962393,E,0.4,114.736674565,300921,,E,A*29
$GPGGA,113426.000,2222.107112,N,11406.961921,E,1,19,0.8,148.0,M,,M,,*4E
$GPRMC,113426.000,A,2222.107112,N,11406.961921,E,0.4,113.93267249700001,300921,,E,A*14
$GPGGA,113427.000,2222.107023,N,11406.962072,E,1,19,0.8,148.0,M,,M,,*40
$GPRMC,113427.000,A,2222.107023,N,11406.962072,E,0.2,110.62828158,300921,,E,A*15
$GPGGA,113428.000,2222.106961,N,11406.962081,E,1,19,0.8,148.0,M,,M,,*4D
$GPRMC,113428.000,A,2222.106961,N,11406.962081,E,0.1,111.88501591100001,300921,,E,A*19
$GPGGA,113429.000,2222.106958,N,11406.962030,E,1,19,0.8,148.0,M,,M,,*4C
$GPRMC,113429.000,A,2222.106958,N,11406.962030,E,0.0,111.91863410299999,300921,,E,A*1B
$GPGGA,113430.000,2222.106994,N,11406.962033,E,1,19,0.8,148.0,M,,M,,*47
$GPRMC,113430.000,A,2222.106994,N,11406.962033,E,0.0,113.966850764,300921,,E,A*28
$GPGGA,113431.000,2222.107026,N,11406.962073,E,1,19,0.8,148.0,M,,M,,*43
$GPRMC,113431.000,A,2222.107026,N,11406.962073,E,0.1,114.56535975799999,300921,,E,A*1E
$GPGGA,113432.000,2222.106990,N,11406.962172,E,1,19,0.8,148.0,M,,M,,*45
$GPRMC,113432.000,A,2222.106990,N,11406.962172,E,0.1,114.78642566299999,300921,,E,A*1C
$GPGGA,113433.000,2222.107025,N,11406.961991,E,1,19,0.8,140.8,M,,M,,*44
$GPRMC,113433.000,A,2222.107025,N,11406.961991,E,0.2,114.79415743700001,300921,,E,A*17
$GPGGA,113434.000,2222.107184,N,11406.961743,E,1,19,0.8,138.6,M,,M,,*49
$GPRMC,113434.000,A,2222.107184,N,11406.961743,E,0.2,114.798542419,300921,,E,A*2A
$GPGGA,113435.000,2222.107159,N,11406.961607,E,1,19,0.8,138.6,M,,M,,*49
$GPRMC,113435.000,A,2222.107159,N,11406.961607,E,0.0,114.802053136,300921,,E,A*29
$GPGGA,113436.000,2222.107125,N,11406.961575,E,1,19,0.8,138.6,M,,M,,*47
$GPRMC,113436.000,A,2222.107125,N,11406.961575,E,0.1,114.808282269,300921,,E,A*2B
$GPGGA,113437.000,2222.107225,N,11406.961519,E,1,19,0.8,138.6,M,,M,,*4F
$GPRMC,113437.000,A,2222.107225,N,11406.961519,E,0.1,115.985943499,300921,,E,A*29
$GPGGA,113438.000,2222.107044,N,11406.961599,E,1,19,0.8,138.6,M,,M,,*4D
$GPRMC,113438.000,A,2222.107044,N,11406.961599,E,0.1,115.982432782,300921,,E,A*2E
$GPGGA,113439.000,2222.106888,N,11406.961604,E,1,19,0.8,138.6,M,,M,,*42
$GPRMC,113439.000,A,2222.106888,N,11406.961604,E,0.3,114.80402023100001,300921,,E,A*16
$GPGGA,113440.000,2222.106853,N,11406.961699,E,1,19,0.8,138.6,M,,M,,*4E
$GPRMC,113440.000,A,2222.106853,N,11406.961699,E,0.3,91.07954228700001,300921,,E,A*28
$GPGGA,113441.000,2222.106878,N,11406.961914,E,1,19,0.8,131.2,M,,M,,*41
$GPRMC,113441.000,A,2222.106878,N,11406.961914,E,0.4,110.716753021,300921,,E,A*26
$GPGGA,113442.000,2222.106075,N,11406.962845,E,1,19,0.8,129.0,M,,M,,*4A
$GPRMC,113442.000,A,2222.106075,N,11406.962845,E,0.4,116.03897308799999,300921,,E,A*12
$GPGGA,113443.000,2222.106034,N,11406.962993,E,1,19,0.8,129.0,M,,M,,*44
$GPRMC,113443.000,A,2222.106034,N,11406.962993,E,0.4,110.740467438,300921,,E,A*23
$GPGGA,113444.000,2222.105979,N,11406.962991,E,1,19,0.8,129.0,M,,M,,*42
$GPRMC,113444.000,A,2222.105979,N,11406.962991,E,0.3,114.031348242,300921,,E,A*26
$GPGGA,113445.000,2222.105805,N,11406.963052,E,1,19,0.8,129.0,M,,M,,*4E
$GPRMC,113445.000,A,2222.105805,N,11406.963052,E,0.4,97.569854489,300921,,E,A*18
$GPGGA,113446.000,2222.105830,N,11406.963017,E,1,19,0.8,129.0,M,,M,,*4A
$GPRMC,113446.000,A,2222.105830,N,11406.963017,E,0.2,109.980499601,300921,,E,A*28
$GPGGA,113447.000,2222.105869,N,11406.963012,E,1,19,0.8,129.0,M,,M,,*42
$GPRMC,113447.000,A,2222.105869,N,11406.963012,E,0.1,109.982719413,300921,,E,A*2B
$GPGGA,113448.000,2222.108379,N,11406.963522,E,1,19,0.8,146.7,M,,M,,*42
$GPRMC,113448.000,A,2222.108379,N,11406.963522,E,0.6,97.59769434100001,300921,,E,A*29
$GPGGA,113449.000,2222.108396,N,11406.963620,E,1,19,0.8,141.7,M,,M,,*44
$GPRMC,113449.000,A,2222.108396,N,11406.963620,E,0.3,97.59047483100001,300921,,E,A*2A
$GPGGA,113450.000,2222.109483,N,11406.964445,E,1,19,0.8,144.5,M,,M,,*4F
$GPRMC,113450.000,A,2222.109483,N,11406.964445,E,0.6,106.045306556,300921,,E,A*28
$GPGGA,113451.000,2222.109491,N,11406.964446,E,1,19,0.8,144.5,M,,M,,*4E
$GPRMC,113451.000,A,2222.109491,N,11406.964446,E,0.2,79.234518807,300921,,E,A*10
$GPGGA,113452.000,2222.109337,N,11406.964435,E,1,19,0.8,144.5,M,,M,,*42
$GPRMC,113452.000,A,2222.109337,N,11406.964435,E,0.2,110.00023201799999,300921,,E,A*18
$GPGGA,113453.000,2222.109168,N,11406.964494,E,1,19,0.8,144.5,M,,M,,*40
$GPRMC,113453.000,A,2222.109168,N,11406.964494,E,0.4,106.069615199,300921,,E,A*2B
$GPGGA,113454.000,2222.109137,N,11406.964532,E,1,19,0.8,144.5,M,,M,,*40
$GPRMC,113454.000,A,2222.109137,N,11406.964532,E,0.3,97.627023173,300921,,E,A*1E
$GPGGA,113455.000,2222.109005,N,11406.964565,E,1,19,0.8,144.5,M,,M,,*43
$GPRMC,113455.000,A,2222.109005,N,11406.964565,E,0.4,106.095959239,300921,,E,A*25
$GPGGA,113456.000,2222.108907,N,11406.964575,E,1,19,0.8,144.5,M,,M,,*4B
$GPRMC,113456.000,A,2222.108907,N,11406.964575,E,0.4,110.03992907799999,300921,,E,A*1A
$GPGGA,113457.000,2222.108697,N,11406.964477,E,1,19,0.8,137.4,M,,M,,*4A
$GPRMC,113457.000,A,2222.108697,N,11406.964477,E,0.3,94.863562754,300921,,E,A*1F
$GPGGA,113458.000,2222.108611,N,11406.964649,E,1,19,0.8,137.4,M,,M,,*44
$GPRMC,113458.000,A,2222.108611,N,11406.964649,E,0.4,89.054063325,300921,,E,A*10
$GPGGA,113459.000,2222.108499,N,11406.964604,E,1,19,0.8,137.3,M,,M,,*49
$GPRMC,113459.000,A,2222.108499,N,11406.964604,E,0.4,89.59502797399999,300921,,E,A*22
$GPGGA,113500.000,2222.109255,N,11406.964747,E,1,19,0.8,136.8,M,,M,,*4F
$GPRMC,113500.000,A,2222.109255,N,11406.964747,E,1.0,89.089552988,300921,,E,A*19
$GPGGA,113501.000,2222.109408,N,11406.964838,E,1,19,0.8,136.2,M,,M,,*4D
$GPRMC,113501.000,A,2222.109408,N,11406.964838,E,0.4,96.784205141,300921,,E,A*18
$GPGGA,113502.000,2222.091077,N,11406.967047,E,1,19,0.8,184.3,M,,M,,*49
$GPRMC,113502.000,A,2222.091077,N,11406.967047,E,0.1,111.622729814,300921,,E,A*20
$GPGGA,113503.000,2222.091004,N,11406.967134,E,1,19,0.8,184.3,M,,M,,*49
$GPRMC,113503.000,A,2222.091004,N,11406.967134,E,0.3,101.082217839,300921,,E,A*28
$GPGGA,113504.000,2222.090894,N,11406.967142,E,1,19,0.8,184.3,M,,M,,*4F
$GPRMC,113504.000,A,2222.090894,N,11406.967142,E,0.3,91.521380399,300921,,E,A*14
$GPGGA,113505.000,2222.092506,N,11406.966175,E,1,19,0.8,174.6,M,,M,,*45
$GPRMC,113505.000,A,2222.092506,N,11406.966175,E,0.4,91.981735155,300921,,E,A*1D
$GPGGA,113506.000,2222.092310,N,11406.966250,E,1,19,0.8,174.6,M,,M,,*43
$GPRMC,113506.000,A,2222.092310,N,11406.966250,E,0.5,84.424233203,300921,,E,A*1F
$GPGGA,113507.000,2222.092160,N,11406.966246,E,1,19,0.8,174.6,M,,M,,*40
$GPRMC,113507.000,A,2222.092160,N,11406.966246,E,0.5,80.510698687,300921,,E,A*13
$GPGGA,113508.000,2222.092176,N,11406.966307,E,1,19,0.8,174.6,M,,M,,*4C
$GPRMC,113508.000,A,2222.092176,N,11406.966307,E,0.3,113.52055253799999,300921,,E,A*15
$GPGGA,113509.000,2222.092022,N,11406.966458,E,1,19,0.8,174.6,M,,M,,*40
$GPRMC,113509.000,A,2222.092022,N,11406.966458,E,0.5,92.006904402,300921,,E,A*17
$GPGGA,113510.000,2222.092019,N,11406.966686,E,1,19,0.8,174.6,M,,M,,*41
$GPRMC,113510.000,A,2222.092019,N,11406.966686,E,0.5,92.01981346,300921,,E,A*2B
$GPGGA,113511.000,2222.093151,N,11406.966201,E,1,19,0.8,169.7,M,,M,,*4A
$GPRMC,113511.000,A,2222.093151,N,11406.966201,E,0.3,89.30477908200001,300921,,E,A*24
$GPGGA,113512.000,2222.094524,N,11406.966673,E,1,19,0.8,172.1,M,,M,,*45
$GPRMC,113512.000,A,2222.094524,N,11406.966673,E,0.2,90.42920581700001,300921,,E,A*2C
$GPGGA,113513.000,2222.094661,N,11406.966568,E,1,19,0.8,172.0,M,,M,,*4E
$GPRMC,113513.000,A,2222.094661,N,11406.966568,E,0.1,82.17821426,300921,,E,A*2C
$GPGGA,113514.000,2222.094661,N,11406.966545,E,1,19,0.8,172.0,M,,M,,*46
$GPRMC,113514.000,A,2222.094661,N,11406.966545,E,0.1,116.257197635,300921,,E,A*2A
$GPGGA,113515.000,2222.094779,N,11406.966496,E,1,19,0.8,172.0,M,,M,,*40
$GPRMC,113515.000,A,2222.094779,N,11406.966496,E,0.2,94.001790946,300921,,E,A*1F
$GPGGA,113516.000,2222.103614,N,11406.969228,E,1,19,0.8,151.5,M,,M,,*4E
$GPRMC,113516.000,A,2222.103614,N,11406.969228,E,0.5,90.748913316,300921,,E,A*16
$GPGGA,113517.000,2222.103650,N,11406.969328,E,1,19,0.8,151.5,M,,M,,*4E
$GPRMC,113517.000,A,2222.103650,N,11406.969328,E,0.3,86.847878046,300921,,E,A*1D
$GPGGA,113518.000,2222.104216,N,11406.968641,E,1,19,0.8,145.9,M,,M,,*42
$GPRMC,113518.000,A,2222.104216,N,11406.968641,E,0.3,83.35440017,300921,,E,A*23
$GPGGA,113519.000,2222.104264,N,11406.968587,E,1,19,0.8,145.9,M,,M,,*4F
$GPRMC,113519.000,A,2222.104264,N,11406.968587,E,0.2,111.684768423,300921,,E,A*23
$GPGGA,113520.000,2222.104225,N,11406.968627,E,1,19,0.8,145.9,M,,M,,*49
$GPRMC,113520.000,A,2222.104225,N,11406.968627,E,0.1,90.77789380899999,300921,,E,A*24
$GPGGA,113521.000,2222.104097,N,11406.968609,E,1,19,0.8,145.8,M,,M,,*4E
$GPRMC,113521.000,A,2222.104097,N,11406.968609,E,0.1,90.778481205,300921,,E,A*1C
$GPGGA,113522.000,2222.104019,N,11406.968631,E,1,19,0.8,145.8,M,,M,,*40
$GPRMC,113522.000,A,2222.104019,N,11406.968631,E,0.2,90.79248992299999,300921,,E,A*2A
$GPGGA,113523.000,2222.108176,N,11406.967225,E,1,19,0.8,156.2,M,,M,,*43
$GPRMC,113523.000,A,2222.108176,N,11406.967225,E,0.1,90.80601369799999,300921,,E,A*26
$GPGGA,113524.000,2222.108185,N,11406.967189,E,1,19,0.8,156.2,M,,M,,*4D
$GPRMC,113524.000,A,2222.108185,N,11406.967189,E,0.1,94.0661928,300921,,E,A*13
$GPGGA,113525.000,2222.107969,N,11406.967130,E,1,19,0.8,151.3,M,,M,,*4D
$GPRMC,113525.000,A,2222.107969,N,11406.967130,E,0.1,91.897744317,300921,,E,A*16
$GPGGA,113526.000,2222.107920,N,11406.967196,E,1,19,0.8,151.3,M,,M,,*4F
$GPRMC,113526.000,A,2222.107920,N,11406.967196,E,0.1,90.823280416,300921,,E,A*11
$GPGGA,113527.000,2222.108004,N,11406.967163,E,1,19,0.8,151.3,M,,M,,*44
$GPRMC,113527.000,A,2222.108004,N,11406.967163,E,0.1,91.902375186,300921,,E,A*1E
$GPGGA,113528.000,2222.107997,N,11406.967168,E,1,19,0.8,151.3,M,,M,,*4C
$GPRMC,113528.000,A,2222.107997,N,11406.967168,E,0.1,90.83281536,300921,,E,A*22
$GPGGA,113529.000,2222.107933,N,11406.967153,E,1,19,0.8,151.3,M,,M,,*4B
$GPRMC,113529.000,A,2222.107933,N,11406.967153,E,0.1,82.595586635,300921,,E,A*14
$GPGGA,113530.000,2222.103833,N,11406.967955,E,1,19,0.8,165.9,M,,M,,*45
$GPRMC,113530.000,A,2222.103833,N,11406.967955,E,0.2,90.84621619200001,300921,,E,A*21
$GPGGA,113531.000,2222.103943,N,11406.967848,E,1,19,0.8,166.0,M,,M,,*45
$GPRMC,113531.000,A,2222.103943,N,11406.967848,E,0.2,116.356016813,300921,,E,A*2D
$GPGGA,113532.000,2222.103877,N,11406.967249,E,1,19,0.8,160.4,M,,M,,*49
$GPRMC,113532.000,A,2222.103877,N,11406.967249,E,0.3,111.12888664100001,300921,,E,A*17
$GPGGA,113533.000,2222.103912,N,11406.967208,E,1,19,0.8,160.4,M,,M,,*4F
$GPRMC,113533.000,A,2222.103912,N,11406.967208,E,0.2,92.655669928,300921,,E,A*19
$GPGGA,113534.000,2222.103990,N,11406.967169,E,1,19,0.8,160.4,M,,M,,*46
$GPRMC,113534.000,A,2222.103990,N,11406.967169,E,0.2,101.198556453,300921,,E,A*23
$GPGGA,113535.000,2222.104047,N,11406.967324,E,1,19,0.8,160.4,M,,M,,*48
$GPRMC,113535.000,A,2222.104047,N,11406.967324,E,0.2,115.24478600299999,300921,,E,A*1C
$GPGGA,113536.000,2222.104143,N,11406.967284,E,1,19,0.8,160.4,M,,M,,*45
$GPRMC,113536.000,A,2222.104143,N,11406.967284,E,0.2,112.296288927,300921,,E,A*25
$GPGGA,113537.000,2222.103712,N,11406.968366,E,1,19,0.8,161.3,M,,M,,*45
$GPRMC,113537.000,A,2222.103712,N,11406.968366,E,1.8,101.200796755,300921,,E,A*24
$GPGGA,113538.000,2222.104070,N,11406.968174,E,1,19,0.8,154.2,M,,M,,*48
$GPRMC,113538.000,A,2222.104070,N,11406.968174,E,1.4,92.67678887299999,300921,,E,A*20
$GPGGA,113539.000,2222.104022,N,11406.968642,E,1,19,0.8,154.2,M,,M,,*4C
$GPRMC,113539.000,A,2222.104022,N,11406.968642,E,1.5,107.105754908,300921,,E,A*2F
$GPGGA,113540.000,2222.103973,N,11406.968356,E,1,19,0.8,154.2,M,,M,,*48
$GPRMC,113540.000,A,2222.103973,N,11406.968356,E,0.4,111.202270194,300921,,E,A*26
$GPGGA,113541.000,2222.103940,N,11406.968377,E,1,19,0.8,154.2,M,,M,,*4A
$GPRMC,113541.000,A,2222.103940,N,11406.968377,E,0.2,115.29222849799999,300921,,E,A*1D
$GPGGA,113542.000,2222.103842,N,11406.968351,E,1,19,0.8,154.2,M,,M,,*4E
$GPRMC,113542.000,A,2222.103842,N,11406.968351,E,0.2,111.173658531,300921,,E,A*26
$GPGGA,113543.000,2222.102012,N,11406.966481,E,1,19,0.8,163.6,M,,M,,*47
$GPRMC,113543.000,A,2222.102012,N,11406.966481,E,1.1,114.77806551100001,300921,,E,A*1E
$GPGGA,113544.000,2222.101788,N,11406.966450,E,1,19,0.8,164.1,M,,M,,*4B
$GPRMC,113544.000,A,2222.101788,N,11406.966450,E,0.3,114.80512672100001,300921,,E,A*13
$GPGGA,113545.000,2222.101875,N,11406.966382,E,1,19,0.8,164.0,M,,M,,*4E
$GPRMC,113545.000,A,2222.101875,N,11406.966382,E,0.2,96.13938063399999,300921,,E,A*2F
$GPGGA,113546.000,2222.102031,N,11406.966418,E,1,19,0.8,164.0,M,,M,,*42
$GPRMC,113546.000,A,2222.102031,N,11406.966418,E,0.4,91.44368016600001,300921,,E,A*20
$GPGGA,113547.000,2222.102103,N,11406.966529,E,1,19,0.8,164.0,M,,M,,*40
$GPRMC,113547.000,A,2222.102103,N,11406.966529,E,0.4,96.09411014,300921,,E,A*20
$GPGGA,113548.000,2222.102134,N,11406.966352,E,1,19,0.8,164.0,M,,M,,*41
$GPRMC,113548.000,A,2222.102134,N,11406.966352,E,0.3,114.826587176,300921,,E,A*23
$GPGGA,113549.000,2222.102572,N,11406.965736,E,1,19,0.8,157.2,M,,M,,*41
$GPRMC,113549.000,A,2222.102572,N,11406.965736,E,0.4,96.05907809899999,300921,,E,A*20
$GPGGA,113550.000,2222.102726,N,11406.965711,E,1,19,0.8,157.2,M,,M,,*4F
$GPRMC,113550.000,A,2222.102726,N,11406.965711,E,0.4,117.237657641,300921,,E,A*2C
$GPGGA,113551.000,2222.102839,N,11406.965660,E,1,19,0.8,157.2,M,,M,,*48
$GPRMC,113551.000,A,2222.102839,N,11406.965660,E,0.4,96.009429453,300921,,E,A*16
$GPGGA,113552.000,2222.103091,N,11406.965496,E,1,19,0.8,157.2,M,,M,,*4B
$GPRMC,113552.000,A,2222.103091,N,11406.965496,E,0.6,95.96554548700001,300921,,E,A*24
$GPGGA,113553.000,2222.103047,N,11406.965486,E,1,19,0.8,157.2,M,,M,,*40
$GPRMC,113553.000,A,2222.103047,N,11406.965486,E,0.4,122.018981362,300921,,E,A*2A
$GPGGA,113554.000,2222.102066,N,11406.963630,E,1,19,0.8,172.4,M,,M,,*4D
$GPRMC,113554.000,A,2222.102066,N,11406.963630,E,0.2,91.485801943,300921,,E,A*19
$GPGGA,113555.000,2222.101750,N,11406.963465,E,1,19,0.8,165.3,M,,M,,*4E
$GPRMC,113555.000,A,2222.101750,N,11406.963465,E,0.2,114.85918083899999,300921,,E,A*1E
$GPGGA,113556.000,2222.101830,N,11406.963543,E,1,19,0.8,165.3,M,,M,,*41
$GPRMC,113556.000,A,2222.101830,N,11406.963543,E,0.2,84.789784931,300921,,E,A*18
$GPGGA,113557.000,2222.101605,N,11406.963562,E,1,19,0.8,165.3,M,,M,,*4B
$GPRMC,113557.000,A,2222.101605,N,11406.963562,E,0.2,91.471554169,300921,,E,A*18
$GPGGA,113558.000,2222.101253,N,11406.963749,E,1,19,0.8,167.7,M,,M,,*4E
$GPRMC,113558.000,A,2222.101253,N,11406.963749,E,0.3,88.003525577,300921,,E,A*1E
$GPGGA,113559.000,2222.101237,N,11406.963778,E,1,19,0.8,167.7,M,,M,,*4F
$GPRMC,113559.000,A,2222.101237,N,11406.963778,E,0.2,91.50840987,300921,,E,A*2D
$GPGGA,113600.000,2222.101209,N,11406.963754,E,1,19,0.8,167.7,M,,M,,*43
$GPRMC,113600.000,A,2222.101209,N,11406.963754,E,0.2,84.814353122,300921,,E,A*13
$GPGGA,113601.000,2222.101279,N,11406.963877,E,1,19,0.8,167.7,M,,M,,*4B
$GPRMC,113601.000,A,2222.101279,N,11406.963877,E,0.2,95.74034731799999,300921,,E,A*2D
$GPGGA,113602.000,2222.101095,N,11406.963804,E,1,19,0.8,167.7,M,,M,,*4C
$GPRMC,113602.000,A,2222.101095,N,11406.963804,E,0.2,80.96486529100001,300921,,E,A*2A
$GPGGA,113603.000,2222.101526,N,11406.963489,E,1,19,0.8,167.7,M,,M,,*49
$GPRMC,113603.000,A,2222.101526,N,11406.963489,E,0.4,82.485852814,300921,,E,A*1B
$GPGGA,113604.000,2222.101882,N,11406.962899,E,1,19,0.8,167.6,M,,M,,*40
$GPRMC,113604.000,A,2222.101882,N,11406.962899,E,1.1,160.070389144,300921,,E,A*25
$GPGGA,113605.000,2222.102704,N,11406.962381,E,1,19,0.8,167.6,M,,M,,*41
$GPRMC,113605.000,A,2222.102704,N,11406.962381,E,2.2,109.27065169299999,300921,,E,A*1C
$GPGGA,113606.000,2222.103694,N,11406.961989,E,1,19,0.8,167.7,M,,M,,*4B
$GPRMC,113606.000,A,2222.103694,N,11406.961989,E,3.6,-22.749227088,300921,,E,A*39
$GPGGA,113759.000,2222.157633,N,11406.899631,E,1,19,0.8,32.4,M,,M,,*74
$GPRMC,113759.000,A,2222.157633,N,11406.899631,E,1.8,130.071337355,300921,,E,A*28
$GPGGA,113800.000,2222.157820,N,11406.899134,E,1,19,0.8,32.4,M,,M,,*79
$GPRMC,113800.000,A,2222.157820,N,11406.899134,E,1.8,83.970305655,300921,,E,A*10
$GPGGA,113801.000,2222.157955,N,11406.898575,E,1,19,0.8,32.4,M,,M,,*7B
$GPRMC,113801.000,A,2222.157955,N,11406.898575,E,1.9,93.51702509399999,300921,,E,A*2B
$GPGGA,113802.000,2222.158258,N,11406.898010,E,1,19,0.8,32.3,M,,M,,*70
$GPRMC,113802.000,A,2222.158258,N,11406.898010,E,2.0,130.802509114,300921,,E,A*20
$GPGGA,113803.000,2222.337086,N,11407.006733,E,1,19,0.8,77.4,M,,M,,*75
$GPRMC,113803.000,A,2222.337086,N,11407.006733,E,2.2,69.133024076,300921,,E,A*18
$GPGGA,113804.000,2222.337348,N,11407.006048,E,1,19,0.8,77.4,M,,M,,*78
$GPRMC,113804.000,A,2222.337348,N,11407.006048,E,2.3,262.964499096,300921,,E,A*2B
$GPGGA,113805.000,2222.337581,N,11407.005491,E,1,19,0.8,77.5,M,,M,,*78
$GPRMC,113805.000,A,2222.337581,N,11407.005491,E,2.2,107.35445575899999,300921,,E,A*1E
$GPGGA,113806.000,2222.337792,N,11407.004806,E,1,19,0.8,77.5,M,,M,,*78
$GPRMC,113806.000,A,2222.337792,N,11407.004806,E,2.2,70.423882033,300921,,E,A*1D
$GPGGA,113807.000,2222.431730,N,11407.056203,E,1,19,0.8,65.0,M,,M,,*7E
$GPRMC,113807.000,A,2222.431730,N,11407.056203,E,3.2,-43.501539368,300921,,E,A*30
$GPGGA,113808.000,2222.432206,N,11407.055591,E,1,19,0.8,65.0,M,,M,,*7D
$GPRMC,113808.000,A,2222.432206,N,11407.055591,E,2.5,70.01414581,300921,,E,A*22
$GPGGA,113809.000,2222.432494,N,11407.054957,E,1,19,0.8,65.0,M,,M,,*76
$GPRMC,113809.000,A,2222.432494,N,11407.054957,E,2.3,46.111772171999995,300921,,E,A*1E
$GPGGA,113810.000,2222.432792,N,11407.054283,E,1,19,0.8,65.0,M,,M,,*79
$GPRMC,113810.000,A,2222.432792,N,11407.054283,E,2.4,46.284572545,300921,,E,A*14
$GPGGA,113811.000,2222.433101,N,11407.053681,E,1,19,0.8,65.0,M,,M,,*74
$GPRMC,113811.000,A,2222.433101,N,11407.053681,E,2.4,46.284015885,300921,,E,A*1C
$GPGGA,113812.000,2222.433430,N,11407.053148,E,1,19,0.8,65.0,M,,M,,*72
$GPRMC,113812.000,A,2222.433430,N,11407.053148,E,2.3,51.214087466,300921,,E,A*18
$GPGGA,113813.000,2222.433954,N,11407.052997,E,1,19,0.8,65.0,M,,M,,*77
$GPRMC,113813.000,A,2222.433954,N,11407.052997,E,2.1,46.284333489,300921,,E,A*1D
$GPGGA,113814.000,2222.434488,N,11407.052539,E,1,19,0.8,65.0,M,,M,,*73
$GPRMC,113814.000,A,2222.434488,N,11407.052539,E,2.3,46.159153195,300921,,E,A*14
$GPGGA,113815.000,2222.434730,N,11407.051958,E,1,19,0.8,65.0,M,,M,,*7A
$GPRMC,113815.000,A,2222.434730,N,11407.051958,E,2.2,46.287154357,300921,,E,A*17
$GPGGA,113816.000,2222.434996,N,11407.051455,E,1,19,0.8,65.0,M,,M,,*7B
$GPRMC,113816.000,A,2222.434996,N,11407.051455,E,2.0,46.296388773000004,300921,,E,A*11
$GPGGA,113817.000,2222.435125,N,11407.050792,E,1,19,0.8,65.0,M,,M,,*72
$GPRMC,113817.000,A,2222.435125,N,11407.050792,E,2.0,46.30460549,300921,,E,A*28
$GPGGA,113818.000,2222.233084,N,11406.647659,E,1,19,0.8,727.7,M,,M,,*46
$GPRMC,113818.000,A,2222.233084,N,11406.647659,E,7.3,-106.169302822,300921,,E,A*0A
$GPGGA,113819.000,2222.231890,N,11406.643953,E,1,19,0.8,731.3,M,,M,,*4A
$GPRMC,113819.000,A,2222.231890,N,11406.643953,E,4.5,-90.791494,300921,,E,A*0F
$GPGGA,113820.000,2222.232100,N,11406.643193,E,1,19,0.8,731.7,M,,M,,*43
$GPRMC,113820.000,A,2222.232100,N,11406.643193,E,1.9,46.330741208999996,300921,,E,A*1C
$GPGGA,113821.000,2222.232402,N,11406.642619,E,1,19,0.8,731.8,M,,M,,*4E
$GPRMC,113821.000,A,2222.232402,N,11406.642619,E,2.4,41.783173886,300921,,E,A*1F
$GPGGA,113822.000,2222.232749,N,11406.642059,E,1,19,0.8,731.5,M,,M,,*4E
$GPRMC,113822.000,A,2222.232749,N,11406.642059,E,2.2,41.269492428,300921,,E,A*17
$GPGGA,113823.000,2222.233080,N,11406.641610,E,1,19,0.8,731.5,M,,M,,*44
$GPRMC,113823.000,A,2222.233080,N,11406.641610,E,1.9,41.246017068,300921,,E,A*11
$GPGGA,113824.000,2222.233286,N,11406.640901,E,1,19,0.8,731.3,M,,M,,*4F
$GPRMC,113824.000,A,2222.233286,N,11406.640901,E,2.3,322.749200241,300921,,E,A*24
$GPGGA,113825.000,2222.233443,N,11406.640124,E,1,19,0.8,731.0,M,,M,,*4D
$GPRMC,113825.000,A,2222.233443,N,11406.640124,E,2.6,322.71668854,300921,,E,A*18
$GPGGA,113826.000,2222.233711,N,11406.639530,E,1,19,0.8,730.8,M,,M,,*4C
$GPRMC,113826.000,A,2222.233711,N,11406.639530,E,2.2,41.750689506,300921,,E,A*13
$GPGGA,113827.000,2222.234021,N,11406.638976,E,1,19,0.8,730.8,M,,M,,*41
$GPRMC,113827.000,A,2222.234021,N,11406.638976,E,2.2,42.072931005,300921,,E,A*10
$GPGGA,113828.000,2222.234388,N,11406.638276,E,1,19,0.8,729.8,M,,M,,*4D
$GPRMC,113828.000,A,2222.234388,N,11406.638276,E,2.6,42.077216948,300921,,E,A*1B
$GPGGA,113829.000,2222.234674,N,11406.637560,E,1,19,0.8,728.9,M,,M,,*45
$GPRMC,113829.000,A,2222.234674,N,11406.637560,E,2.5,42.666914998,300921,,E,A*12
$GPGGA,113830.000,2222.234965,N,11406.636887,E,1,19,0.8,728.6,M,,M,,*48
$GPRMC,113830.000,A,2222.234965,N,11406.636887,E,2.5,55.199526799,300921,,E,A*13
$GPGGA,113831.000,2222.235292,N,11406.636230,E,1,19,0.8,728.7,M,,M,,*4C
$GPRMC,113831.000,A,2222.235292,N,11406.636230,E,2.5,42.644501731999995,300921,,E,A*1C
$GPGGA,113832.000,2222.235600,N,11406.635618,E,1,19,0.8,728.8,M,,M,,*42
$GPRMC,113832.000,A,2222.235600,N,11406.635618,E,2.4,257.89709973,300921,,E,A*13
