     3.04           OBSERVATION DATA    M: Mixed            RINEX VERSION / TYPE
Higeo_Hi1105        Huawei CBG          20220123 112240 UTC PGM / RUN BY / DATE 
************************************************************COMMENT             
* If you have any problem,                                 *COMMENT             
*     please contact with LBS Technology Group, thanks.    *COMMENT             
*                                                          *COMMENT             
* Version Higeo2RinexV1.1 2020.07.21                       *COMMENT             
* Fuction:  Convert Higeo Log to Rinex file                *COMMENT             
*                                                          *COMMENT             
* Note that the verision support B1C B2A signal            *COMMENT             
*     BDS: C1D L1D D1D S1D indicate BDS B1C                *COMMENT             
*     BDS: C5D L5D D5D S5D indicate BDS B2A                *COMMENT             
*     Reference: RINEX V3.04                               *COMMENT             
*                                                          *COMMENT             
* Copyright(C) Huawei Technologies Co., Ltd. 2019 - 2020   *COMMENT             
*     All rights reserved.                                 *COMMENT             
************************************************************COMMENT             
                                                            MARKER NAME         
                                                            MARKER NUMBER       
                                                            MARKER TYPE         
                                                            OBSERVER / AGENCY   
                                                            REC # / TYPE / VERS 
                                                            ANT # / TYPE        
        0.0000        0.0000        0.0000                  APPROX POSITION XYZ 
        0.0000        0.0000        0.0000                  ANTENNA: DELTA H/E/N
G    8 C1C L1C D1C S1C C5I L5I D5I S5I                      SYS / # / OBS TYPES 
R    4 C1C L1C D1C S1C                                      SYS / # / OBS TYPES 
E    8 C1C L1C D1C S1C C5I L5I D5I S5I                      SYS / # / OBS TYPES 
J    8 C1C L1C D1C S1C C5I L5I D5I S5I                      SYS / # / OBS TYPES 
C   12 C2I L2I D2I S2I C1D L1D D1D S1D C5D L5D D5D S5D      SYS / # / OBS TYPES 
  2021    12     8     2    48   19.0000000     GPS         TIME OF FIRST OBS   
  2021    12     8     3     3   20.0000000     GPS         TIME OF LAST OBS    
G                                                           SYS / PHASE SHIFT   
R                                                           SYS / PHASE SHIFT   
E                                                           SYS / PHASE SHIFT   
J                                                           SYS / PHASE SHIFT   
C                                                           SYS / PHASE SHIFT   
  0                                                         GLONASS SLOT / FRQ #
 C1C    0.000 C1P    0.000 C2C    0.000 C2P    0.000        GLONASS COD/PHS/BIS 
                                                            END OF HEADER       
> 2021 12  8  2 48 19.0000000  0  2                     
G10                     -2927.538       -2029.391          31.000                                                                  
G32                    -14904.046       -1870.645          23.000                                                                  
> 2021 12  8  2 48 20.0000000  0  2                     
G10                    -13577.001       -2024.615          19.000                                                                  
G32                    -24720.069       -1867.641          26.000                                                                  
> 2021 12  8  2 48 21.0000000  0  2                     
G10                    -24208.765       -2021.102          17.000                                                                  
G32                    -34523.397       -1865.297          25.000                                                                  
> 2021 12  8  2 48 25.0000000  0  5                     
G10                    -98655.286       -2026.847          20.000                                                                  
G12                    -22311.256       -2587.559          17.000                                                                  
G24                     81758.294        1993.936          17.000                                                                  
G32                   -103178.435       -1866.913          23.000                                                                  
R 8                                                        36.000  
> 2021 12  8  2 48 26.0000000  0  5                     
G10                   -109302.397       -2025.805          26.000                                                                  
G12                    -35909.660       -2586.399          17.000                                                                  
G24                     92255.226        1997.616          18.000                                                                  
G32                   -112993.646       -1867.926          17.000                                                                  
R 8                                                        34.000  
> 2021 12  8  2 48 27.0000000  0  5                     
G10                   -119953.890       -2026.880          29.000                                                                  
G12                    -49520.486       -2590.270          16.000                                                                  
G24                    102764.710        1998.396          20.000                                                                  
G32                   -122820.510       -1868.212          16.000                                                                  
R 8                                                        35.000  
> 2021 12  8  2 48 28.0000000  0  6                     
G10                   -130606.409       -2026.370          26.000                                                                  
G12                    -63123.035       -2588.787          17.000                                                                  
G18                     89696.664        3181.856          17.000                                                                  
G24                    113267.524        2000.404          22.000                                                                  
G32                   -132640.027       -1868.377          19.000                                                                  
R 8                                                        32.000  
> 2021 12  8  2 48 29.0000000  0  7                     
G10                   -141252.875       -2025.114          20.000                                                                  
G12                    -76722.010       -2589.663          17.000                                                                  
G18                    106420.228        3184.648          18.000                                                                  
G23                       522.839          21.275          17.000                                                                  
G24                    123773.355        1998.123          21.000                                                                  
G32                   -142459.352       -1868.669          19.000                                                                  
R 8                                                        31.000  
> 2021 12  8  2 48 30.0000000  0  7                     
G10                   -151903.793       -2027.333          17.000                                                                  
G12                    -90332.166       -2588.445          16.000                                                                  
G18                    123156.207        3183.490          19.000                                                                  
G23                       651.598          24.912          17.000                                                                  
G24                    134269.188        1996.469          20.000                                                                  
G32                   -152272.718       -1866.394          17.000                                                                  
R 8                                                        29.000  
> 2021 12  8  2 48 31.0000000  0  8                     
G10                   -162558.214       -2025.519          19.000                                                                  
G12                   -103931.324       -2587.676          16.000                                                                  
G18                    139877.780        3180.421          19.000                                                                  
G23                       775.156          23.633          15.000                                                                  
G24                    144755.092        1993.399          19.000                                                                  
G32                   -162085.332       -1867.147          18.000                                                                  
R 8                                                        30.000  
R24                                                        20.000  
> 2021 12  8  2 48 32.0000000  0  8                     
G10                   -173209.503       -2028.007          29.000                                                                  
G12                   -117529.845       -2587.967          16.000                                                                  
G18                    156596.139        3180.730          17.000                                                                  
G23                       873.792          15.328          15.000                                                                  
G24                    155241.380        1997.485          18.000                                                                  
G32                   -171909.507       -1870.753          24.000                                                                  
R 8                                                        27.000  
R24                                                        22.000  
> 2021 12  8  2 48 33.0000000  0  8                     
G10                   -183868.582       -2029.333          35.000                                                                  
G12                   -131132.305       -2588.818          15.000                                                                  
G18                    173302.576        3177.658          13.000                                                                  
G23                       955.925          15.991          14.000                                                                  
G24                    165742.251        1998.868          17.000                                                                  
G32                   -181739.942       -1870.823          25.000                                                                  
R 8                                                        29.000  
R24                                                        20.000  
> 2021 12  8  2 48 34.0000000  0  8                     
G10                   -194522.393       -2027.840          38.000                                                                  
G12                   -144739.119       -2589.483          15.000                                                                  
G18                    190005.795        3178.425          12.000                                                                  
G23                      1039.603          17.171          14.000                                                                  
G24                    176251.670        2000.027          16.000                                                                  
G32                   -191577.090       -1873.176          22.000                                                                  
R 8                                                        33.000  
R24                                                        19.000  
> 2021 12  8  2 48 35.0000000  0  8                     
G10                   -205184.822       -2029.096          34.000                                                                  
G12                   -158350.745       -2591.513          13.000                                                                  
G18                    206719.046        3179.792          14.000                                                                  
G23                      1129.570          17.058          13.000                                                                  
G24                    186764.760        1999.539          20.000                                                                  
G32                   -201417.442       -1872.127          23.000                                                                  
R 8                                                        29.000  
R24                                                        17.000  
> 2021 12  8  2 48 36.0000000  0  8                     
G10                   -215841.476       -2028.895          31.000                                                                  
G12                   -171966.084          -0.010          14.000                                                                  
G18                    223419.962          -0.011          13.000                                                                  
G23                      1222.744          -0.007          10.000                                                                  
G24                    197271.258        1999.976          22.000                                                                  
G32                   -211250.117          -0.006          23.000                                                                  
R 8                                                        28.000  
R24                                                        19.000  
> 2021 12  8  2 48 37.0000000  0  8                     
G10                   -226502.615       -2027.466          28.000                      -30440.866       -1508.252          19.000  
G12                   -185575.035          -0.010          13.000                                                                  
G18                    240120.534          -0.011          15.000                                                                  
G23                      1306.790          -0.007          11.000                                                                  
G24                    207780.871        2000.695          19.000                                                                  
G32                   -221091.708       -1871.731          25.000                                                                  
R 8                                                        24.000  
R24                                                        20.000  
> 2021 12  8  2 48 38.0000000  0  7                     
G10                   -237166.310       -2030.471          27.000                      -36377.079       -1514.609          20.000  
G12                   -199186.858          -0.010          15.000                                                                  
G18                    256810.256          -0.011          14.000                                                                  
G24                    218301.356        2000.512          19.000                                                                  
G32                   -230931.048       -1872.436          23.000                                                                  
R 8                                                        23.000  
R24                                                        19.000  
> 2021 12  8  2 48 39.0000000  0  7                     
G10                   -247838.097       -2032.131          24.000                      -42322.112       -1511.570          20.000  
G12                   -212786.541          -0.010          14.000                                                                  
G18                    273494.516          -0.011          13.000                                                                  
G24                    228817.505        2002.076          18.000                                                                  
G32                   -240771.157       -1872.535          23.000                                                                  
R 8                                                        25.000  
R24                                                        20.000  
> 2021 12  8  2 48 40.0000000  0  7                     
G10                   -258509.618       -2027.882          24.000                      -48270.012       -1517.305          19.000  
G12                   -226385.908          -0.010          15.000                                                                  
G18                    290178.603          -0.011          12.000                                                                  
G24                    239326.082        1996.429          19.000                                                                  
G32                   -250608.944       -1871.446          20.000                                                                  
R 8                                                        23.000  
R24                                                        22.000  
> 2021 12  8  2 48 41.0000000  0  6                     
G10                   -269174.493       -2032.553          25.000                      -54214.582       -1513.817          19.000  
G12                   -239992.771          -0.010          13.000                                                                  
G24                    249822.704        1999.035          19.000                                                                  
G32                   -260439.677       -1870.321          21.000                                                                  
R 8                                                        36.000  
R24                                                        20.000  
> 2021 12  8  2 48 42.0000000  0  6                     
G10                   -279852.890       -2033.682          19.000                                                                  
G12                   -253607.018          -0.010          13.000                                                                  
G24                    260324.780        1996.846          19.000                                                                  
G32                   -270260.759       -1868.773          17.000                                                                  
R 8                                                        27.000  
R24                                                        15.000  
> 2021 12  8  2 48 43.0000000  0  5                     
G10                   -290517.099       -2028.865          26.000                                                                  
G24                    270824.211        1999.470          19.000                                                                  
G32                   -280090.184       -1873.565          25.000                                                                  
R 8                                                        25.000  
R24                                                        17.000  
> 2021 12  8  2 48 44.0000000  0  6                     
G10                   -301174.777       -2029.139          29.000                      -72080.020       -1517.271          16.000  
G18                    357000.669        3181.525          17.000                                                                  
G24                    281331.517        1999.750          17.000                                                                  
G32                   -289938.415       -1873.631          20.000                                                                  
R 8                                                        29.000  
R24                                                        18.000  
> 2021 12  8  2 48 46.0000000  0  8                     
G10                   -322058.471       -2030.219          29.000                      -83750.360       -1522.340          12.000  
G18                    389705.902        3180.738          14.000                                                                  
G24                    301882.085        1996.866          13.000                                                                  
G32                   -309228.600       -1874.616          24.000                                                                  
R 8                                                        24.000  
R24                                                        16.000  
E33                     17932.911         759.470          18.000                                                                  
C36                    -21999.113       -2024.449          31.000                                                                                                                                  
> 2021 12  8  2 48 47.0000000  0  7                     
G10                   -332719.136       -2028.801          27.000                                                                  
G18                    406417.502        3179.806          14.000                                                                  
G24                    312377.889          -0.002          14.000                                                                  
G32                   -319080.815       -1877.021          27.000                                                                  
R 8                                                        20.000  
E33                     21911.360         756.842          18.000                                                                  
C36                    -32543.574       -2026.394          34.000                                                                                                                                  
> 2021 12  8  2 48 48.0000000  0  7                     
G10                   -343384.101       -2029.456          26.000                                                                  
G18                    423128.084        3180.173          14.000                                                                  
G24                    322874.476          -0.002          15.000                                                                  
G32                   -328939.259       -1875.559          24.000                                                                  
R 8                                                        26.000  
E33                     25886.421         754.475          18.000                                                                  
C36                    -43093.106       -2026.575          35.000                                                                                                                                  
> 2021 12  8  2 48 49.0000000  0 12                     
G10                   -354061.315       -2033.393          25.000                     -101653.968       -1519.981          14.000  
G18                    439834.559          -0.011          13.000                                                                  
G23                       415.925          23.053          23.000                                                                  
G24                    333379.540          -0.002          11.000                                                                  
G25                    -45470.923       -3116.345          15.000                                                                  
G32                   -338794.521       -1876.282          25.000                                                                  
R 8                                                        22.000  
E33                     29856.010         757.850          14.000                                                                  
J 2                    -11766.061         -81.793          20.000                                                                  
C 9                       102.660          18.095          25.000                                                                                                                                  
C22                    -11939.058       -1451.982          17.000                                                                                                                                  
C36                    -53643.897       -2026.200          33.000                                                                                                                                  
> 2021 12  8  2 48 50.0000000  0 10                     
G10                   -364744.039       -2032.291          27.000                     -107621.816       -1520.300          14.000  
G18                    456530.555          -0.011          14.000                                                                  
G23                       539.490          23.183          23.000                                                                  
G24                    343888.031          -0.002          13.000                                                                  
G25                    -61847.025       -3115.188          14.000                                                                  
G32                   -348655.106       -1876.531          24.000                                                                  
R 8                                                        22.000  
E33                     33852.877         762.862          15.000                                                                  
J 2                    -12190.161         -81.377          21.000                                                                  
C36                    -64199.893       -2025.846          34.000                                                                                                                                  
> 2021 12  8  2 48 51.0000000  0 11                     
G10                   -375419.081       -2031.424          27.000                     -113577.870       -1517.180          17.000  
G18                    473224.935          -0.011          15.000                                                                  
G23                       665.367          23.106          22.000                                                                  
G24                    354394.017          -0.002          17.000                                                                  
G25                    -78213.732       -3115.694          14.000                                                                  
G32                   -358513.847       -1875.611          25.000                                                                  
R 8                                                        17.000  
E33                     37859.858         762.224          19.000                                                                  
J 2                    -12621.217         -81.871          21.000                                                                  
C 9                        85.046          14.377          22.000                                                                                                                                  
C36                    -74753.578       -2025.072          33.000                                                                                                                                  
> 2021 12  8  2 48 52.0000000  0 12                     
G10                   -386092.656       -2033.348          27.000                     -119534.329       -1519.519          17.000  
G18                    489920.127          -0.011          13.000                                                                  
G23                       787.064          24.045          22.000                                                                  
G24                    364905.258        1998.977          17.000                                                                  
G32                   -368370.733       -1874.114          25.000                                                                  
R 8                                                        19.000  
R24                                                        18.000  
E33                     41868.853         764.078          20.000                                                                  
J 2                    -13059.928         -85.066          20.000                                                                  
C 9                       163.512          15.446          22.000                                                                                                                                  
C13                      3868.990         772.542          30.000                                                                                                                                  
C36                    -85304.429       -2026.481          31.000                                                                                                                                  
> 2021 12  8  2 48 53.0000000  0 11                     
G10                   -396768.718       -2033.120          27.000                     -125490.514       -1517.919          17.000  
G18                    506611.114          -0.011          14.000                                                                  
G23                       915.332          24.809          22.000                                                                  
G24                    375411.084        1999.040          18.000                                                                  
G32                   -378221.786       -1874.252          25.000                                                                  
R 8                                                        19.000  
R24                                                        14.000  
E33                     45875.686         759.542          19.000                                                                  
J 2                    -13506.104         -86.631          20.000                                                                  
C 9                       245.166          15.496          24.000                                                                                                                                  
C36                    -95852.947       -2025.094          33.000                                                                                                                                  
> 2021 12  8  2 48 54.0000000  0 13                     
G10                   -407449.068       -2031.529          26.000                     -131446.992       -1519.016          17.000  
G18                    523312.746          -0.011          14.000                                                                  
G23                      1041.243          24.077          23.000                                                                  
G24                    385926.703        2002.169          20.000                                                                  
G25                   -127320.535       -3114.209          15.000                                                                  
G32                   -388076.811       -1877.201          25.000                                                                  
R 8                                                        22.000  
E33                     49864.282         760.742          20.000                                                                  
J 2                    -13952.919         -84.099          22.000                                                                  
C 8                     14243.470         969.479          18.000                                                                                                                                  
C 9                       331.108          15.513          23.000                                                                                                                                  
C13                      3546.001         770.767          29.000                                                                                                                                  
C36                   -106404.212       -2025.458          34.000                                                                                                                                  
> 2021 12  8  2 48 55.0000000  0 14                     
G10                   -418124.891       -2030.160          27.000                     -137408.570       -1518.376          17.000  
G18                    540019.007          -0.011          14.000                                                                  
G23                      1166.491          23.884          22.000                                                                  
G24                    396438.035        2000.465          20.000                                                                  
G25                   -143688.695       -3117.254          16.000                                                                  
G32                   -397932.161       -1874.304          25.000                                                                  
R 8                                                        22.000  
E33                     53859.381         761.598          19.000                                                                  
J 2                    -14391.326         -83.588          22.000                                                                  
C 8                     19305.219         972.512          18.000                                                                                                                                  
C 9                       407.917          15.345          23.000                                                                                                                                  
C13                      1696.247         771.237          28.000                                                                                                                                  
C22                    -11270.499       -1446.029          20.000                                                                                                                                  
C36                   -116957.475       -2027.803          32.000                                                                                                                                  
> 2021 12  8  2 48 56.0000000  0 14                     
G10                   -428798.335       -2033.467          28.000                     -143364.796       -1518.459          17.000  
G18                    556730.070          -0.011          14.000                                                                  
G24                    406945.301        1999.489          16.000                                                                  
G25                   -160070.716       -3115.671          13.000                                                                  
G32                   -407788.172       -1874.989          30.000                                                                  
R 8                                                        27.000  
E33                     57858.867         759.413          19.000                                                                  
J 2                    -14830.811         -83.079          20.000                                                                  
C 6                      1734.117         102.031          18.000                                                                                                                                  
C 8                     24368.834         972.072          22.000                                                                                                                                  
C 9                       488.905          15.773          25.000                                                                                                                                  
C13                      5703.173         767.556          23.000                                                                                                                                  
C22                    -18816.029       -1449.031          26.000                                                                                                                                  
C36                   -127510.538       -2026.263          33.000                                                                                                                                  
> 2021 12  8  2 48 57.0000000  0 15                     
G10                   -439480.736       -2033.514          24.000                     -149319.100       -1519.171          15.000  
G18                    573445.710        3180.427          16.000                                                                  
G24                    417459.703        2001.695          17.000                                                                  
G25                   -176457.662       -3121.042          12.000                                                                  
G32                   -417653.308       -1875.830          33.000                                                                  
R 1                                                        19.000  
R 8                                                        23.000  
E33                     61856.198         760.489          31.000                                                                  
J 2                    -15281.341         -86.577          18.000                                                                  
C 6                      2258.831         100.260          20.000                                                                                                                                  
C 8                     29445.476         975.690          19.000                                                                                                                                  
C 9                       576.801          16.701          25.000                                                                                                                                  
C13                      9711.131         771.224          26.000                                                                                                                                  
C22                    -26362.212       -1450.377          24.000                                                                                                                                  
C36                   -138059.801       -2027.394          28.000                                                                                                                                  
> 2021 12  8  2 48 58.0000000  0 16                     
G10                   -450171.743          -0.012          20.000                     -155278.175       -1518.582          17.000  
G18                    590163.093        3180.410          14.000                                                                  
G23                       610.322          23.520          20.000                                                                  
G24                    427985.801        2003.506          17.000                                                                  
G25                   -192868.265       -3125.756          13.000                                                                  
G32                   -427534.594       -1881.668          23.000                                                                  
R 1                                                        17.000  
R 8                                                        27.000  
E33                     65853.276         760.189          27.000                                                                  
J 2                    -15738.046         -86.422          20.000                                                                  
C 6                      2783.624         102.063          25.000                                                                                                                                  
C 8                     34519.349         973.568          26.000                                                                                                                                  
C 9                       665.138          14.107          24.000                                                                                                                                  
C13                     13717.508         767.437          29.000                                                                                                                                  
C22                    -33914.674       -1449.126          22.000                                                                                                                                  
C36                   -148615.599       -2022.962          30.000                                                                                                                                  
> 2021 12  8  2 48 59.0000000  0 16                     
G10                   -460863.816       -2033.798          24.000                     -161235.400       -1517.448          18.000  
G18                    606869.017        3177.147          16.000                                                                  
G23                       719.198          21.362          17.000                                                                  
G24                    438526.022        2007.118          17.000                                                                  
G25                   -209311.483       -3130.216          14.000                                                                  
R 1                                                        18.000  
R 8                                                        33.000  
E26                     15598.889        2800.290          20.000                                                                  
E33                     69851.288         761.032          29.000                                                                  
J 2                    -16190.489         -85.098          17.000                                                                  
C 6                      3315.369         102.412          23.000                                                                                                                                  
C 8                     39583.180         973.266          28.000                                                                                                                                  
C 9                       740.115          14.700          24.000                                                                                                                                  
C13                     17729.870         771.678          26.000                                                                                                                                  
C22                    -41465.664       -1450.385          20.000                                                                                                                                  
C36                   -159168.917       -2025.382          35.000                                                                                                                                  
> 2021 12  8  2 49  0.0000000  0 16                     
G10                   -471547.058       -2032.307          26.000                     -167205.540       -1521.422          20.000  
G18                    623569.120        3179.190          15.000                                                                  
G23                       832.797          18.392          17.000                                                                  
G24                    449065.594        2004.622          19.000                                                                  
R 1                                                        17.000  
R 8                                                        31.000  
E26                     30319.027        2799.160          18.000                                                                  
E33                     73850.354         761.968          29.000                                                                  
J 2                    -16644.316         -85.945          16.000                                                                  
C 6                      3846.571         103.212          22.000                                                                                                                                  
C 8                     44657.337         972.434          26.000                                                                                                                                  
C 9                       811.724          14.789          26.000                                                                                                                                  
C13                     21737.952         768.837          26.000                                                                                                                                  
C20                      8123.087        2184.676          28.000                                                                                                                                  
C22                    -49020.690       -1451.012          23.000                                                                                                                                  
C36                   -169717.085       -2025.040          34.000                                                                                                                                  
> 2021 12  8  2 49  1.0000000  0 16                     
G10                   -482221.261       -2032.095          25.000                     -173171.379       -1519.757          18.000  
G18                    640269.094        3176.599          14.000                                                                  
G23                       953.728          23.520          20.000                         522.990          11.085          13.000  
G24                    459598.084        2003.873          20.000                                                                  
G32                    -11054.525       -1877.963          26.000                                                                  
R 1                                                        17.000  
R 8                                                        21.000  
E33                     77852.211         759.168          22.000                                                                  
J 2                    -17095.208         -86.946          17.000                                                                  
C 6                      4386.472         103.790          19.000                                                                                                                                  
C 8                     49730.993         974.380          21.000                                                                                                                                  
C 9                       891.817          12.041          24.000                                                                                                                                  
C13                     25739.073         768.433          30.000                                                                                                                                  
C20                     19500.918        2186.697          18.000                                                                                                                                  
C22                    -56570.947           0.006          20.000                                                                                                                                  
C36                   -180262.080       -2030.587          27.000                                                                                                                                  
> 2021 12  8  2 49  2.0000000  0 17                     
G10                   -492898.801       -2031.447          20.000                     -179138.211       -1520.690          16.000  
G18                    656963.886          -0.011          16.000                                                                  
G23                      1087.454          27.822          20.000                         569.920          10.852          12.000  
G24                    470130.560        2004.224          18.000                                                                  
G25                   -258632.321       -3126.684          13.000                                                                  
G32                    -20917.278       -1875.980          33.000                                                                  
R 1                                                        17.000  
R 8                                                        20.000  
E33                     81851.695         761.583          22.000                                                                  
J 2                    -17556.824         -86.601          18.000                                                                  
C 6                      4923.494         100.645          18.000                                                                                                                                  
C 8                     54803.305         975.392          17.000                                                                                                                                  
C 9                       958.202          12.638          22.000                                                                                                                                  
C13                     29751.268         769.859          32.000                                                                                                                                  
C19                     15405.685         727.646          18.000                                                                                                                                  
C22                    -64123.514           0.006          17.000                                                                                                                                  
C36                   -190819.151       -2025.765          31.000                                                                                                                                  
> 2021 12  8  2 49  3.0000000  0 18                     
G10                   -503583.902       -2034.207          20.000                     -185100.419       -1518.187          15.000  
G18                    673655.681          -0.011          16.000                                                                  
G23                      1231.246          24.539          19.000                         619.736          11.573          12.000  
G24                    480662.839        2004.295          17.000                                                                  
G25                   -275049.819       -3125.059          13.000                                                                  
G32                    -30784.253       -1880.083          29.000                                                                  
R 1                                                        16.000  
R 8                                                        20.000  
E33                     85852.748         760.602          20.000                                                                  
J 2                    -18002.385         -85.033          21.000                                                                  
C 6                      5445.274          99.710          17.000                                                                                                                                  
C 8                     59875.218         974.742          17.000                                                                                                                                  
C 9                      1021.325          12.046          25.000                                                                                                                                  
C13                     33747.983         768.646          30.000                                                                                                                                  
C19                     19203.960         728.613          20.000                                                                                                                                  
C20                                                                                                                                                      7889.012        1643.553          20.000  
C22                    -71688.488           0.006          17.000                                                                                                                                  
C36                   -201366.556       -2024.626          33.000                                                                                                                                  
> 2021 12  8  2 49  4.0000000  0 19                     
G10                   -514279.702       -2035.586          20.000                     -191061.255       -1519.214          15.000  
G18                    690349.943          -0.011          15.000                                                                  
G23                      1361.874          24.941          20.000                                                                  
G24                    491194.552        2002.228          18.000                                                                  
G25                   -291480.237       -3127.960          12.000                                                                  
G32                    -40648.448       -1873.105          23.000                                                                  
R 1                                                        18.000  
R 8                                                        17.000  
E26                     53575.562        2793.577          20.000                                                                  
E33                     89854.949         762.716          19.000                                                                  
J 2                    -18449.209         -85.978          22.000                                                                  
C 6                      5960.242          99.836          14.000                                                                                                                                  
C 8                     64949.568         974.214          16.000                                                                                                                                  
C 9                      1093.682          15.069          25.000                                                                                                                                  
C13                     37755.550         771.193          25.000                                                                                                                                  
C19                     23000.492         729.644          19.000                                                                                                                                  
C20                                                                                                                                                     14342.566        1643.645          19.000  
C22                    -79253.059           0.006          17.000                                                                                                                                  
C36                   -211916.578       -2024.951          36.000                                                                                                                                  
> 2021 12  8  2 49  5.0000000  0 20                     
G10                   -524962.765       -2030.547          19.000                     -197021.559       -1519.167          17.000  
G18                    707038.449          -0.011          13.000                                                                  
G23                      1491.205          24.004          18.000                                                                  
G24                    501716.294        2002.845          22.000                                                                  
G25                   -307921.005       -3130.754          15.000                                                                  
