     3.03           OBSERVATION DATA    M: Mixed            RINEX VERSION / TYPE
Geo++ RINEX Logger  Geo++               20210912 125942 UTC PGM / RUN BY / DATE
************************************************************COMMENT
This file was generated by the Geo++ RINEX Logger App       COMMENT
for Android devices (Version 2.1.6). If you encounter       COMMENT
any issues, please send an email to android@geopp.de        COMMENT
Filtering Mode: MORE                                        COMMENT
************************************************************COMMENT
Geo++                                                       MARKER NAME
GEODETIC                                                    MARKER TYPE
Geo++               Geo++                                   OBSERVER / AGENCY
unknown             HUAWEI              ELS-AN00            REC # / TYPE / VERS
unknown             ELS-AN00                                ANT # / TYPE
 -2417257.1269  5386483.8482  2405090.8942                  APPROX POSITION XYZ
        0.0000        0.0000        0.0000                  ANTENNA: DELTA H/E/N
G    8 C1C L1C D1C S1C C5Q L5Q D5Q S5Q                      SYS / # / OBS TYPES
R    4 C1C L1C D1C S1C                                      SYS / # / OBS TYPES
E   12 C1B L1B D1B S1B C1C L1C D1C S1C C5Q L5Q D5Q S5Q      SYS / # / OBS TYPES
C    4 C2I L2I D2I S2I                                      SYS / # / OBS TYPES
J    8 C1C L1C D1C S1C C5Q L5Q D5Q S5Q                      SYS / # / OBS TYPES
  2021     9    12    13     0    0.9993411     GPS         TIME OF FIRST OBS
 24 R01  1 R02 -4 R03  5 R04  6 R05  1 R06 -4 R07  5 R08  6 GLONASS SLOT / FRQ #
    R09 -2 R10 -5 R11  0 R12 -1 R13 -2 R14 -7 R15  0 R16 -1 GLONASS SLOT / FRQ #
    R17  4 R18 -3 R19  3 R20  2 R21  4 R22 -3 R23  3 R24  2 GLONASS SLOT / FRQ #
G L1C                                                       SYS / PHASE SHIFT
G L5Q -0.25000                                              SYS / PHASE SHIFT
R L1C                                                       SYS / PHASE SHIFT
E L1B                                                       SYS / PHASE SHIFT
E L1C +0.50000                                              SYS / PHASE SHIFT
E L5Q -0.25000                                              SYS / PHASE SHIFT
C L2I                                                       SYS / PHASE SHIFT
J L1C                                                       SYS / PHASE SHIFT
J L5Q -0.25000                                              SYS / PHASE SHIFT
 C1C    0.000 C1P    0.000 C2C    0.000 C2P    0.000        GLONASS COD/PHS/BIS
                                                            END OF HEADER
> 2021  9 12 13  0  0.9993411  0  4
G31  21372988.888   112315922.241       -1182.596          30.000  
G32  20951261.244   110099488.335       -1493.634          32.000  
J01  36361413.217   191080429.765         110.094          29.000  
R02  19794491.659   105627187.587       -2914.112          31.000  
> 2021  9 12 13  0  1.9993405  0  5
G26  20208188.462   106194753.9701        177.749          26.000  
G31  21373032.957   112316159.473       -1182.716          33.000  
G32  20951366.771   110100036.572       -1493.686          34.000  
J01  36361211.757   191079374.796         110.193          26.000  
R02  19794862.502   105629141.963       -2914.110          30.000  
> 2021  9 12 13  0  2.9993403  0  5
G26  20208092.229   106194262.049         176.047          25.000  
G31  21373197.243   112317027.134       -1183.359          36.000  
G32  20951586.518   110101215.459       -1495.072          34.000  
J01  36361131.113   191078949.761         109.772          30.000  
R02  19795351.164   105631736.680       -2915.052          32.000  
> 2021  9 12 13  0  3.9993398  0  5
G26  20207905.758   106193298.797         175.687          23.000  
G31  21373277.888   112317420.696       -1180.733          31.000  
G32  20951719.926   110101922.992       -1493.965          29.000  
J01  36360959.631   191078052.386         109.742          30.000  
R02  19795749.588   105633852.321       -2915.812          32.000  
> 2021  9 12 13  0  4.9993395  0  5
G26  20207784.042   106192650.679         175.124          23.000  
G31  21373412.195   112318129.058       -1182.609          27.000  
G32  20951913.592   110102943.522       -1492.723          21.000  
J01  36360847.509   191077470.779         108.914          29.000  
R02  19796204.673   105636288.596       -2916.637          31.000  
> 2021  9 12 13  0  5.9993390  0  5
G26  20207603.567   106191687.511         175.295          26.000  
G31  21373489.241   112318525.801       -1186.866          25.000  
G32  20952047.299   110103649.328       -1494.176          23.000  
J01  36360677.527   191076574.098         108.495          31.000  
R02  19796601.898   105638405.817       -2917.797          31.000  
> 2021  9 12 13  0  6.9993388  0  4
G26  20207510.931   106191197.660         173.948          23.000  
G31  21373654.127   112319398.046       -1187.610          27.000  
J01  36360597.482   191076150.434         108.786          27.000  
R02  19797089.360   105641003.806       -2918.438          33.000  
> 2021  9 12 13  0  7.9993385  0  5
G26  20207388.016   106190551.162         174.321          15.000  
G31  21373789.034   112320112.377       -1186.693          28.000  
G32  20952467.309   110105851.6701      -1497.520          22.000  
J01  36360487.458   191075566.812         111.728          27.000  
R02  19797548.043   105643441.778       -2917.472          30.000  
> 2021  9 12 13  0  8.9993382  0  4
G26  20207268.399   106189905.376         172.872          19.000  
G31  21373922.741   112320825.315       -1185.247          32.000  
J01  36360375.936   191074982.994         110.024          28.000  
R02  19798003.427   105645880.344       -2919.135          27.000  
> 2021  9 12 13  0  9.9993377  0  5
C16  36785558.688   191552230.3491         52.297          28.000  
G26  20207087.924   106188945.142         171.826          21.000  
G31  21373996.790   112321221.861       -1184.019          35.000  
J01  36360205.953   191074086.002         109.073          29.000  
R02  19798400.053   105648000.306       -2920.387          29.000  
> 2021  9 12 13  0 10.9993372  0  5
C16  36785396.500   191551395.856          54.510          30.000  
G26  20206907.149   106187986.753         171.150          21.000  
G31  21374071.138   112321618.078       -1183.941          33.000  
J01  36360035.072   191073189.258         109.581          30.000  
R02  19798795.479   105650121.487       -2921.568          34.000  
> 2021  9 12 13  0 11.9993370  0  6
C16  36785324.850   191551028.186          55.937          29.000  
G26  20206814.214   106187500.727         170.614          24.000  
G31  21374235.425   112322487.837       -1184.834          32.000  
G32  20953162.527   110109489.1931      -1497.647          24.000  
J01  36359954.727   191072765.030         108.457          29.000  
R02  19799280.843   105652723.150       -2922.155          34.000  
> 2021  9 12 13  0 12.9993364  0  6
C16  36785132.683   191550035.666          56.116          27.000  
G26  20206600.761   106186385.302         169.127          24.000  
G31  21374277.995   112322728.370       -1184.948          31.000  
G32  20953267.455   110110042.399       -1500.013          25.000  
J01  36359754.466   191071711.220         108.364          32.000  
R02  19799648.988   105654685.770       -2923.109          37.000  
> 2021  9 12 13  0 13.9993362  0  6
C16  36785061.932   191549667.292          56.133          31.000  
G26  20206507.826   106185902.363         168.379          20.000  
G31  21374444.680   112323598.258       -1184.816          30.000  
G32  20953493.798   110111227.307       -1500.229          29.000  
J01  36359675.021   191071288.723         107.239          28.000  
R02  19800135.851   105657289.139       -2923.863          31.000  
> 2021  9 12 13  0 14.9993357  0  5
C16  36784900.943   191548831.863          54.876          30.000  
G31  21374519.928   112323995.043       -1184.774          26.000  
G32  20953627.805   110111940.155       -1501.214          32.000  
J01  36359503.539   191070393.264         107.551          30.000  
R02  19800532.477   105659413.395       -2924.688          30.000  
> 2021  9 12 13  0 15.9993354  0  7
C06  36212914.921   188570204.0181         11.464          28.000  
C16  36784800.812   191548308.304          55.084          26.000  
G26  20206206.235   106184308.3741        166.019          24.000  
G31  21374654.834   112324706.574       -1184.675          27.000  
G32  20953821.471   110112969.404       -1502.739          33.000  
J01  36359395.015   191069813.398         107.616          31.000  
R02  19800991.459   105661858.572       -2925.672          39.000  
> 2021  9 12 13  0 16.9993352  0  7
C06  36212851.964   188569879.872          12.459          27.000  
C16  36784731.560   191547940.961          54.802          27.000  
G26  20206115.697   106183825.943         167.865          24.000  
G31  21374820.320   112325575.965       -1184.620          26.000  
G32  20954045.716   110114157.552       -1503.009          34.000  
J01  36359314.370   191069390.647         107.835          33.000  
R02  19801478.921   105664464.690       -2926.442          36.000  
> 2021  9 12 13  0 17.9993349  0  7
C06  36212758.429   188569399.462          11.698          25.000  
C16  36784631.729   191547417.643          55.638          26.000  
G26  20205993.981   106183185.572         167.394          24.000  
G31  21374956.725   112326288.334       -1185.060          22.000  
G32  20954239.982   110115188.296       -1503.597          34.000  
J01  36359203.747   191068812.403         104.958          32.000  
R02  19801935.805   105666911.653       -2927.330          36.000  
> 2021  9 12 13  0 18.9993344  0  6
C06  36212605.535   188568607.125          10.607          22.000  
C16  36784471.340   191546581.707          54.739          25.000  
G26  20205814.106   106182230.545         167.192          22.000  
G31  21375031.973   112326686.136       -1185.375          29.000  
J01  36359034.964   191067917.943         106.507          30.000  
R02  19802338.426   105669039.494       -2928.349          36.000  
> 2021  9 12 13  0 19.9993341  0  7
C06  36212513.199   188568126.820          12.024          20.000  
C16  36784369.711   191546058.271          54.700          30.000  
G26  20205694.189   106181590.653         166.250          27.000  
G31  21375167.779   112327398.946       -1185.251          30.000  
G32  20954571.852   110116936.0711      -1506.676          29.000  
J01  36358927.938   191067337.841         108.301          28.000  
R02  19802797.409   105671487.597       -2928.660          35.000  
> 2021  9 12 13  0 20.9993336  0  6
C06  36212360.305   188567334.244          12.336          26.000  
C16  36784209.921   191545223.259          54.726          30.000  
G26  20205511.316   106180637.288         165.389          28.000  
G31  21375243.327   112327796.633       -1185.331          32.000  
J01  36358757.956   191066442.809         107.045          27.000  
R02  19803192.535   105673616.453       -2929.160          33.000  
> 2021  9 12 13  0 21.9993334  0  6
C06  36212297.048   188567009.851          12.045          30.000  
C16  36784139.470   191544856.949          53.451          30.000  
G26  20205420.179   106180157.106         164.592          23.000  
G31  21375409.112   112328666.988       -1185.683          32.000  
J01  36358677.012   191066020.707         107.183          29.000  
R02  19803677.899   105676226.070       -2930.173          30.000  
> 2021  9 12 13  0 22.9993329  0  5
C06  36212144.454   188566217.389          11.590          30.000  
C16  36783979.081   191544023.040          53.796          32.000  
G26  20205240.603   106179204.348         165.278          24.000  
J01  36358505.530   191065125.386         107.343          31.000  
R02  19804072.126   105678356.437       -2930.960          27.000  
> 2021  9 12 13  0 23.9993326  0  5
C06  36212052.718   188565737.258          11.188          31.000  
C16  36783878.950   191543500.656          54.508          30.000  
G26  20205116.489   106178566.981         164.396          23.000  
G31  21375619.567   112329779.1561      -1186.895          30.000  
J01  36358395.207   191064545.494         107.765          31.000  
> 2021  9 12 13  0 24.9993321  0  6
C06  36211899.823   188564944.425          12.686          29.000  
C16  36783718.262   191542665.573          54.340          27.000  
G26  20204934.815   106177615.343         163.407          21.000  
G31  21375695.414   112330177.676       -1185.686          31.000  
J01  36358219.229   191063651.412         106.261          34.000  
R02  19804934.329   105682937.9551      -2932.475          21.000  
> 2021  9 12 13  0 25.9993318  0  6
C06  36211806.588   188564463.745          11.812          30.000  
C16  36783618.131   191542142.581          54.179          29.000  
G26  20204812.799   106176979.651         162.306          21.000  
G32  20955618.427   110122353.6481      -1506.211          23.000  
J01  36358108.006                         108.417          35.000  
R02  19805392.412   105685390.495       -2933.317          31.000  
> 2021  9 12 13  0 26.9993316  0  6
C06  36211744.531   188564140.292          10.872          29.000  
C16  36783546.481   191541776.490          54.230          32.000  
G26  20204724.360   106176502.839         160.422          25.000  
G32  20955846.270   110123545.495       -1508.088          22.000  
J01  36358030.959   191062725.8951        104.945          33.000  
R02  19805879.275   105688003.807       -2933.707          34.000  
> 2021  9 12 13  0 27.9993313  0  7
C06  36211652.495   188563660.482          11.699          29.000  
C16  36783446.050   191541254.387          53.199          32.000  
G26  20204604.144   106175870.350         160.010          27.000  
G31  21376139.706   112332476.6011      -1186.005          32.000  
G32  20956041.434   110124580.596       -1508.053          25.000  
J01  36357922.134   191062147.519         105.383          32.000  
R02  19806335.859   105690458.087       -2934.802          36.000  
> 2021  9 12 13  0 28.9993308  0  6
C06  36211500.500   188562867.665          12.033          31.000  
C16  36783286.561   191540419.103          54.999          28.000  
G26  20204424.868   106174922.621         160.461          26.000  
G31  21376214.355                       -1185.149          34.000  
J01  36357754.550   191061255.404         103.977          31.000  
R02  19806735.482   105692593.236       -2935.037          39.000  
> 2021  9 12 13  0 29.9993306  0  7
C06  36211438.443   188562543.408          11.492          28.000  
C16  36783215.510   191540052.041          53.768          28.000  
G26  20204330.733   106174447.091         160.032          24.000  
G31  21376384.637   112333636.1651      -1181.332          34.000  
G32  20956412.877   110126494.7161      -1508.195          29.000  
J01  36357675.105   191060835.775         104.836          32.000  
R02  19807226.842   105695209.226       -2936.419          34.000  
> 2021  9 12 13  0 30.9993300  0  6
C06  36211257.068   188561595.036          10.665          29.000  
C16  36783025.441   191539061.739          53.145          29.000  
G26  20204121.778   106173342.872         157.892          25.000  
G31  21376427.807   112333878.064       -1189.449          33.000  
J01  36357471.846   191059784.139         106.713          31.000  
R02  19807601.283   105697186.499       -2937.336          34.000  
> 2021  9 12 13  0 31.9993298  0  6
C06  36211194.712   188561271.739          10.827          25.000  
C16  36782955.890   191538696.938          52.701          24.000  
G26  20204032.739   106172870.681         156.784          24.000  
G31  21376598.689   112334750.257       -1186.702          32.000  
J01  36357392.701   191059362.330         106.694          27.000  
R02  19808095.641   105699804.266       -2938.339          35.000  
> 2021  9 12 13  0 32.9993293  0  7
C06  36211044.516   188560480.381          10.752          23.000  
C16  36782794.901   191537863.249          53.300          27.000  
G26  20203853.164   106171925.672         157.295          25.000  
G31  21376677.534   112335149.876       -1186.797          32.000  
G32  20956875.457   110128971.2631      -1509.011          30.000  
J01  36357222.718   191058470.202         103.961          27.000  
R02  19808498.262   105701942.775       -2938.836          37.000  
> 2021  9 12 13  0 33.9993288  0  6
C06  36210893.420   188559689.262          10.415          28.000  
C16  36782636.011   191537029.594          52.776          28.000  
G26  20203672.389   106170981.484         156.238          25.000  
G32  20957010.963   110129693.075       -1510.549          26.000  
J01  36357052.736   191057578.606         103.282          30.000  
R02  19808901.183   105704081.896       -2939.213          38.000  
> 2021  9 12 13  0 34.9993285  0  6
C06  36210801.384   188559209.921          10.286          26.000  
C16  36782535.880   191536508.915          52.269          26.000  
G26  20203551.572   106170352.628         155.411          25.000  
G31  21376880.494   112336264.3541      -1189.436          34.000  
J01  36356944.211   191057002.827         102.752          30.000  
R02  19809369.159   105706541.384       -2940.314          37.000  
> 2021  9 12 13  0 35.9993283  0  7
C06  36210738.427   188558886.776           9.671          28.000  
C16  36782465.729   191536144.302          52.140          28.000  
G26  20203463.733   106169882.149         155.184          29.000  
G31  21377044.780   112337137.958       -1188.501          34.000  
G32  20957436.369   110131928.2491      -1513.079          25.000  
J01  36356866.565   191056585.181         102.411          28.000  
R02  19809860.819   105709161.800       -2939.658          38.000  
> 2021  9 12 13  0 36.9993280  0  6
C06  36210646.091   188558408.563           9.576          26.000  
C16  36782368.296   191535623.529          52.608          24.000  
G26  20203342.617   106169254.612         154.342          28.000  
G31  21377181.785   112337853.585       -1187.977          34.000  
J01  36356757.141   191056009.581         103.585          31.000  
R02  19810320.700   105711622.400       -2941.261          35.000  
> 2021  9 12 13  0 37.9993275  0  6
C06  36210495.296   188557617.902          11.547          25.000  
C16  36782207.608   191534790.190          51.618          23.000  
G26  20203163.641   106168312.721         153.623          28.000  
G31  21377259.131                       -1188.404          34.000  
J01  36356584.460   191055118.192         104.338          25.000  
R02  19810720.623   105713764.131       -2942.146          38.000  
> 2021  9 12 13  0 38.9993272  0  7
C06  36210404.459   188557138.152          10.257          24.000  
C16  36782106.278   191534270.453          52.526          23.000  
G26  20203042.225   106167687.017         152.737          24.000  
G31  21377398.235   112338970.3291      -1187.118          35.000  
G32  20957977.794   110134731.1361      -1511.256          26.000  
J01  36356473.837   191054540.741         104.768          31.000  
R02  19811179.606   105716226.678       -2942.613          36.000  
> 2021  9 12 13  0 39.9993267  0  6
C06  36210252.764   188556348.372           8.151          24.000  
C16  36781947.987   191533437.184          51.993          23.000  
G26  20202865.048   106166746.720         152.575          23.000  
G31  21377468.087   112339371.343       -1189.765          32.000  
J01  36356302.356   191053648.237         104.327          31.000  
R02  19811579.229   105718369.272       -2942.315          31.000  
> 2021  9 12 13  0 40.9993265  0  6
C06  36210191.906   188556027.538           9.217          27.000  
C16  36781877.836   191533072.167          52.807          22.000  
G26  20202776.009   106166279.042         152.863          29.000  
G31  21377633.572   112340246.436       -1190.613          30.000  
G32  20958348.637   110136653.5061      -1513.034          27.000  
R02  19812071.788   105720991.500       -2942.252          31.000  
> 2021  9 12 13  0 41.9993260  0  6
C06  36210042.010   188555237.647           9.118          27.000  
C16  36781716.847   191532238.144          54.001          20.000  
G26  20202597.932   106165338.799         152.102          29.000  
G32  20958487.441   110137378.851       -1513.543          24.000  
J01  36356054.427   191052334.4191        107.794          25.000  
R02  19812471.711   105723133.774       -2942.586          33.000  
> 2021  9 12 13  0 42.9993257  0  7
C06  36209951.472   188554760.556           9.399          27.000  
C16  36781615.218   191531715.695          54.083          22.000  
G26  20202477.716   106164714.232         151.740          28.000  
G31  21377849.123   112341369.9391      -1191.699          38.000  
G32  20958686.803   110138421.327       -1517.011          25.000  
J01  36355943.204   191051754.409         106.953          27.000  
R02  19812931.593   105725596.473       -2942.771          34.000  
> 2021  9 12 13  0 43.9993252  0  8
C06  36209798.878   188553970.938           8.279          27.000  
C16  36781456.028   191530881.416          53.205          23.000  
E01  23927505.133   125739887.8371      -1931.502          31.000  
G26  20202290.345   106163775.284         150.112          22.000  
G31  21377932.765                       -1193.283          34.000  
G32  20958828.605   110139151.032       -1517.477          23.000  
J01  36355774.421   191050860.057         106.498          28.000  
R02  19813332.116   105727739.733       -2944.101          34.000  
> 2021  9 12 13  0 44.9993249  0  6
C06  36209706.842   188553494.451           7.524          28.000  
E01  23927781.542   125741340.211       -1931.953          30.000  
G26  20202171.328   106163152.803         149.248          27.000  
G31  21378066.173   112342514.4951      -1193.185          37.000  
J01  36355664.997   191050281.312         106.278          28.000  
R02  19813794.396   105730204.397       -2945.309          34.000  
> 2021  9 12 13  0 45.9993247  0  7
C06  36209645.084   188553174.187           7.628          27.000  
C16  36781292.641   191529996.3041         51.016          23.000  
E01  23928089.129   125742956.127       -1932.465          31.000  
G26  20202081.690   106162688.912         148.121          26.000  
G31  21378231.958   112343392.405       -1192.678          36.000  
J01  36355587.950   191049860.285         105.553          29.000  
R02  19814284.256   105732830.236       -2946.426          36.000  
> 2021  9 12 13  0 46.9993244  0  8
C06  36209553.048   188552698.322           7.584          27.000  
C16  36781193.410   191529476.688          50.933          22.000  
E01  23928366.736   125744415.501       -1933.811          27.000  
G26  20201963.871   106162068.219         148.040          30.000  
G31  21378369.863   112344112.203       -1192.552          36.000  
G32  20959466.863   110142741.1221      -1520.450          29.000  
J01  36355479.126   191049283.195         103.912          26.000  
R02  19814745.037   105735297.114       -2947.066          34.000  
> 2021  9 12 13  0 47.9993239  0  7
C06  36209401.653   188551910.127           8.146          29.000  
C16  36781033.620   191528645.292          50.805          24.000  
E01  23928584.686   125745560.791       -1934.063          25.000  
G26  20201786.095   106161132.694         147.520          30.000  
G31  21378446.609   112344517.302       -1192.686          35.000  
J01  36355308.843   191048392.027         102.964          25.000  
R02  19815148.258   105737444.588       -2947.716          34.000  
> 2021  9 12 13  0 48.9993236  0  7
C06  36209309.017   188551433.312           8.936          28.000  
C16  36780931.991   191528126.205          50.266          24.000  
G26  20201668.576   106160512.978         146.744          30.000  
G31  21378585.113   112345237.743       -1193.285          37.000  
G32  20959809.826   110144519.5981      -1519.474          33.000  
J01  36355197.321   191047814.556         105.666          26.000  
R02  19815612.637   105739912.779       -2948.553          35.000  
> 2021  9 12 13  0 49.9993231  0  7
C06  36209158.521   188550644.535           7.617          27.000  
C16  36780772.501   191527294.400          52.062          24.000  
G26  20201491.698   106159578.186         147.558          29.000  
G31  21378662.460   112345643.317       -1193.243          36.000  
G32  20959944.432   110145251.608       -1520.983          32.000  
J01  36355028.837   191046921.216         106.072          25.000  
R02  19816017.057   105742061.900       -2949.480          36.000  
> 2021  9 12 13  0 50.9993229  0  5
C06  36209096.764   188550324.571           8.612          26.000  
G26  20201403.859   106159117.371         146.024          28.000  
G31  21378830.943   112346521.479       -1191.847          36.000  
J01  36354951.491   191046500.822         104.922          26.000  
R02  19816512.914   105744691.611       -2950.231          36.000  
> 2021  9 12 13  0 51.9993224  0 10
C06  36208946.868   188549535.535           8.611          27.000  
C09  37301035.630   194236280.2971         65.951          21.000  
C10  37142356.682   193409998.0271        130.517          29.000  
C11  25666908.169   133654325.7441        804.369          21.000  
C16  36780540.761   191526097.4221         51.812          26.000  
E31  24446920.149   128469434.2521        526.503          25.000  
G31  21378901.395   112346926.416       -1193.448          31.000  
G32  20960307.181   110147157.0411      -1521.776          35.000  
J02  39240461.993   206210018.7011      -1329.813          21.000  
R02  19816916.134   105746841.763       -2950.501          36.000  
> 2021  9 12 13  0 52.9993221  0 10
C06  36208855.431   188549058.198           9.165          26.000  
C09  37300932.502   194235747.831          63.639          20.000  
C10  37142242.461   193409399.443         128.867          27.000  
C16  36780442.430   191525577.930          50.296          25.000  
E31  24446730.681   128468435.734         524.714          26.000  
G16  22232108.931   116830520.0021       2497.242          24.000  
G26  20201110.962   106157561.8761        144.541          29.000  
G32  20960503.845   110148206.490       -1523.541          31.000  
J01  36354675.682   191045030.1951        104.122          21.000  
R02  19817382.012   105749312.886       -2952.293          36.000  
> 2021  9 12 13  0 53.9993216  0 10
C06  36208702.537   188548268.769           8.537          26.000  
C09  37300770.314   194234910.853          57.607          20.000  
C10  37142068.881   193408490.421         128.047          26.000  
C11  25666358.949   133651464.5971        802.943          21.000  
C16  36780283.540   191524747.250          48.618          23.000  
G26  20200934.084   106156630.364         142.899          29.000  
G31  21379118.444   112348054.7681      -1193.615          35.000  
J01  36354507.198   191044138.921         103.183          28.000  
J02  39240728.209   206211418.7171      -1330.356          20.000  
R02  19817785.233   105751465.422       -2952.668          35.000  
> 2021  9 12 13  0 54.9993213  0 11
C06  36208609.601   188547792.179           7.815          26.000  
C09  37300667.785   194234384.188          57.274          19.000  
C10  37141957.058   193407894.070         128.246          27.000  
C11  25666114.619   133650193.481         803.123          20.000  
C16  36780183.409   191524229.051          51.116          21.000  
G26  20200818.364   106156015.146         142.694          28.000  
G31  21379256.349   112348775.848       -1195.287          38.000  
G32  20960839.313   110149989.9241      -1521.503          27.000  
J01  36354398.074   191043563.015         103.740          29.000  
J02  39240893.695   206212276.590       -1330.398          23.000  
R02  19818248.712   105753937.962       -2952.609          35.000  
> 2021  9 12 13  0 55.9993211  0  8
C06  36208546.945   188547473.633           5.604          25.000  
C10  37141871.318   193407453.598         128.191          24.000  
C11  25665901.166   133649078.468         800.124          19.000  
C16  36780114.756   191523866.582          49.213          27.000  
G26  20200732.024   106155557.972         140.939          26.000  
G32  20961068.354   110151198.375       -1524.167          30.000  
J01  36354316.530   191043144.833         102.303          28.000  
R02  19818739.772   105756571.400       -2954.268          34.000  
> 2021  9 12 13  0 56.9993206  0  8
C06  36208394.950   188546688.259           2.990          24.000  
C09  37300436.645   194233173.9761         58.391          17.000  
C11  25665598.376   133647496.318         800.900          18.000  
C16  36779954.667   191523036.664          48.170          23.000  
G26  20200556.945   106154629.820         140.482          30.000  
G31  21379499.181   112350062.9541      -1194.372          31.000  
G32  20961207.458   110151935.551       -1525.533          28.000  
R02  19819141.194   105758726.137       -2955.366          28.000  
> 2021  9 12 13  0 57.9993203  0  6
C06  36208304.712   188546215.398           5.287          24.000  
C16  36779854.237   191522519.575          49.239          24.000  
G26  20200441.525   106154017.259         138.641          27.000  
G31  21379637.085   112350784.677       -1194.486          37.000  
J01  36354032.927   191041680.3641        102.151          27.000  
R02  19819602.575   105761202.222       -2956.131          32.000  
> 2021  9 12 13  0 58.9993198  0  8
C06  36208152.717   188545428.675           6.347          28.000  
C09  37300174.027   194231808.9231         59.936          15.000  
C10  37141409.937   193405039.3061        124.978          13.000  
C16  36779693.548   191521690.359          49.048          26.000  
G26  20200266.147   106153092.255         138.136          21.000  
G31  21379715.931   112351191.606       -1194.850          37.000  
G32  20961548.622   110153726.5381      -1525.261          29.000  
R02  19820004.596   105763358.699       -2956.890          33.000  
> 2021  9 12 13  0 59.9993196  0  8
C06  36208090.061   188545110.035           6.414          29.000  
C09  37300100.578   194231436.591          57.055          14.000  
C11  25664833.306   133643541.5761        796.204          15.000  
C16  36779623.097   191521328.900          49.389          27.000  
G26  20200178.607   106152639.250         136.999          26.000  
G31  21379885.313   112352071.374       -1195.196          36.000  
G32  20961778.563   110154935.989       -1524.439          29.000  
R02  19820501.352   105765995.696       -2957.366          33.000  
> 2021  9 12 13  1  0.9993190  0  8
C06  36207908.087   188544166.457           7.528          31.000  
C10  37141121.537   193403540.7191        124.831          12.000  
C16  36779433.328   191520342.695          50.330          28.000  
G26  20199973.549   106151555.948         139.129          27.000  
G31  21379934.779                       -1195.229          36.000  
G32  20961887.987   110155515.120       -1524.476          30.000  
J01  36353575.743   191039326.0041        102.119          37.000  
R02  19820871.896   105767993.384       -2957.994          31.000  
> 2021  9 12 13  1  1.9993188  0  8
C06  36207845.430   188543846.251           8.197          32.000  
C09  37299837.660   194230069.7171         66.478          10.000  
C10  37141036.695   193403103.137         124.628          10.000  
C16  36779363.776   191519979.982          50.770          28.000  
G26  20199888.108   106151101.935         138.613          29.000  
G31  21380100.564                       -1196.312          35.000  
J01  36353496.298   191038908.941         101.075          37.000  
R02  19821365.354   105770631.824       -2958.970          32.000  
> 2021  9 12 13  1  2.9993183  0  8
C06  36207697.333                           6.269          31.000  
C11  25663978.597   133639108.6561        804.683          15.000  
C16  36779204.586   191519149.418          48.889          29.000  
G26  20199712.130   106150175.791         138.221          29.000  
G31  21380180.009   112353601.8531      -1195.004          36.000  
G32  20962259.730   110157464.1111      -1526.759          28.000  
J01  36353325.417                          99.985          38.000  
R02  19821769.774   105772791.265       -2959.762          30.000  
> 2021  9 12 13  1  3.9993180  0  8
C06  36207607.395   188542505.5201          5.697          31.000  
C16  36779105.355   191518631.404          49.615          28.000  
G10  24009695.634   126171801.2091      -4167.174          19.000  
G26  20199595.511   106149565.414         137.287          30.000  
G31  21380317.314   112354325.138       -1196.789          36.000  
G32  20962461.190   110158518.679       -1528.027          30.000  
J01  36353217.491   191037439.7251        101.326          38.000  
R02  19822240.448   105775271.770       -2961.057          32.000  
> 2021  9 12 13  1  4.9993178  0  7
C06  36207545.038   188542185.019           7.282          27.000  
C11  25663524.112   133636719.1231        803.054          16.000  
C16  36779034.904   191518269.003          50.286          26.000  
G26  20199507.072   106149113.370         136.449          26.000  
G31  21380484.599   112355206.236       -1196.736          32.000  
G32  20962692.330   110159731.666       -1528.611          29.000  
R02  19822736.905   105777913.463       -2962.300          33.000  
> 2021  9 12 13  1  5.9993175  0  7
C06  36207452.402   188541709.481           6.959          26.000  
C11  25663282.179   133635449.291         798.585          16.000  
C16  36778934.473   191517750.164          49.698          23.000  
G26  20199388.654   106148503.705         136.912          18.000  
G31  21380621.604   112355930.337       -1196.665          37.000  
G32  20962892.891   110160788.341       -1530.214          25.000  
R02  19823207.279   105780396.619       -2963.600          31.000  
> 2021  9 12 13  1  6.9993170  0  6
C06  36207299.508   188540922.480           5.478          28.000  
C16  36778777.682   191516920.355          48.175          28.000  
G10  24011783.088   126182723.2141      -4167.229          20.000  
G26  20199209.678   106147580.137         134.571          25.000  
G31  21380704.646                       -1196.998          34.000  
J01  36352860.139   191035561.8361        100.374          25.000  
> 2021  9 12 13  1  7.9993167  0  6
C06  36207207.772   188540448.524           5.509          27.000  
C16  36778678.751   191516403.047          48.893          28.000  
G26  20199092.159   106146973.068         134.158          26.000  
G31  21380840.452                       -1196.395          32.000  
G32  20963240.351   110162591.6671      -1532.114          29.000  
R02  19824089.568   105785044.7851      -2964.389          22.000  
> 2021  9 12 13  1  8.9993162  0  7
C06  36207056.077   188539662.411           5.363          28.000  
C16  36778519.261   191515573.939          48.893          28.000  
G26  20198916.181   106146051.703         132.859          27.000  
G31  21380918.998   112357495.0281      -1196.977          31.000  
G32  20963383.052   110163335.661       -1531.814          26.000  
J01  36352579.533   191034100.3581        100.343          30.000  
R02  19824496.986   105787209.709       -2965.395          25.000  
> 2021  9 12 13  1  9.9993157  0  7
C06  36206903.482   188538876.138           5.350          28.000  
C16  36778360.671   191514744.600          48.027          29.000  
G26  20198742.302   106145131.649         131.817          25.000  
G31  21380989.749   112357904.736       -1197.487          33.000  
G32  20963524.254   110164079.905       -1532.431          24.000  
J01  36352408.951   191033212.436          99.977          29.000  
R02  19824904.404   105789375.693       -2966.517          25.000  
> 2021  9 12 13  1 10.9993155  0  6
C06  36206840.826   188538558.451           5.562          27.000  
C16  36778293.217   191514383.939          48.657          24.000  
G31  21381161.830   112358786.777       -1197.722          37.000  
G32  20963757.193   110165297.957       -1533.157          31.000  
J01  36352330.405   191032797.468          99.660          31.000  
R02  19825399.062   105792022.670       -2967.259          31.000  
> 2021  9 12 13  1 11.9993149  0  5
C16  36778107.046   191513397.539          49.173          23.000  
G31  21381211.295   112359038.947       -1197.895          37.000  
G32  20963868.416   110165885.782       -1532.843          30.000  
J01  36352132.842   191031752.271         100.079          31.000  
R02  19825773.503   105794030.472       -2968.113          35.000  
> 2021  9 12 13  1 12.9993147  0  7
C06  36206600.092   188537298.1151          6.279          24.000  
C16  36778036.895   191513036.620          48.472          28.000  
G26  20198382.851   106143163.9111        129.924          28.000  
G31  21381372.884   112359922.253       -1201.247          33.000  
G32  20964100.155   110167105.491       -1536.141          19.000  
J01  36352054.296   191031337.543          98.882          32.000  
R02  19826267.860   105796679.121       -2969.126          33.000  
> 2021  9 12 13  1 13.9993144  0  8
C06  36206508.955   188536823.627           5.758          26.000  
C16  36777934.366   191512519.435          49.463          26.000  
E01  23935318.324   125780946.3011      -1942.032          28.000  
G26  20198270.728   106142562.159         128.615          27.000  
G31  21381509.289   112360647.656       -1197.558          27.000  
G32  20964303.115   110168168.922       -1536.538          24.000  
J01  36351946.971   191030766.103          98.856          33.000  
R02  19826732.239   105799169.248       -2970.933          25.000  
> 2021  9 12 13  1 14.9993142  0  6
C06  36206450.196   188536505.984           5.058          26.000  
C16  36777864.814   191512158.372          48.357          26.000  
E01  23935629.209   125782580.217       -1942.784          32.000  
G32  20964536.953   110169390.062       -1536.011          30.000  
J01  36351867.826   191030351.906          99.490          32.000  
R02  19827226.896   105801820.345       -2971.538          32.000  
> 2021  9 12 13  1 15.9993137  0  7
C06  36206299.101   188535720.097           4.502          22.000  
C07  36418079.688   189638497.0111         74.599          25.000  
C16  36777705.924   191511329.776          47.612          25.000  
E01  23935850.456   125783742.507       -1943.809          32.000  
G32  20964677.856   110170138.147       -1536.087          33.000  
J01  36351697.843   191029464.624          99.019          28.000  
R02  19827631.316   105803992.254       -2972.363          36.000  
> 2021  9 12 13  1 16.9993134  0  8
C06  36206208.863   188535246.354           5.517          23.000  
C07  36417974.761   189637953.590          75.735          24.000  
C16  36777608.192   191510814.782          46.190          25.000  
E01  23936131.361   125785218.881       -1944.862          32.000  
G26  20197899.285   106140603.0811        125.920          18.000  
G31  21381896.621   112362667.4301      -1199.653          36.000  
J01  36351589.318   191028893.746          97.393          31.000  
R02  19828095.095   105806485.037       -2973.370          35.000  
> 2021  9 12 13  1 17.9993129  0  8
C06  36206058.068   188534461.114           3.924          25.000  
C07  36417810.774   189637097.601          75.619          22.000  
E01  23936351.109   125786373.171       -1945.227          31.000  
G26  20197724.806   106139689.835         124.702          19.000  
G31  21381977.565                       -1199.992          36.000  
G32  20965024.416   110171950.9211      -1537.897          30.000  
J01  36351420.535   191028008.799          96.656          31.000  
R02  19828500.415   105808658.852       -2974.147          34.000  
> 2021  9 12 13  1 18.9993126  0  8
C06  36205967.230   188533988.319           4.389          26.000  
C07  36417705.847   189636555.856          72.661          22.000  
E01  23936629.916   125787838.545       -1945.662          30.000  
G26  20197610.285   106139092.947         124.111          19.000  
G31  21382116.369   112363776.7511      -1199.996          37.000  
G32  20965226.476   110173016.257       -1537.931          30.000  
J01  36351312.610   191027439.713          96.607          33.000  
R02  19828964.793   105811153.507       -2975.116          34.000  
> 2021  9 12 13  1 19.9993121  0  9
C06  36205817.034   188533203.113           5.406          25.000  
C07  36417540.361   189635702.244          72.952          21.000  
C16  36777187.283   191508646.2981         46.756          23.000  
E01  23936852.062   125789005.835       -1944.260          32.000  
G26  20197439.703   106138181.198         124.204          19.000  
G31  21382197.013   112364188.855       -1199.149          37.000  
G32  20965367.378   110173765.897       -1537.144          28.000  
J01  36351143.527   191026556.010          96.028          33.000  
R02  19829370.712   105813329.069       -2975.783          34.000  
> 2021  9 12 13  1 20.9993116  0  9
C06  36205663.541   188532417.058           5.936          22.000  
C07  36417375.476   189634848.525          72.966          23.000  
C16  36777027.793   191507819.357          45.709          23.000  
E01  23937073.609   125790170.125       -1945.098          32.000  
G31  21382277.357   112364601.200       -1199.919          38.000  
G32  20965508.880   110174516.092       -1538.901          30.000  
J01  36350974.444   191025672.538          95.878          30.000  
J03  37272823.361   195870007.8391       -474.537          24.000  
R02  19829776.631   105815505.169       -2976.457          35.000  
> 2021  9 12 13  1 21.9993114  0 10
C06  36205604.182   188532098.903           5.505          23.000  
C07  36417299.928   189634462.946          74.246          23.000  
C10  37138350.255   193388962.1311        121.058          21.000  
C16  36776956.743   191507462.803          42.304          23.000  
E01  23937383.894   125791801.041       -1944.662          31.000  
G26  20197182.781   106136830.5521        122.841          18.000  
G31  21382446.141   112365486.376       -1200.299          37.000  
G32  20965740.620   110175740.445       -1540.083          27.000  
J01  36350896.498   191025262.035          94.853          30.000  
R02  19830273.987   105818161.841       -2977.029          35.000  
> 2021  9 12 13  1 22.9993108  0  9
C06  36205423.707   188531157.278           3.456          24.000  
C10  37138144.298   193387903.185         122.489          22.000  
C16  36776768.173   191506482.532          44.103          22.000  
E01  23937575.162   125792805.789       -1947.376          30.000  
G31  21382491.709   112365741.690       -1200.403          37.000  
G32  20965851.843   110176335.611       -1540.594          27.000  
J01  36350698.335   191024221.911          94.879          31.000  
J03  37272767.000   195869697.6951       -474.398          21.000  
R02  19830650.227   105820179.329       -2978.195          34.000  
> 2021  9 12 13  1 23.9993108  0  8
C06  36205424.906   188531153.877           3.585          26.000  
C10  37138119.415   193387780.320         121.559          23.000  
C16  36776759.479   191506437.683          44.855          25.000  
E01  23937945.405   125794751.789       -1946.811          32.000  
G31  21382721.950   112366942.370       -1201.223          35.000  
G32  20966142.641   110177875.818       -1540.154          25.000  
J03  37272858.137   195870172.641        -474.417          21.000  
R02  19831209.639   105823158.121       -2979.230          32.000  
> 2021  9 12 13  1 24.9993103  0  8
C06  36205275.609   188530369.804           3.440          26.000  
C07  36416927.586   189632509.8091         79.052          17.000  
C10  37137944.336   193386878.240         121.129          22.000  
C16  36776596.992   191505611.796          44.577          23.000  
E01  23938163.954   125795900.079       -1946.007          31.000  
G31  21382796.598   112367355.686       -1200.110          35.000  
J01  36350513.363   191023243.5271         96.883          33.000  
R02  19831618.556   105825338.237       -2980.639          34.000  
> 2021  9 12 13  1 25.9993101  0  9
C06  36205214.751   188530054.182           2.764          26.000  
C10  37137859.195   193386444.623         121.064          23.000  
C16  36776528.039   191505254.545          45.461          23.000  
E01  23938476.937   125797544.995       -1946.221          32.000  
G26  20196697.717   106134296.9861        118.954          16.000  
G31  21382967.180   112368241.607       -1200.171          36.000  
G32  20966518.881   110179856.0821      -1544.080          23.000  
J01  36350436.017                          93.771          33.000  
R02  19832118.310   105827999.350       -2981.515          34.000  
> 2021  9 12 13  1 26.9993096  0  8
C06  36205065.755   188529270.035           3.840          25.000  
C10  37137685.315   193385543.113         121.230          24.000  
C16  36776369.749   191504428.112          45.489          24.000  
E01  23938697.285   125798703.285       -1948.444          32.000  
G31  21383045.126   112368654.929       -1200.741          36.000  
G32  20966661.882   110180611.809       -1541.802          25.000  
J01  36350269.032   191021947.1041         93.931          33.000  
R02  19832529.625   105830181.378       -2982.442          35.000  
> 2021  9 12 13  1 27.9993093  0  8
C06  36204974.618   188528797.879           3.490          25.000  
C07  36416581.026   189630720.2501         73.433          18.000  
C10  37137572.593   193384954.298         120.556          25.000  
C16  36776271.417   191503914.566          44.569          24.000  
E01  23938975.492   125800164.659       -1947.464          32.000  
G31  21383180.932   112369383.664       -1199.921          36.000  
J01  36350158.409   191021379.592          94.497          33.000  
R02  19832999.700   105832683.835       -2982.702          36.000  
> 2021  9 12 13  1 28.9993088  0 10
C06  36204825.321   188528012.513           4.807          25.000  
C07  36416416.739   189629867.320          69.773          18.000  
C10  37137400.513   193384052.740         120.502          25.000  
C16  36776115.225   191503089.397          44.926          25.000  
E01  23939195.240   125801319.949       -1948.949          32.000  
G26  20196245.630   106131899.4101        117.930          16.000  
G31  21383261.876   112369797.699       -1202.482          37.000  
G32  20967006.943   110182435.6361      -1543.067          24.000  
J01  36349990.825   191020497.647          94.375          33.000  
R02  19833409.217   105834866.940       -2983.390          37.000  
> 2021  9 12 13  1 29.9993085  0  8
C06  36204735.683   188527539.222           4.615          26.000  
C07  36416312.711   189629328.592          70.571          18.000  
C10  37137286.891   193383464.234         119.737          24.000  
E01  23939477.045   125802800.323       -1949.078          31.000  
G31  21383402.778   112370527.056       -1202.245          35.000  
G32  20967209.903   110183506.195       -1544.278          23.000  
J01  36349889.195   191019930.860          93.157          34.000  
R02  19833878.392   105837370.816       -2984.478          36.000  
> 2021  9 12 13  1 30.9993080  0  9
C06  36204585.787   188526754.841           1.632          25.000  
C10  37137112.112   193382563.314         120.415          24.000  
C16  36775855.005   191501748.9761         46.730          24.000  
E01  23939695.893   125803950.613       -1951.905          28.000  
G26  20195962.626   106130400.0611        117.680          15.000  
G31  21383480.425   112370941.882       -1202.369          35.000  
G32  20967354.403   110184263.659       -1546.249          21.000  
J01  36349723.410   191019049.667          93.503          33.000  
R02  19834294.803   105839555.808       -2985.588          36.000  
> 2021  9 12 13  1 31.9993078  0  7
C06  36204524.329   188526440.598           1.647          27.000  
C10  37137027.271   193382129.565         122.264          24.000  
C16  36775786.653   191501389.946          47.032          25.000  
E01  23940006.778   125805584.529       -1949.188          29.000  
G31  21383646.809   112371829.319       -1201.169          35.000  
G32  20967591.838   110185494.760       -1546.761          23.000  
J01  36349641.267   191018641.151          93.285          34.000  
> 2021  9 12 13  1 32.9993075  0  9
C06  36204434.991   188525969.854           2.623          27.000  
C10  37136913.350   193381539.772         120.375          25.000  
C16  36775689.220   191500874.834          44.534          25.000  
E01  23940288.883   125807066.903       -1949.988          29.000  
G31  21383788.611   112372559.512       -1202.493          35.000  
G32  20967797.496   110186569.582       -1548.019          27.000  
J01  36349533.941   191018075.297          93.893          33.000  
J03  37272683.658   195869246.2711       -477.125          24.000  
R02  19835275.125   105844728.5721      -2987.356          35.000  
> 2021  9 12 13  1 33.9993070  0  8
C06  36204285.095   188525186.512           2.861          26.000  
C10  37136740.969   193380639.449         120.001          24.000  
E01  23940513.427   125808247.193       -1949.111          32.000  
G31  21383864.459   112372974.498       -1202.554          35.000  
G32  20967943.495   110187330.261       -1548.069          27.000  
J01  36349369.655   191017194.378          91.994          33.000  
J03  37272623.700   195868935.228        -475.979          23.000  
R02  19835687.339   105846916.263       -2987.931          35.000  
> 2021  9 12 13  1 34.9993068  0 10
C06  36204224.537   188524871.083           3.508          24.000  
C10  37136656.428   193380207.485         119.276          24.000  
C16  36775462.277   191499693.4281         45.756          25.000  
E01  23940824.912   125809883.109       -1951.499          31.000  
G26  20195518.933   106128043.7141        113.711          15.000  
G31  21384037.439   112373862.581       -1204.914          36.000  
G32  20968181.530   110188563.423       -1547.735          27.000  
J01  36349292.908   191016786.600          92.244          32.000  
J03  37272653.079   195869094.874        -474.242          23.000  
R02  19836190.991   105849584.592       -2988.729          36.000  
> 2021  9 12 13  1 35.9993062  0  9
C06  36204042.863   188523931.469           2.217          24.000  
C10  37136454.667   193379152.611         116.870          24.000  
C16  36775275.806   191498712.079          44.196          24.000  
E01  23941015.580   125810885.857       -1951.574          30.000  
G31  21384084.806   112374120.915       -1203.291          34.000  
G32  20968296.350   110189166.865       -1550.431          26.000  
J01  36349092.947   191015749.140          92.333          32.000  
J03  37272564.341   195868624.203        -476.228          22.000  
R02  19836572.027   105851613.938       -2989.783          34.000  
> 2021  9 12 13  1 36.9993060  0  9
C06  36203981.705   188523616.695           2.407          27.000  
C10  37136372.824   193378724.113         115.855          24.000  
C16  36775206.554   191498355.628          44.553          25.000  
E01  23941328.263   125812528.773       -1952.515          30.000  
G31  21384256.287   112375009.677       -1204.429          35.000  
G32  20968531.388   110190402.237       -1550.451          28.000  
J01  36349017.399   191015342.111          91.604          34.000  
J03  37272592.521   195868785.811        -477.531          22.000  
R02  19837072.381   105854284.356       -2990.855          33.000  
> 2021  9 12 13  1 37.9993055  0 10
C06  36203830.909   188522833.757           2.036          27.000  
C07  36415293.717   189624072.9561         72.646          17.000  
C10  37136201.942   193377827.305         116.227          23.000  
C16  36775049.163   191497530.074          45.100          24.000  
E01  23941549.210   125813690.063       -1951.697          29.000  
G26  20195067.446   106125667.1961        107.592          15.000  
G31  21384333.934   112375425.956       -1203.092          35.000  
G32  20968676.787   110191165.459       -1550.439          28.000  
J01  36348850.414   191014462.669          90.539          34.000  
J03  37272530.164   195868474.955        -476.828          21.000  
> 2021  9 12 13  1 38.9993052  0  8
C06  36203741.571   188522362.996           2.484          27.000  
C10  37136088.921   193377242.463         116.292          23.000  
E01  23941828.617   125815158.437       -1952.723          30.000  
G31  21384472.738   112376157.469       -1203.869          33.000  
G32  20968883.644   110192243.774       -1551.367          29.000  
J01  36348741.890   191013898.423          91.660          35.000  
J03  37272532.263   195868479.799        -477.170          20.000  
R02  19837953.471   105858988.1411      -2992.776          30.000  
> 2021  9 12 13  1 39.9993047  0  7
C06  36203590.176   188521579.736           3.019          27.000  
C10  37135918.638   193376346.169         116.281          24.000  
C16  36774791.342   191496192.4901         44.507          23.000  
E01  23942057.359   125816359.727       -1953.230          29.000  
G31  21384553.382   112376574.183       -1204.258          34.000  
J01  36348576.104   191013019.528          91.193          35.000  
R02  19838362.687   105861181.411       -2993.671          31.000  
> 2021  9 12 13  1 40.9993044  0  7
C06  36203499.339   188521108.732           1.519          26.000  
C10  37135805.317   193375762.661         114.787          22.000  
C16  36774693.609   191495679.129          44.990          22.000  
E01  23942338.864   125817839.101       -1951.029          26.000  
G31  21384691.586   112377306.274       -1204.604          36.000  
J01  36348478.372   191012455.913          92.293          33.000  
R02  19838831.862   105863695.651       -2994.768          32.000  
> 2021  9 12 13  1 41.9993039  0  7
C06  36203348.244   188520326.632           1.434          25.000  
C10  37135634.135   193374867.267         115.778          21.000  
C16  36774535.019   191494853.525          42.913          23.000  
E01  23942558.911   125818995.391       -1952.485          30.000  
G31  21384773.429   112377723.084       -1203.837          36.000  
J01  36348308.390   191011577.116          90.876          32.000  
R02  19839238.681   105865890.647       -2995.054          31.000  
> 2021  9 12 13  1 42.9993037  0  8
C06  36203286.786   188520012.718           1.159          24.000  
C10  37135551.093   193374438.905         116.528          22.000  
E01  23942868.897   125820624.307       -1954.330          29.000  
G26  20194421.393   106122294.1391        106.867          18.000    20194399.508    79247160.5721         79.304          24.000  
G31  21384943.412   112378612.904       -1205.610          35.000  
G32  20969624.431   110196090.8591      -1554.188          26.000  
J01  36348227.146   191011171.458          90.575          31.000  
R02  19839735.437   105868566.036       -2995.725          32.000  
> 2021  9 12 13  1 43.9993034  0  8
C06  36203195.949   188519542.427           1.654          27.000  
C10  37135438.971   193373855.482         114.076          23.000  
C16  36774368.934   191493984.6281         44.646          26.000  
E01  23943148.303   125822092.681       -1954.228          28.000  
G26  20194309.870   106121716.701         104.685          17.000    20194289.185    79246729.205          77.884          25.000  
G31  21385081.316   112379346.466       -1204.710          26.000  
J01  36348112.925   191010608.012          88.965          33.000  
J03  37272434.231   195868015.7541       -473.287          17.000  
> 2021  9 12 13  1 44.9993029  0  9
C06  36203044.854   188518759.851           1.800          28.000  
C10  37135265.691   193372959.616         116.497          24.000  
C16  36774212.143   191493159.646          44.480          27.000  
E01  23943369.250   125823253.971       -1954.506          30.000  
G26  20194139.288   106120823.331         105.746          19.000    20194118.303    79246063.279          77.840          24.000  
G31  21385160.162   112379763.304       -1204.653          31.000  
G32  20969979.685   110197935.4321      -1554.081          12.000  
J01  36347945.341   191009729.658          89.475          35.000  
R02  19840604.835   105873278.8011      -2996.823          25.000  
> 2021  9 12 13  1 45.9993027  0  7
C06  36202983.396   188518446.137           1.226          27.000  
C10  37135182.348   193372531.274         115.695          24.000  
E01  23943681.035   125824892.887       -1955.740          31.000  
G26  20194058.344   106120402.583         105.514          20.000    20194038.258    79245749.844          78.463          24.000  
G31  21385328.945   112380653.252       -1205.608          35.000  
J01  36347870.693   191009325.112          90.558          35.000  
R02  19841100.992   105875956.418       -2998.753          28.000  
> 2021  9 12 13  1 46.9993021  0  9
C06  36202802.621   188517508.227           0.561          25.000  
C10  37134976.091   193371478.868         115.536          21.000  
C16  36773952.223   191491819.0571         46.047          23.000  
E01  23943874.101   125825907.635       -1955.382          33.000  
G26  20193858.383   106119352.271         104.586          24.000    20193838.297    79244965.717          78.921          24.000  
G31  21385377.511   112380913.392       -1205.229          36.000  
G32  20970333.740   110199784.5331      -1555.536          28.000  
J01  36347676.127   191008290.368          91.862          34.000  
R02  19841479.929   105877995.742       -2999.973          31.000  
> 2021  9 12 13  1 47.9993019  0  7
C16  36773885.369   191491462.490          43.587          24.000  
E01  23944187.084   125827551.551       -1956.293          34.000  
G26                                                                  20193758.552    79244652.044          78.063          23.000  
G31  21385546.594                       -1206.622          36.000  
G32  20970568.777   110201026.037       -1556.974          30.000  
J01  36347596.982   191007884.830          91.593          27.000  
R02  19841982.082   105880676.023       -3000.742          32.000  
> 2021  9 12 13  1 48.9993014  0  7
C06  36202591.268   188516412.3601          1.924          21.000  
C16  36773727.978   191490638.858          42.528          25.000  
E01  23944411.329   125828729.841       -1956.580          35.000  
G26  20193603.559   106118041.4791        103.032          28.000  
G31  21385627.838   112382224.6121      -1206.560          36.000  
J01  36347429.398   191007005.874          90.343          27.000  
R02  19842390.999   105882877.202       -3001.574          34.000  
> 2021  9 12 13  1 49.9993009  0  8
C06  36202441.971   188515630.537           0.728          18.000  
C10  37134547.088   193369257.7931        114.376          20.000  
C16  36773566.690   191489815.129          43.843          25.000  
E01  23944634.674   125829904.131       -1957.860          34.000  
G16  22198869.143   116655696.7991       2465.155          26.000  
G31  21385710.581   112382642.443       -1206.130          35.000  
J01  36347261.215   191006127.751          90.847          31.000  
R02  19842801.115   105885078.959       -3001.707          36.000  
