     3.04           OBSERVATION DATA    M: Mixed            RINEX VERSION / TYPE
Higeo_Hi1105        Huawei CBG          20220123 111755 UTC PGM / RUN BY / DATE 
************************************************************COMMENT             
* If you have any problem,                                 *COMMENT             
*     please contact with LBS Technology Group, thanks.    *COMMENT             
*                                                          *COMMENT             
* Version Higeo2RinexV1.1 2020.07.21                       *COMMENT             
* Fuction:  Convert Higeo Log to Rinex file                *COMMENT             
*                                                          *COMMENT             
* Note that the verision support B1C B2A signal            *COMMENT             
*     BDS: C1D L1D D1D S1D indicate BDS B1C                *COMMENT             
*     BDS: C5D L5D D5D S5D indicate BDS B2A                *COMMENT             
*     Reference: RINEX V3.04                               *COMMENT             
*                                                          *COMMENT             
* Copyright(C) Huawei Technologies Co., Ltd. 2019 - 2020   *COMMENT             
*     All rights reserved.                                 *COMMENT             
************************************************************COMMENT             
                                                            MARKER NAME         
                                                            MARKER NUMBER       
                                                            MARKER TYPE         
                                                            OBSERVER / AGENCY   
                                                            REC # / TYPE / VERS 
                                                            ANT # / TYPE        
        0.0000        0.0000        0.0000                  APPROX POSITION XYZ 
        0.0000        0.0000        0.0000                  ANTENNA: DELTA H/E/N
G    8 C1C L1C D1C S1C C5I L5I D5I S5I                      SYS / # / OBS TYPES 
R    4 C1C L1C D1C S1C                                      SYS / # / OBS TYPES 
E    8 C1C L1C D1C S1C C5I L5I D5I S5I                      SYS / # / OBS TYPES 
J    8 C1C L1C D1C S1C C5I L5I D5I S5I                      SYS / # / OBS TYPES 
C   12 C2I L2I D2I S2I C1D L1D D1D S1D C5D L5D D5D S5D      SYS / # / OBS TYPES 
  2022     1    20     5    32   58.7560000     GPS         TIME OF FIRST OBS   
  2022     1    20     6    17   13.0000000     GPS         TIME OF LAST OBS    
G                                                           SYS / PHASE SHIFT   
R                                                           SYS / PHASE SHIFT   
E                                                           SYS / PHASE SHIFT   
J                                                           SYS / PHASE SHIFT   
C                                                           SYS / PHASE SHIFT   
  0                                                         GLONASS SLOT / FRQ #
 C1C    0.000 C1P    0.000 C2C    0.000 C2P    0.000        GLONASS COD/PHS/BIS 
                                                            END OF HEADER       
> 2022  1 20  5 32 58.7560000  0  6                     
G 4  24604563.356                1       -480.819          38.000                                                                  
G26  21656910.948                1       3442.361          31.000                                                                  
G27  24548698.071                1      -1250.180          18.000                                                                  
G29  25303280.753                1       5123.397          28.000                                                                  
G31  22717042.388                1       3679.056          33.000                                                                  
J 2  40561310.632                1       2957.208          34.000                                                                  
> 2022  1 20  5 32 59.7560000  0 10                     
G 4  24604474.325                1       -475.155          40.000                                                                  
G26  21657558.124                1       3448.080          35.000    21657844.953                1       2573.817          32.000  
G27  24548467.798                1      -1224.241          19.000                                                                  
G29  25304259.082                1       5144.052          33.000                                                                  
G31  22717743.712                1       3683.916          31.000                                                                  
R15  22561643.837                1                         44.000  
J 2  40561866.892                1       2962.486          39.000                                                                  
C22  25263867.622                1       5050.449          32.000                                                                                                                                  
C30  25158039.537                1       2494.481          34.000                                                                                                                                  
C36                                                                  24496460.443                1       3721.111          40.000                                                                  
> 2022  1 20  5 33  0.7560000  0 24                     
G 3  25203548.833                1       3910.409          23.000                                                                  
G 4  24604431.188                1       -472.431          32.000    24604679.504                1       -352.817          25.000  
G16  22238900.890                1       1183.448          28.000                                                                  
G26  21658213.729                1       3448.115          36.000    21658498.359                1       2577.656          28.000  
G27  24548239.829                1      -1209.938          22.000                                                                  
G29  25305235.684                1       5149.250          36.000                                                                  
G31  22718446.415                1       3687.893          44.000                                                                  
G32  24395633.940                1       6054.708          19.000                                                                  
R 5  22065607.629                1                         36.000  
R 9  25081590.256                1                         20.000  
R15  22562464.398                1                         42.000  
R17  23131910.077                1                         26.000  
R18  23796016.800                1                         25.000  
R24  25343064.039                1                         23.000  
J 2  40562431.005                1       2964.045          31.000    40562731.202                1       2209.672          24.000  
J 3  38590522.914                1       2425.047          22.000                                                                  
C 6  37110093.120                1       2360.146          28.000                                                                                                                                  
C 9  37761156.818                1       1996.051          34.000                                                                                                                                  
C10  38865752.163                1       2138.736          25.000                                                                                                                                  
C16  37121890.881                1       2393.728          25.000                                                                                                                                  
C21  25405853.901                1       2538.970          24.000    25405514.006                1       2562.008          22.000                                                                  
C22  25264831.118                1       5054.537          26.000                                                                                                                                  
C30  25158511.496                1       2490.044          34.000    25158042.923                1       2512.081          32.000                                                                  
C36  24497603.014                1       3686.402          31.000    24497167.613                1       3719.047          36.000                                                                  
> 2022  1 20  5 33  1.3520000  0 24                     
G 3  23862507.731                1       3912.125          23.000                                                                  
G 4  23262897.781                1       -471.150          32.000    23263136.779                1       -351.433          29.000  
G16  20897547.500                1       1183.713          28.000                                                                  
G26  20317117.572                1       3449.775          36.000    20317401.696                1       2578.384          28.000  
G27  23206616.605                1      -1208.404          14.000                                                                  
G29  23964330.153                1       5151.004          36.000                                                                  
G31  21377379.592                1       3688.529          44.000                                                                  
G32  23054836.706                1       6055.623          17.000                                                                  
R 5  20724790.222                1                         36.000  
R 9  23740153.174                1                         20.000  
R15  21221464.933                1                         43.000  
R17  21790625.161                1                         26.000  
R18  22454421.445                1                         25.000  
R24  24002099.753                1                         23.000  
J 2  39221279.601                1       2964.853          31.000    39221580.286                1       2210.151          22.000  
J 3  37249308.130                1       2424.534          22.000                                                                  
C 6  35768873.992                1       2361.101          28.000                                                                                                                                  
C 9  36419896.402                1       1996.502          34.000                                                                                                                                  
C10  37524509.040                1       2140.803          25.000                                                                                                                                  
C16  35780679.710                1       2395.286          25.000                                                                                                                                  
C21  24064665.956                1       2536.733          24.000    24064286.658                1       2563.935          22.000                                                                  
C22  23923921.679                1       5054.881          26.000    23923479.874                1       5104.201          32.000                                                                  
C30  23817300.063                1       2491.503          34.000    23816841.890                1       2516.469          33.000                                                                  
C36  23156537.290                1       3686.317          32.000    23156109.446                1       3715.531          25.000                                                                  
> 2022  1 20  5 33  2.3520000  0 30                     
G 3  23862872.493                1       1910.979          18.000                                                                  
G 4  23262437.985                1      -2477.829          31.000    23262664.436                1      -1849.103          28.000  
G16  20897391.565                1       -820.159          23.000                                                                  
G26  20317389.760                1       1445.908          34.000    20317677.724                1       1078.689          29.000  
G27  23206004.242                1      -3213.618          18.000                                                                  
G29  23964929.551                1       3146.231          35.000                                                                  
G31  21377709.733                1       1684.222          45.000                                                                  
G32  23055609.000                1       4053.547          19.000                                                                  
R 5  20725526.970                1                         32.000  
R 6  20720957.997                1                         20.000  
R 9  23739844.165                1                         18.000  
R15  21221903.474                1                         43.000  
R17  21790565.987                1                         31.000  
R18  22453875.829                1                         25.000  
R24  24002601.691                1                         28.000  
E 1  24578858.312                1       2066.335          35.000                                                                  
E 4  23932769.026                1       1791.293          30.000                                                                  
E31  24270591.718                1         48.129          29.000                                                                  
J 2  39221463.247                1        960.615          34.000    39221760.494                1        716.149          29.000  
J 3  37249385.592                1        424.043          20.000                                                                  
C 6  35768945.084                1        372.939          30.000                                                                                                                                  
C 9  36419898.566                1         11.781          34.000                                                                                                                                  
C10  37524537.606                1        157.635          26.000                                                                                                                                  
C16  35780763.418                1        410.346          30.000                                                                                                                                  
C21  24064787.392                1        548.831          23.000    24064393.261                1        557.726          26.000                                                                  
C22  23924500.206                1       3069.921          26.000    23924066.707                1       3097.759          32.000                                                                  
C26  26104748.174                1      -1413.382          15.000                                                                                                                                  
C29  23757651.606                1      -1954.349          21.000    23757276.078                1      -1966.087          17.000                                                                  
C30  23817376.844                1        507.192          36.000    23816945.317                1        511.792          34.000                                                                  
C36  23156862.894                1       1701.379          38.000    23156432.973                1       1715.541          39.000                                                                  
> 2022  1 20  5 33  3.3520000  0 32                     
G 3  23863234.393   125402142.7541       1912.407          19.000                                                                  
G 4  23261958.069   122242413.0661      -2475.920          33.000    23262191.727    91285836.9911      -1848.884          30.000  
G16  20897234.774   109815708.1291       -816.857          30.000                                                                  
G26  20317663.188   106770039.4361       1446.691          41.000    20317955.078    79732019.5321       1079.821          31.000  
G27  23205390.222   121945147.2211      -3214.385          19.000                                                                  
G29  23965518.757   125939650.1971       3146.743          34.000                                                                  
G31  21378028.705   112342298.1731       1684.660          30.000                                                                  
G32  23056374.174   121162063.4151       4056.187          17.000                                                                  
R 5  20726267.522                1                         32.000  
R 6  20720869.036                1                         24.000  
R 9  23739554.858                1                         21.000  
R15  21222333.762                1                         38.000  
R17  21790513.253                1                         32.000  
R18  22453328.887                1                         29.000  
R24  24003087.383                1                         19.000  
E 1  24579278.618   129164980.0021       2057.188          29.000                                                                  
E 4  23933106.112   125769320.3041       1793.969          22.000    23933121.904                1       1343.490          13.000  
E 9  23447313.688   123216464.1421       -978.294          32.000                                                                  
E26  27815337.126   146170582.1991      -1162.380          23.000                                                                  
E31  24270627.822   127543009.9311         49.797          23.000                                                                  
J 2  39221647.015   206111145.6751        960.732          36.000    39221942.221   153915326.1681        718.584          32.000  
J 3  37249460.087   195747232.2321        430.075          17.000                                                                  
C 6  35769015.827   186258650.5781        373.081          29.000                                                                                                                                  
C 9  36419899.438   189647973.1531         11.292          28.000                                                                                                                                  
C10  37524561.356   195400238.0331        157.436          23.000                                                                                                                                  
C16  35780845.399   186320251.3581        411.508          29.000                                                                                                                                  
C21  24064902.529   125312261.9541        550.113          25.000    24064495.467   126459776.2571        557.908          24.000                                                                  
C22  23925085.783   124584199.7451       3071.172          24.000    23924659.334   125724932.0871       3098.485          31.000                                                                  
C26  26104480.628   135932879.9091      -1413.859          20.000                                                                                                                                  
C29  23757255.521   123710263.3731      -1955.825          23.000    23756882.750   124843260.5141      -1964.364          18.000                                                                  
C30  23817471.546   124023824.3391        507.408          35.000    23817043.737   125159409.0441        512.032          37.000                                                                  
C36  23157191.272   120585570.9221       1702.387          41.000    23156757.843   121689582.7071       1718.351          42.000                                                                  
> 2022  1 20  5 33  4.0000000  0 33                     
G 3  23863310.424   125402542.5731       1911.785          19.000                                                                  
G 4  23261450.599   122239747.8641      -2474.721          38.000    23261731.059    91284029.7761      -1848.505          30.000  
G16  20896974.138   109814340.6841       -816.061          25.000                                                                  
G26  20317687.356   106770167.8641       1447.791          38.000    20317978.827    79732113.8561       1080.630          31.000  
G27  23204838.725   121942250.0401      -3217.178          19.000                                                                  
G29  23965749.030   125940861.4041       3148.390          31.000                                                                  
G31  21378078.124   112342558.7131       1685.436          30.000                                                                  
G32  23056709.341   121163825.3141       4058.385          17.000                                                                  
R 5  20726588.973                1                         27.000  
R 6  20720657.592                1                         24.000  
R 7  24132951.293                1                         22.000  
R 9  23739210.304                1                         21.000  
R15  21222459.037                1                         38.000  
R17  21790328.403                1                         35.000  
R18  22452817.717                1                         26.000  
R24  24003253.527                1                         19.000  
E 1  24579387.839   129165554.3511       2057.353          37.000                                                                  
E 4  23933174.150   125769679.4891       1795.044          23.000    23933184.237                1       1340.113           8.000  
E 9  23447043.472   123215045.2391       -978.152          20.000                                                                  
E26  27815041.746   146169030.0371      -1162.100          24.000                                                                  
E31  24270464.122   127542149.8881         50.949          14.000                                                                  
J 2  39221614.192   206110973.5391        962.614          36.000    39221905.296   153915181.5191        719.228          32.000  
J 3  37249355.194   195746682.7351        431.520          14.000                                                                  
C 6  35768906.885   186258084.7441        373.379          31.000                                                                                                                                  
C 9  36419743.625   189647162.1861         11.659          24.000                                                                                                                                  
C10  37524421.650   195399510.2751        157.015          24.000                                                                                                                                  
C16  35780741.204   186319708.5751        411.726          31.000                                                                                                                                  
C21  24064819.204   125311828.0651        552.785          28.000    24064406.646   126459310.0891        558.859          25.000                                                                  
C22  23925311.606   124585375.3821       3073.339          23.000    23924881.877   125726102.1601       3100.020          27.000                                                                  
C26  26104146.648   135931141.5881      -1409.956          18.000                                                                                                                                  
C29  23756858.738   123708197.2721      -1953.934          23.000    23756478.760   124841138.9611      -1966.990          18.000                                                                  
C30  23817379.950   124023347.9001        508.346          37.000    23816949.732   125158915.1901        513.003          37.000                                                                  
C36  23157250.254   120585878.0391       1703.213          41.000    23156813.422   121689875.1381       1719.148          42.000                                                                  
> 2022  1 20  5 33  5.0000000  0 34                     
G 3  23863674.505   125404455.8981       1914.406          18.000                                                                  
G 4  23260952.867   122237132.8621      -2472.748          36.000    23261259.519    91282181.3481      -1848.397          29.000  
G16  20896821.030   109813525.3141       -814.848          30.000                                                                  
G26  20317964.972   106771615.8251       1447.067          34.000    20318254.646    79733194.6841       1080.986          28.000  
G27  23204227.444   121939031.5091      -3217.936          19.000                                                                  
G29  23966348.829   125944009.1491       3147.771          30.000                                                                  
G31  21378396.730   112344244.8151       1686.364          37.000                                                                  
G32  23057477.848   121167885.5211       4062.015          16.000                                                                  
R 5  20727328.182                1                         31.000  
R 6  20720580.200                1                         17.000  
R 7  24132347.062                1                         20.000  
R 9  23738915.517                1                         20.000  
R15  21222894.263                1                         32.000  
R17  21790274.900                1                         30.000  
R18  22452267.547                1                         26.000  
R24  24003747.281                1                         25.000  
E 1  24579788.932   129167611.8761       2058.148          39.000    24579781.883    96456356.1511       1538.852          33.000  
E 4  23933516.995   125771475.0721       1796.394          26.000    23933519.996                1       1340.472          11.000  
E 9  23446849.984   123214066.0661       -979.180          24.000                                                                  
E26  27814824.352   146167868.5481      -1160.771          23.000                                                                  
E31  24270466.408   127542199.7041         48.853          24.000                                                                  
J 1  36605025.395   192360706.5071        763.830          13.000                                                                  
J 2  39221797.000   206111936.1981        962.707          29.000    39222087.651   153915900.9541        719.113          31.000  
J 3  37249435.726   195747114.2881        430.770          16.000                                                                  
C 6  35768978.065   186258458.3891        374.296          30.000                                                                                                                                  
C 9  36419745.841   189647174.0061         12.032          30.000                                                                                                                                  
C10  37524450.373   195399667.2891        157.597          29.000                                                                                                                                  
C16  35780820.323   186320119.2051        410.697          30.000                                                                                                                                  
C21  24064928.861   125312382.8891        555.127          22.000    24064513.441   126459869.3311        559.239          20.000                                                                  
C22  23925900.830   124588448.8331       3073.073          20.000    23925473.491   125729202.2271       3100.472          29.000                                                                  
C26  26103874.547   135929733.1341      -1410.148          13.000                                                                                                                                  
C29  23756487.799   123706244.5851      -1952.636          20.000    23756095.972   124839167.0751      -1975.509          18.000                                                                  
C30  23817477.113   124023856.646         507.076          36.000    23817045.307   125159428.2621        513.183          36.000                                                                  
C36  23157580.900   120587581.1961       1704.527          39.000    23157140.073   121691594.3151       1719.212          38.000                                                                  
> 2022  1 20  5 33  6.0000000  0 34                     
G 3  23864038.115   125406369.2991       1912.623          18.000                                                                  
G 4  23260478.238   122234659.630       -2473.499          36.000    23260788.555    91280333.7311      -1847.481          32.000  
G16  20896665.129   109812711.2011       -813.754          31.000                                                                  
G26  20318240.144   106773062.5151       1447.110          34.000    20318530.813    79734276.2551       1081.756          31.000  
G27  23203618.501   121935813.7751      -3217.662          24.000                                                                  
G29  23966950.007   125947157.0871       3148.440          28.000                                                                  
G31  21378718.233   112345932.0531       1687.829          35.000                                                                  
G32  23058247.211   121171946.0781       4059.136          16.000                                                                  
R 5  20728070.549                1                         29.000  
R 6  20720494.380                1                         23.000  
R 7  24131770.140                1                         19.000  
R 9  23738627.362                1                         19.000  
R15  21223326.801                1                         35.000  
R17  21790220.927                1                         36.000  
R18  22451720.465                1                         27.000  
R24  24004244.403                1                         22.000  
E 1  24580180.515   129169670.9621       2058.976          29.000    24580174.355    96457894.8441       1539.068          34.000  
E 4  23933857.222   125773272.2831       1797.712          21.000    23933860.084    93921607.7851       1340.590          15.000  
E 9  23446665.029   123213088.1501       -977.541          37.000                                                                  
E26  27814603.153   146166707.9361      -1160.495          26.000                                                                  
E31  24270468.711   127542249.7631         50.994          31.000                                                                  
J 1  36605215.742   192361470.7141        764.552          16.000                                                                  
J 2  39221979.931   206112898.7691        962.639          34.000    39222270.250   153916619.7181        719.070          29.000  
J 3  37249518.650   195747543.4371        428.513          17.000                                                                  
C 6  35769050.815   186258834.1381        375.337          22.000                                                                                                                                  
C 9  36419748.215   189647186.6801         12.883          28.000                                                                                                                                  
C10  37524479.794   195399825.2671        157.954          21.000                                                                                                                                  
C16  35780901.118   186320530.2161        411.083          24.000                                                                                                                                  
C21  24065040.455   125312939.1141        557.931          25.000    24064617.305   126460429.3261        560.325          26.000                                                                  
C22  23926488.763   124591521.5541       3071.755          27.000    23926064.408   125732303.4341       3101.459          29.000                                                                  
C26  26103603.457   135928321.9121      -1411.304          16.000                                                                                                                                  
C29  23756114.923   123704293.2441      -1950.339          22.000    23755713.673   124837197.4611      -1963.601          19.000                                                                  
C30  23817576.370   124024366.263         510.350          33.000    23817142.767   125159941.5741        514.162          35.000                                                                  
C36  23157905.335   120589283.7811       1702.564          30.000    23157464.909   121693313.5071       1719.247          34.000                                                                  
> 2022  1 20  5 33  7.0000000  0 34                     
G 3  23864395.461   125408282.3571       1913.438          19.000                                                                  
G 4  23260015.022   122232186.115       -2472.226          37.000    23260319.354    91278486.4051      -1847.163          34.000  
G16  20896510.468   109811897.1741       -813.969          30.000                                                                  
G26  20318514.671   106774511.0081       1448.608          32.000    20318807.085    79735358.2821       1082.585          31.000  
G27  23203004.969   121932595.2991      -3218.434          24.000    23203305.776    91054755.4681      -2400.756          15.000  
G29  23967550.346   125950305.8861       3149.273          32.000                                                                  
G31  21379037.834   112347620.3481       1688.427          34.000                                                                  
G32  23059020.325   121176005.4071       4062.032          16.000                                                                  
R 5  20728815.394                1                         23.000  
R 6  20720412.590                1                         28.000  
R 7  24131182.870                1                         15.000  
R 9  23738340.585                1                         18.000  
R15  21223761.800                1                         38.000  
R17  21790161.160                1                         36.000  
R18  22451180.084                1                         22.000  
R24  24004736.220                1                         24.000  
E 1  24580570.807   129171730.4741       2060.312          34.000    24580567.823    96459427.2341       1544.232          34.000  
E 4  23934196.053   125775069.5181       1797.797          22.000    23934201.637    93922949.1361       1341.938          15.000  
E 9  23446484.192   123212110.8021       -977.599          32.000    23446482.814    92009034.2581       -730.434          24.000  
E26  27814383.158   146165547.6131      -1160.536          19.000                                                                  
E31  24270476.389   127542300.1571         49.832          29.000                                                                  
J 1  36605360.405   192362234.9591        762.990          12.000                                                                  
J 2  39222162.373   206113861.1471        963.002          32.000    39222453.355   153917339.2791        720.125          30.000  
J 3  37249601.050   195747972.5931        428.660          16.000                                                                  
C 6  35769122.186   186259208.7021        374.280          30.000                                                                                                                                  
C 9  36419751.460   189647199.0621         12.085          28.000                                                                                                                                  
C10  37524510.506   195399983.7261        159.875          19.000                                                                                                                                  
C16  35780982.227   186320941.2771        411.284          30.000                                                                                                                                  
C21  24065150.775   125313496.7211        556.923          28.000    24064718.987   126460989.5471        559.556          30.000                                                                  
C22  23927080.552   124594593.1401       3072.003          23.000    23926653.371   125735405.4921       3102.103          27.000                                                                  
C26  26103330.868   135926910.7381      -1411.699          15.000                                                                                                                                  
C29  23755741.924   123702344.6801      -1947.777          19.000    23755331.757   124835231.6711      -1967.392          19.000                                                                  
C30  23817673.829   124024876.3241        510.854          37.000    23817236.945   125160456.3131        515.094          39.000                                                                  
C36  23158230.938   120590986.6201       1703.466          40.000    23157791.612   121695033.5081       1721.937          41.000                                                                  
> 2022  1 20  5 33  8.0000000  0 35                     
G 3  23864758.303   125410195.0881       1912.736          24.000                                                                  
G 4  23259551.038   122229713.0801      -2472.677          36.000    23259849.751    91276638.2961      -1847.959          29.000  
G16  20896355.318   109811083.2591       -813.659          29.000                                                                  
G26  20318790.297   106775959.5581       1449.276          31.000    20319082.658    79736440.9251       1082.648          25.000  
G27  23202391.262   121929378.6001      -3215.404          26.000    23202693.814    91052355.4391      -2399.880          23.000  
G29  23968150.337   125953455.3561       3149.678          26.000                                                                  
G31  21379359.215   112349307.9461       1686.710          31.000                                                                  
G32  23059792.358   121180065.1521       4059.396          16.000                                                                  
R 5  20729547.867                1                         26.000  
R 6  20720327.503                1                         21.000  
R 7  24130597.608                1                         14.000  
R 9  23738041.331                1                         11.000  
R15  21224193.972                1                         35.000  
R17  21790093.331                1                         27.000  
R18  22450639.232                1                         20.000  
R24  24005228.228                1                         21.000  
E 1  24580960.715   129173791.1951       2061.583          36.000    24580959.842    96460965.4651       1537.613          31.000  
E 4  23934537.658   125776867.7411       1799.067          26.000    23934542.684    93924292.1651       1344.395          15.000  
E 9  23446300.215   123211133.2261       -976.648          28.000    23446296.760    92008305.0071       -729.405          23.000  
E26  27814163.809   146164388.2331      -1159.221          19.000                                                                  
E31  24270478.466   127542350.3591         51.577          22.000                                                                  
J 1  36605502.694   192362998.5161        764.060          12.000                                                                  
J 2  39222344.588   206114823.6491        962.660          28.000    39222636.513   153918059.7171        720.992          21.000  
J 3  37249685.858   195748399.6721        426.637          16.000                                                                  
C 3  36905479.580                1        618.053          29.000                                                                                                                                  
C 6  35769194.430   186259583.0991        374.862          25.000                                                                                                                                  
C 9  36419752.403   189647211.9581         12.941          23.000                                                                                                                                  
C10  37524538.531   195400143.4211        159.520          18.000                                                                                                                                  
C16  35781061.136   186321352.4641        410.078          27.000                                                                                                                                  
C21  24065259.019   125314054.3941        558.824          28.000    24064823.427   126461549.7661        561.063          25.000                                                                  
C22  23927669.776   124597666.0721       3073.611          30.000    23927243.153   125738507.4881       3102.113          29.000                                                                  
C26  26103060.808   135925498.5171      -1412.219          15.000                                                                                                                                  
C29  23755367.478   123700398.0661      -1946.083          20.000    23754951.063   124833261.4381      -1974.321          19.000                                                                  
C30  23817772.877   124025387.5071        511.218          30.000    23817335.155   125160972.1431        516.038          31.000                                                                  
C36  23158557.432   120592690.3281       1704.278          29.000    23158120.234   121696753.5931       1719.326          32.000                                                                  
> 2022  1 20  5 33  9.0000000  0 36                     
G 3  23865122.838   125412108.4331       1913.116          16.000                                                                  
G 4  23259082.465   122227239.8691      -2472.652          31.000    23259380.148    91274791.6351      -1845.648          26.000  
G16  20896200.133   109810269.9931       -812.693          26.000                                                                  
G26  20319063.742   106777408.8011       1449.393          29.000    20319357.307    79737522.8781       1081.723          25.000  
G27  23201780.417   121926163.4981      -3214.959          24.000    23202079.095    91049955.2571      -2400.191          23.000  
G29  23968743.854   125956605.6101       3150.624          21.000                                                                  
G31  21379679.496   112350994.6371       1687.614          31.000                                                                  
G32  23060577.286   121184126.4961       4062.034          14.000                                                                  
R 5  20730287.948                1                         30.000  
R 6  20720246.796                1                         16.000  
R 7  24130009.849                1                         14.000  
R 9  23737753.594                1                         11.000  
R15  21224624.626                1                         30.000  
R17  21790028.451                1                         33.000  
R18  22450097.595                1                         18.000  
R24  24005725.804                1                         17.000  
E 1  24581351.111   129175852.4871       2061.006          30.000    24581351.355    96462503.1111       1537.916          26.000  
E 4  23934875.355   125778666.0901       1797.943          27.000    23934883.399    93925637.8931       1345.743          17.000  
E 9  23446113.986   123210156.9781       -975.911          32.000    23446110.566    92007575.7161       -729.149          27.000  
E21                                                                  28277661.241   110967613.3171       2068.987          12.000  
E26  27813943.779   146163229.0871      -1159.449          24.000                                                                  
E31  24270483.736   127542402.9081         52.233          26.000    24270482.671    95242587.8051         43.615          22.000  
J 1  36605649.223   192363764.3401        766.103          13.000                                                                  
J 2  39222527.536   206115786.1251        962.388          28.000    39222819.792   153918780.2121        721.640          21.000  
J 3  37249769.985   195748824.3081        423.306          17.000                                                                  
C 3  36905552.853   192176897.5361        625.500          21.000                                                                                                                                  
C 6  35769265.662   186259958.3321        375.544          25.000                                                                                                                                  
C 9  36419755.160   189647224.1901         12.271          27.000                                                                                                                                  
C10  37524567.533   195400302.4851        158.846          18.000                                                                                                                                  
C16  35781139.959   186321762.8901        411.011          23.000                                                                                                                                  
C21  24065370.543   125314612.4991        558.176          26.000    24064927.046   126462112.1921        563.018          27.000                                                                  
C22  23928262.211   124600740.6681       3074.892          28.000    23927830.178   125741609.6061       3102.276          29.000                                                                  
C26  26102788.550   135924085.0231      -1413.968          14.000                                                                                                                                  
C29  23754989.960   123698450.1331      -1948.951          16.000    23754569.183   124831283.7931      -1979.978          19.000                                                                  
C30  23817867.596   124025898.8901        511.835          31.000    23817436.611   125161488.5231        516.562          32.000                                                                  
C36  23158883.751   120594394.8041       1704.675          30.000    23158447.845   121698472.9971       1719.512          32.000                                                                  
> 2022  1 20  5 33 10.0000000  0 36                     
G 3  23865483.115   125414022.3061       1914.015          17.000                                                                  
G 4  23258612.042   122224767.6421      -2471.412          32.000    23258909.533    91272946.1751      -1845.430          32.000  
G16  20896045.210   109809457.6861       -811.779          29.000                                                                  
G26  20319337.868   106778858.5241       1450.091          27.000    20319633.318    79738606.8781       1083.987          17.000  
G27  23201164.582   121922949.0021      -3213.724          28.000    23201465.388    91047555.3581      -2399.310          24.000  
G29  23969336.429   125959756.5121       3151.254          22.000                                                                  
G31  21380000.946   112352682.6851       1688.964          40.000                                                                  
G32  23061342.897   121188187.3071       4060.393          13.000                                                                  
R 5  20731023.265                1                         31.000  
R 6  20720165.757                1                         25.000  
R 7  24129418.880                1                         14.000  
R 9  23737475.141                1                         14.000  
R15  21225055.280                1                         41.000  
R17  21789961.686                1                         38.000  
R18  22449558.994                1                         24.000  
R24  24006216.015                1                         19.000  
E 1  24581737.371   129177913.4671       2061.443          38.000    24581744.317    96464041.3741       1538.926          29.000  
E 4  23935215.355   125780463.8621       1797.709          33.000    23935223.295    93926982.5741       1344.392          22.000  
E 9  23445926.257   123209181.4771       -974.638          36.000    23445924.581    92006846.8331       -728.635          31.000  
E21                                                                  28278187.731   110969681.8761       2068.502          12.000  
E26  27813723.749   146162069.2051      -1159.532          23.000                                                                  
E31  24270491.780   127542453.9571         50.755          29.000    24270492.374    95242628.8951         39.884          24.000  
J 1  36605792.594   192364529.5881        765.197          13.000                                                                  
J 2  39222711.723   206116748.2571        962.201          31.000    39223003.543   153919502.2181        721.833          21.000  
J 3  37249850.885   195749247.1351        423.134          24.000                                                                  
C 3  36905676.366   192177513.3331        620.366          27.000                                                                                                                                  
C 6  35769336.440   186260334.5251        376.437          27.000                                                                                                                                  
C 9  36419758.126   189647236.8501         12.969          31.000                                                                                                                                  
C10  37524595.454   195400460.4151        157.278          20.000                                                                                                                                  
C16  35781218.921   186322174.0361        411.475          28.000                                                                                                                                  
C21  24065485.663   125315171.0621        558.382          28.000    24065027.472   126462675.5971        563.453          30.000                                                                  
C22  23928853.599   124603815.7311       3075.695          27.000    23928420.624   125744713.1151       3103.926          27.000                                                                  
C26  26102515.559   135922670.9461      -1412.310          13.000                                                                                                                                  
C29  23754613.873   123696500.9231      -1949.811          19.000    23754185.243   124829303.4441      -1976.978          18.000                                                                  
C30  23817966.748   124026410.9251        512.617          40.000    23817537.072   125162005.2761        517.369          41.000                                                                  
C36  23159210.314   120596099.4951       1704.933          37.000    23158775.298   121700184.9241       1720.242          37.000                                                                  
> 2022  1 20  5 33 11.0000000  0 36                     
G 3  23865840.112   125415937.9211       1916.564          16.000                                                                  
G 4  23258150.850   122222407.5931      -2470.564          36.000    23258438.674    91271101.8641      -1843.678          29.000  
G16  20895893.027   109808646.4551       -810.757          31.000                                                                  
G26  20319613.651   106780309.0391       1450.773          35.000    20319910.357    79739692.2881       1086.141          16.000  
G27  23200549.461   121919735.5161      -3213.706          28.000    23200851.560    91045156.7191      -2398.681          16.000  
G29  23969936.594   125962908.3971       3152.333          25.000                                                                  
G31  21380321.943   112354371.9581       1689.736          40.000                                                                  
G32  23062117.024   121192247.4771       4061.198          10.000                                                                  
R 5  20731760.485                1                         30.000  
R 6  20720084.701                1                         19.000  
R 7  24128839.708                1                         13.000  
R 9  23737193.774                1                         16.000  
R15  21225486.545                1                         43.000  
R17  21789893.508                1                         34.000  
R18  22449023.726                1                         26.000  
R24  24006709.542                1                         20.000  
E 1  24582128.727   129179975.1721       2061.933          38.000    24582137.034    96465580.9001       1540.236          31.000  
E 4  23935557.396   125782262.2231       1798.974          31.000    23935563.783    93928326.5511       1344.102          17.000  
E 9  23445745.071   123208206.7941       -974.544          35.000    23445738.824    92006118.6441       -727.908          28.000  
E21  28279088.424   148607611.9211       2768.610          22.000    28278715.321   110971750.9181       2068.689          11.000  
E26  27813505.325   146160911.3731      -1157.736          25.000                                                                  
E31  24270499.458   127542505.2231         51.379          32.000    24270501.936    95242667.6831         38.433          22.000  
J 1  36605936.035   192365296.6341        768.776          14.000                                                                  
J 2  39222896.329   206117710.3411        961.944          31.000    39223185.915   153920221.2761        717.799          20.000  
J 3  37249929.812   195749670.5071        423.040          24.000                                                                  
C 3  36905795.935   192178127.4971        600.601          24.000                                                                                                                                  
C 6  35769407.898   186260711.0431        376.790          30.000                                                                                                                                  
C 9  36419761.337   189647250.0071         13.354          34.000                                                                                                                                  
C10  37524625.904   195400616.8881        156.313          24.000                                                                                                                                  
C16  35781297.988   186322585.5941        411.642          31.000                                                                                                                                  
C21  24065594.691   125315729.2341        558.567          22.000    24065129.504   126463239.2051        563.279          23.000                                                                  
C22  23929444.062   124606892.7581       3076.302          25.000    23929010.075   125747817.1791       3104.239          29.000                                                                  
C26  26102243.283   135921258.4001      -1414.282          10.000                                                                                                                                  
C29  23754239.478   123694550.7671      -1950.528          19.000    23753804.078   124827332.9781      -1964.691          18.000                                                                  
C30  23818068.239   124026931.0841        513.932          38.000    23817637.044   125162527.2931        518.995          40.000                                                                  
C36  23159538.483   120597804.4781       1704.668          36.000    23159102.489   121701905.334        1720.583          35.000                                                                  
> 2022  1 20  5 33 12.0000000  0 36                     
