$GPGGA,053249.000,3115.586024,N,12137.056145,E,1,19,0.8,1.8,M,,M,,*4C
$GPRMC,053249.000,A,3115.586024,N,12137.056145,E,0.3,40.728906855,200122,,E,A*12
$GPGGA,053250.000,3115.585055,N,12137.056939,E,1,19,0.8,6.2,M,,M,,*4F
$GPRMC,053250.000,A,3115.585055,N,12137.056939,E,0.1,40.728906855,200122,,E,A*1E
$GPGGA,053251.000,3115.585129,N,12137.057025,E,1,19,0.8,5.7,M,,M,,*47
$GPRMC,053251.000,A,3115.585129,N,12137.057025,E,0.1,40.728906855,200122,,E,A*10
$GPGGA,053252.000,3115.584902,N,12137.057137,E,1,19,0.8,5.6,M,,M,,*47
$GPRMC,053252.000,A,3115.584902,N,12137.057137,E,0.3,40.728906855,200122,,E,A*13
$GPGGA,053253.000,3115.584610,N,12137.057203,E,1,19,0.8,6.4,M,,M,,*4F
$GPRMC,053253.000,A,3115.584610,N,12137.057203,E,0.3,40.728906855,200122,,E,A*1A
$GPGGA,053254.000,3115.584713,N,12137.057506,E,1,19,0.8,6.8,M,,M,,*44
$GPRMC,053254.000,A,3115.584713,N,12137.057506,E,0.5,40.728906855,200122,,E,A*1B
$GPGGA,053255.000,3115.584991,N,12137.057454,E,1,19,0.8,7.9,M,,M,,*47
$GPRMC,053255.000,A,3115.584991,N,12137.057454,E,0.1,40.728906855,200122,,E,A*1C
$GPGGA,053256.000,3115.584505,N,12137.057468,E,1,19,0.8,7.8,M,,M,,*4B
$GPRMC,053256.000,A,3115.584505,N,12137.057468,E,0.9,40.728906855,200122,,E,A*19
$GPGGA,053257.000,3115.584185,N,12137.057386,E,1,19,0.8,7.9,M,,M,,*40
$GPRMC,053257.000,A,3115.584185,N,12137.057386,E,1.1,40.728906855,200122,,E,A*1A
$GPGGA,053258.000,3115.584058,N,12137.057078,E,1,19,0.8,8.3,M,,M,,*49
$GPRMC,053258.000,A,3115.584058,N,12137.057078,E,1.3,40.728906855,200122,,E,A*14
$GPGGA,053259.000,3115.583914,N,12137.056922,E,1,19,0.8,8.6,M,,M,,*4C
$GPRMC,053259.000,A,3115.583914,N,12137.056922,E,0.7,40.728906855,200122,,E,A*11
$GPGGA,053300.000,3115.583856,N,12137.056909,E,1,19,0.8,8.9,M,,M,,*40
$GPRMC,053300.000,A,3115.583856,N,12137.056909,E,0.3,40.728906855,200122,,E,A*16
$GPGGA,053301.000,3115.583896,N,12137.056875,E,1,19,0.8,9.1,M,,M,,*4E
$GPRMC,053301.000,A,3115.583896,N,12137.056875,E,0.2,40.728906855,200122,,E,A*10
$GPGGA,053302.000,3115.584038,N,12137.056831,E,1,19,0.8,9.3,M,,M,,*44
$GPRMC,053302.000,A,3115.584038,N,12137.056831,E,0.1,40.728906855,200122,,E,A*1B
$GPGGA,053303.000,3115.584150,N,12137.056791,E,1,19,0.8,9.3,M,,M,,*4F
$GPRMC,053303.000,A,3115.584150,N,12137.056791,E,0.2,40.728906855,200122,,E,A*13
$GPGGA,053304.000,3115.584221,N,12137.056661,E,1,19,0.8,9.2,M,,M,,*42
$GPRMC,053304.000,A,3115.584221,N,12137.056661,E,0.3,40.728906855,200122,,E,A*1E
$GPGGA,053305.000,3115.584200,N,12137.056680,E,1,19,0.8,9.1,M,,M,,*4C
$GPRMC,053305.000,A,3115.584200,N,12137.056680,E,0.3,40.728906855,200122,,E,A*13
$GPGGA,053306.000,3115.584158,N,12137.056695,E,1,19,0.8,9.2,M,,M,,*46
$GPRMC,053306.000,A,3115.584158,N,12137.056695,E,0.2,40.728906855,200122,,E,A*1B
$GPGGA,053307.000,3115.584179,N,12137.056616,E,1,19,0.8,9.2,M,,M,,*4F
$GPRMC,053307.000,A,3115.584179,N,12137.056616,E,0.2,40.728906855,200122,,E,A*12
$GPGGA,053308.000,3115.584184,N,12137.056538,E,1,19,0.8,9.3,M,,M,,*4C
$GPRMC,053308.000,A,3115.584184,N,12137.056538,E,0.2,40.728906855,200122,,E,A*10
$GPGGA,053309.000,3115.583907,N,12137.056794,E,1,19,0.8,9.8,M,,M,,*46
$GPRMC,053309.000,A,3115.583907,N,12137.056794,E,0.1,40.728906855,200122,,E,A*12
$GPGGA,053310.000,3115.584021,N,12137.057877,E,1,19,0.8,10.0,M,,M,,*77
$GPRMC,053310.000,A,3115.584021,N,12137.057877,E,0.3,40.728906855,200122,,E,A*11
$GPGGA,053311.000,3115.585089,N,12137.059727,E,1,19,0.8,12.1,M,,M,,*72
$GPRMC,053311.000,A,3115.585089,N,12137.059727,E,0.9,40.728906855,200122,,E,A*1D
$GPGGA,053312.000,3115.586776,N,12137.061708,E,1,19,0.8,14.5,M,,M,,*71
$GPRMC,053312.000,A,3115.586776,N,12137.061708,E,1.6,40.728906855,200122,,E,A*12
$GPGGA,053313.000,3115.586773,N,12137.061379,E,1,19,0.8,16.5,M,,M,,*75
$GPRMC,053313.000,A,3115.586773,N,12137.061379,E,0.0,40.728906855,200122,,E,A*13
$GPGGA,053314.000,3115.587021,N,12137.060564,E,1,19,0.8,16.9,M,,M,,*74
$GPRMC,053314.000,A,3115.587021,N,12137.060564,E,0.3,40.728906855,200122,,E,A*1D
$GPGGA,053315.000,3115.586557,N,12137.060313,E,1,19,0.8,20.1,M,,M,,*7B
$GPRMC,053315.000,A,3115.586557,N,12137.060313,E,0.4,40.728906855,200122,,E,A*18
$GPGGA,053316.000,3115.586492,N,12137.060073,E,1,19,0.8,20.5,M,,M,,*71
$GPRMC,053316.000,A,3115.586492,N,12137.060073,E,0.4,40.728906855,200122,,E,A*16
$GPGGA,053317.000,3115.585991,N,12137.059329,E,1,19,0.8,20.8,M,,M,,*76
$GPRMC,053317.000,A,3115.585991,N,12137.059329,E,0.9,40.728906855,200122,,E,A*11
$GPGGA,053318.000,3115.585382,N,12137.058972,E,1,19,0.8,20.1,M,,M,,*7D
$GPRMC,053318.000,A,3115.585382,N,12137.058972,E,1.0,40.728906855,200122,,E,A*1B
$GPGGA,053319.000,3115.583741,N,12137.059509,E,1,19,0.8,19.8,M,,M,,*73
$GPRMC,053319.000,A,3115.583741,N,12137.059509,E,1.8,40.728906855,200122,,E,A*1E
$GPGGA,053320.000,3115.582010,N,12137.060346,E,1,19,0.8,18.6,M,,M,,*73
$GPRMC,053320.000,A,3115.582010,N,12137.060346,E,2.8,40.728906855,200122,,E,A*12
$GPGGA,053321.000,3115.581238,N,12137.060583,E,1,19,0.8,18.4,M,,M,,*74
$GPRMC,053321.000,A,3115.581238,N,12137.060583,E,2.8,40.728906855,200122,,E,A*17
$GPGGA,053322.000,3115.579781,N,12137.060922,E,1,19,0.8,17.9,M,,M,,*72
$GPRMC,053322.000,A,3115.579781,N,12137.060922,E,3.6,167.604096555,200122,,E,A*2A
$GPGGA,053323.000,3115.578454,N,12137.061197,E,1,19,0.8,17.7,M,,M,,*70
$GPRMC,053323.000,A,3115.578454,N,12137.061197,E,3.9,168.304709642,200122,,E,A*27
$GPGGA,053324.000,3115.577458,N,12137.061593,E,1,19,0.8,17.7,M,,M,,*74
$GPRMC,053324.000,A,3115.577458,N,12137.061593,E,3.6,165.880118832,200122,,E,A*29
$GPGGA,053325.000,3115.576975,N,12137.061317,E,1,19,0.8,17.9,M,,M,,*72
$GPRMC,053325.000,A,3115.576975,N,12137.061317,E,3.2,169.74192405600002,200122,,E,A*14
$GPGGA,053326.000,3115.578737,N,12137.060390,E,1,19,0.8,18.1,M,,M,,*7E
$GPRMC,053326.000,A,3115.578737,N,12137.060390,E,0.0,40.728906855,200122,,E,A*12
$GPGGA,053327.000,3115.578834,N,12137.060348,E,1,19,0.8,18.0,M,,M,,*77
$GPRMC,053327.000,A,3115.578834,N,12137.060348,E,0.0,40.728906855,200122,,E,A*1A
$GPGGA,053328.000,3115.579776,N,12137.059309,E,1,19,0.8,18.7,M,,M,,*78
$GPRMC,053328.000,A,3115.579776,N,12137.059309,E,0.0,40.728906855,200122,,E,A*12
$GPGGA,053329.000,3115.578736,N,12137.060298,E,1,19,0.8,21.3,M,,M,,*71
$GPRMC,053329.000,A,3115.578736,N,12137.060298,E,0.1,40.728906855,200122,,E,A*14
$GPGGA,053330.000,3115.578887,N,12137.060262,E,1,19,0.8,21.4,M,,M,,*7E
$GPRMC,053330.000,A,3115.578887,N,12137.060262,E,0.1,40.728906855,200122,,E,A*1C
$GPGGA,053331.000,3115.578887,N,12137.060261,E,1,19,0.8,21.5,M,,M,,*7D
$GPRMC,053331.000,A,3115.578887,N,12137.060261,E,0.1,40.728906855,200122,,E,A*1E
$GPGGA,053332.000,3115.578885,N,12137.060249,E,1,19,0.8,21.5,M,,M,,*76
$GPRMC,053332.000,A,3115.578885,N,12137.060249,E,0.0,40.728906855,200122,,E,A*14
$GPGGA,053333.000,3115.578883,N,12137.060251,E,1,19,0.8,21.5,M,,M,,*78
$GPRMC,053333.000,A,3115.578883,N,12137.060251,E,0.0,40.728906855,200122,,E,A*1A
$GPGGA,053334.000,3115.578842,N,12137.060232,E,1,19,0.8,21.5,M,,M,,*77
$GPRMC,053334.000,A,3115.578842,N,12137.060232,E,0.1,40.728906855,200122,,E,A*14
$GPGGA,053335.000,3115.578833,N,12137.060192,E,1,19,0.8,21.5,M,,M,,*79
$GPRMC,053335.000,A,3115.578833,N,12137.060192,E,0.1,40.728906855,200122,,E,A*1A
$GPGGA,053336.000,3115.578794,N,12137.060215,E,1,19,0.8,21.4,M,,M,,*75
$GPRMC,053336.000,A,3115.578794,N,12137.060215,E,0.1,40.728906855,200122,,E,A*17
$GPGGA,053337.000,3115.578763,N,12137.060221,E,1,19,0.8,21.4,M,,M,,*7B
$GPRMC,053337.000,A,3115.578763,N,12137.060221,E,0.1,40.728906855,200122,,E,A*19
$GPGGA,053338.000,3115.578761,N,12137.060223,E,1,19,0.8,21.4,M,,M,,*74
$GPRMC,053338.000,A,3115.578761,N,12137.060223,E,0.0,40.728906855,200122,,E,A*17
$GPGGA,053339.000,3115.578499,N,12137.060563,E,1,19,0.8,21.2,M,,M,,*74
$GPRMC,053339.000,A,3115.578499,N,12137.060563,E,0.0,40.728906855,200122,,E,A*11
$GPGGA,053340.000,3115.578497,N,12137.060555,E,1,19,0.8,21.1,M,,M,,*72
$GPRMC,053340.000,A,3115.578497,N,12137.060555,E,0.0,40.728906855,200122,,E,A*14
$GPGGA,053341.000,3115.578470,N,12137.060573,E,1,19,0.8,21.2,M,,M,,*7D
$GPRMC,053341.000,A,3115.578470,N,12137.060573,E,0.1,40.728906855,200122,,E,A*19
$GPGGA,053342.000,3115.578435,N,12137.060571,E,1,19,0.8,21.2,M,,M,,*7D
$GPRMC,053342.000,A,3115.578435,N,12137.060571,E,0.1,40.728906855,200122,,E,A*19
$GPGGA,053343.000,3115.578400,N,12137.060571,E,1,19,0.8,21.1,M,,M,,*79
$GPRMC,053343.000,A,3115.578400,N,12137.060571,E,0.1,40.728906855,200122,,E,A*1E
$GPGGA,053344.000,3115.578379,N,12137.060568,E,1,19,0.8,21.0,M,,M,,*7E
$GPRMC,053344.000,A,3115.578379,N,12137.060568,E,0.1,40.728906855,200122,,E,A*18
$GPGGA,053345.000,3115.578353,N,12137.060626,E,1,19,0.8,20.8,M,,M,,*77
$GPRMC,053345.000,A,3115.578353,N,12137.060626,E,0.1,40.728906855,200122,,E,A*18
$GPGGA,053346.000,3115.578320,N,12137.060705,E,1,19,0.8,20.8,M,,M,,*70
$GPRMC,053346.000,A,3115.578320,N,12137.060705,E,0.1,40.728906855,200122,,E,A*1F
$GPGGA,053347.000,3115.578284,N,12137.060680,E,1,19,0.8,20.9,M,,M,,*73
$GPRMC,053347.000,A,3115.578284,N,12137.060680,E,0.1,40.728906855,200122,,E,A*1D
$GPGGA,053348.000,3115.578345,N,12137.060663,E,1,19,0.8,20.9,M,,M,,*7D
$GPRMC,053348.000,A,3115.578345,N,12137.060663,E,0.1,40.728906855,200122,,E,A*13
$GPGGA,053349.000,3115.578400,N,12137.060865,E,1,19,0.8,20.9,M,,M,,*72
$GPRMC,053349.000,A,3115.578400,N,12137.060865,E,0.1,40.728906855,200122,,E,A*1C
$GPGGA,053350.000,3115.578947,N,12137.061360,E,1,19,0.8,20.9,M,,M,,*7B
$GPRMC,053350.000,A,3115.578947,N,12137.061360,E,0.3,40.728906855,200122,,E,A*17
$GPGGA,053351.000,3115.579445,N,12137.061750,E,1,19,0.8,21.8,M,,M,,*73
$GPRMC,053351.000,A,3115.579445,N,12137.061750,E,0.4,40.728906855,200122,,E,A*18
$GPGGA,053352.000,3115.579591,N,12137.061481,E,1,19,0.8,21.9,M,,M,,*76
$GPRMC,053352.000,A,3115.579591,N,12137.061481,E,0.3,40.728906855,200122,,E,A*1B
$GPGGA,053353.000,3115.579794,N,12137.060901,E,1,19,0.8,22.6,M,,M,,*78
$GPRMC,053353.000,A,3115.579794,N,12137.060901,E,0.3,40.728906855,200122,,E,A*19
$GPGGA,053354.000,3115.579380,N,12137.060894,E,1,19,0.8,21.8,M,,M,,*7E
$GPRMC,053354.000,A,3115.579380,N,12137.060894,E,0.1,40.728906855,200122,,E,A*10
$GPGGA,053355.000,3115.579051,N,12137.060419,E,1,19,0.8,21.0,M,,M,,*71
$GPRMC,053355.000,A,3115.579051,N,12137.060419,E,0.1,40.728906855,200122,,E,A*17
$GPGGA,053356.000,3115.578909,N,12137.059472,E,1,19,0.8,18.6,M,,M,,*7C
$GPRMC,053356.000,A,3115.578909,N,12137.059472,E,0.0,40.728906855,200122,,E,A*17
$GPGGA,053357.000,3115.579152,N,12137.059267,E,1,19,0.8,17.7,M,,M,,*76
$GPRMC,053357.000,A,3115.579152,N,12137.059267,E,0.0,40.728906855,200122,,E,A*13
$GPGGA,053358.000,3115.579303,N,12137.059082,E,1,19,0.8,15.8,M,,M,,*7B
$GPRMC,053358.000,A,3115.579303,N,12137.059082,E,0.1,40.728906855,200122,,E,A*12
$GPGGA,053359.000,3115.579132,N,12137.059439,E,1,19,0.8,14.1,M,,M,,*76
$GPRMC,053359.000,A,3115.579132,N,12137.059439,E,0.1,40.728906855,200122,,E,A*17
$GPGGA,053400.000,3115.579320,N,12137.060747,E,1,19,0.8,13.1,M,,M,,*7B
$GPRMC,053400.000,A,3115.579320,N,12137.060747,E,0.2,40.728906855,200122,,E,A*1E
$GPGGA,053401.000,3115.579959,N,12137.060061,E,1,19,0.8,13.8,M,,M,,*74
$GPRMC,053401.000,A,3115.579959,N,12137.060061,E,0.2,40.728906855,200122,,E,A*18
$GPGGA,053402.000,3115.580554,N,12137.059546,E,1,19,0.8,14.0,M,,M,,*75
$GPRMC,053402.000,A,3115.580554,N,12137.059546,E,0.3,40.728906855,200122,,E,A*17
$GPGGA,053403.000,3115.581299,N,12137.059113,E,1,19,0.8,15.8,M,,M,,*7E
$GPRMC,053403.000,A,3115.581299,N,12137.059113,E,0.6,40.728906855,200122,,E,A*10
$GPGGA,053404.000,3115.581866,N,12137.058600,E,1,19,0.8,17.1,M,,M,,*7C
$GPRMC,053404.000,A,3115.581866,N,12137.058600,E,0.8,40.728906855,200122,,E,A*17
$GPGGA,053405.000,3115.581871,N,12137.058569,E,1,19,0.8,17.4,M,,M,,*72
$GPRMC,053405.000,A,3115.581871,N,12137.058569,E,0.5,40.728906855,200122,,E,A*11
$GPGGA,053406.000,3115.581830,N,12137.058549,E,1,19,0.8,17.6,M,,M,,*74
$GPRMC,053406.000,A,3115.581830,N,12137.058549,E,0.3,40.728906855,200122,,E,A*13
$GPGGA,053407.000,3115.581887,N,12137.058490,E,1,19,0.8,17.5,M,,M,,*7F
$GPRMC,053407.000,A,3115.581887,N,12137.058490,E,0.3,40.728906855,200122,,E,A*1B
$GPGGA,053408.000,3115.581958,N,12137.058099,E,1,19,0.8,16.9,M,,M,,*73
$GPRMC,053408.000,A,3115.581958,N,12137.058099,E,0.3,40.728906855,200122,,E,A*1A
$GPGGA,053409.000,3115.582339,N,12137.057587,E,1,19,0.8,15.9,M,,M,,*7A
$GPRMC,053409.000,A,3115.582339,N,12137.057587,E,0.6,40.728906855,200122,,E,A*15
$GPGGA,053410.000,3115.582465,N,12137.057253,E,1,19,0.8,15.5,M,,M,,*7E
$GPRMC,053410.000,A,3115.582465,N,12137.057253,E,0.7,40.728906855,200122,,E,A*1C
$GPGGA,053411.000,3115.582662,N,12137.056822,E,1,19,0.8,14.7,M,,M,,*74
$GPRMC,053411.000,A,3115.582662,N,12137.056822,E,0.5,40.728906855,200122,,E,A*17
$GPGGA,053412.000,3115.582783,N,12137.056750,E,1,19,0.8,14.5,M,,M,,*71
$GPRMC,053412.000,A,3115.582783,N,12137.056750,E,0.3,40.728906855,200122,,E,A*16
$GPGGA,053413.000,3115.582749,N,12137.056593,E,1,19,0.8,14.1,M,,M,,*7F
$GPRMC,053413.000,A,3115.582749,N,12137.056593,E,0.4,40.728906855,200122,,E,A*1B
$GPGGA,053414.000,3115.582865,N,12137.056503,E,1,19,0.8,14.0,M,,M,,*71
$GPRMC,053414.000,A,3115.582865,N,12137.056503,E,0.4,40.728906855,200122,,E,A*14
$GPGGA,053415.000,3115.583022,N,12137.056440,E,1,19,0.8,14.0,M,,M,,*7C
$GPRMC,053415.000,A,3115.583022,N,12137.056440,E,0.4,40.728906855,200122,,E,A*19
$GPGGA,053416.000,3115.584035,N,12137.055340,E,1,19,0.8,12.3,M,,M,,*7F
$GPRMC,053416.000,A,3115.584035,N,12137.055340,E,0.8,40.728906855,200122,,E,A*13
$GPGGA,053417.000,3115.584289,N,12137.054061,E,1,19,0.8,10.7,M,,M,,*7C
$GPRMC,053417.000,A,3115.584289,N,12137.054061,E,1.3,40.728906855,200122,,E,A*1C
$GPGGA,053418.000,3115.584236,N,12137.053565,E,1,19,0.8,10.8,M,,M,,*7E
$GPRMC,053418.000,A,3115.584236,N,12137.053565,E,1.4,217.70776075,200122,,E,A*1F
$GPGGA,053419.000,3115.584026,N,12137.053055,E,1,19,0.8,10.8,M,,M,,*7A
$GPRMC,053419.000,A,3115.584026,N,12137.053055,E,1.5,244.29786508400002,200122,,E,A*16
$GPGGA,053420.000,3115.583641,N,12137.052103,E,1,19,0.8,10.8,M,,M,,*73
$GPRMC,053420.000,A,3115.583641,N,12137.052103,E,2.0,238.323034095,200122,,E,A*22
$GPGGA,053421.000,3115.583107,N,12137.050742,E,1,19,0.8,11.2,M,,M,,*7D
$GPRMC,053421.000,A,3115.583107,N,12137.050742,E,2.6,254.852911702,200122,,E,A*21
$GPGGA,053422.000,3115.582665,N,12137.049868,E,1,19,0.8,11.3,M,,M,,*72
$GPRMC,053422.000,A,3115.582665,N,12137.049868,E,2.7,252.872074857,200122,,E,A*2F
$GPGGA,053423.000,3115.582276,N,12137.049484,E,1,19,0.8,11.5,M,,M,,*7D
$GPRMC,053423.000,A,3115.582276,N,12137.049484,E,2.3,248.654842807,200122,,E,A*2B
$GPGGA,053424.000,3115.581304,N,12137.047671,E,1,19,0.8,11.7,M,,M,,*79
$GPRMC,053424.000,A,3115.581304,N,12137.047671,E,2.8,236.60097946,200122,,E,A*1A
$GPGGA,053425.000,3115.580362,N,12137.046113,E,1,19,0.8,12.0,M,,M,,*7F
$GPRMC,053425.000,A,3115.580362,N,12137.046113,E,3.2,-121.250361305,200122,,E,A*0D
$GPGGA,053426.000,3115.579601,N,12137.044304,E,1,19,0.8,12.5,M,,M,,*79
$GPRMC,053426.000,A,3115.579601,N,12137.044304,E,3.6,-119.67088606700001,200122,,E,A*33
$GPGGA,053427.000,3115.579025,N,12137.042714,E,1,19,0.8,12.5,M,,M,,*7B
$GPRMC,053427.000,A,3115.579025,N,12137.042714,E,3.8,-119.111443844,200122,,E,A*02
$GPGGA,053428.000,3115.578449,N,12137.040439,E,1,19,0.8,13.3,M,,M,,*72
$GPRMC,053428.000,A,3115.578449,N,12137.040439,E,4.4,-115.918652406,200122,,E,A*02
$GPGGA,053429.000,3115.577649,N,12137.038254,E,1,19,0.8,14.8,M,,M,,*70
$GPRMC,053429.000,A,3115.577649,N,12137.038254,E,4.9,-115.770320365,200122,,E,A*03
$GPGGA,053430.000,3115.576838,N,12137.034879,E,1,19,0.8,16.3,M,,M,,*71
$GPRMC,053430.000,A,3115.576838,N,12137.034879,E,5.9,-112.793558726,200122,,E,A*0A
$GPGGA,053431.000,3115.576051,N,12137.032289,E,1,19,0.8,18.5,M,,M,,*7C
$GPRMC,053431.000,A,3115.576051,N,12137.032289,E,6.5,-111.875309771,200122,,E,A*04
$GPGGA,053432.000,3115.575354,N,12137.029270,E,1,19,0.8,20.6,M,,M,,*7E
$GPRMC,053432.000,A,3115.575354,N,12137.029270,E,6.8,-110.85425614299999,200122,,E,A*35
$GPGGA,053433.000,3115.574971,N,12137.026255,E,1,19,0.8,22.2,M,,M,,*7D
$GPRMC,053433.000,A,3115.574971,N,12137.026255,E,7.1,-108.549676494,200122,,E,A*01
$GPGGA,053434.000,3115.573881,N,12137.024700,E,1,19,0.8,24.6,M,,M,,*76
$GPRMC,053434.000,A,3115.573881,N,12137.024700,E,6.6,-112.27475755,200122,,E,A*37
$GPGGA,053435.000,3115.573462,N,12137.022840,E,1,19,0.8,27.2,M,,M,,*7C
$GPRMC,053435.000,A,3115.573462,N,12137.022840,E,6.2,-112.0501943,200122,,E,A*00
$GPGGA,053436.000,3115.573009,N,12137.021488,E,1,19,0.8,28.7,M,,M,,*77
$GPRMC,053436.000,A,3115.573009,N,12137.021488,E,5.7,-112.89984181700001,200122,,E,A*37
$GPGGA,053437.000,3115.572192,N,12137.020789,E,1,19,0.8,31.3,M,,M,,*7B
$GPRMC,053437.000,A,3115.572192,N,12137.020789,E,4.9,-117.804784555,200122,,E,A*05
$GPGGA,053438.000,3115.571951,N,12137.018844,E,1,19,0.8,32.6,M,,M,,*73
$GPRMC,053438.000,A,3115.571951,N,12137.018844,E,4.9,-114.898056151,200122,,E,A*05
$GPGGA,053439.000,3115.571373,N,12137.017808,E,1,19,0.8,34.2,M,,M,,*7D
$GPRMC,053439.000,A,3115.571373,N,12137.017808,E,4.4,-117.149243344,200122,,E,A*02
$GPGGA,053440.000,3115.571158,N,12137.016452,E,1,19,0.8,35.6,M,,M,,*7F
$GPRMC,053440.000,A,3115.571158,N,12137.016452,E,4.2,-115.467237653,200122,,E,A*08
$GPGGA,053441.000,3115.570711,N,12137.016107,E,1,19,0.8,37.0,M,,M,,*75
$GPRMC,053441.000,A,3115.570711,N,12137.016107,E,3.5,-120.196414922,200122,,E,A*05
$GPGGA,053442.000,3115.570272,N,12137.015280,E,1,19,0.8,38.1,M,,M,,*77
$GPRMC,053442.000,A,3115.570272,N,12137.015280,E,3.4,-120.61864839299999,200122,,E,A*3A
$GPGGA,053443.000,3115.569848,N,12137.015385,E,1,19,0.8,38.9,M,,M,,*71
$GPRMC,053443.000,A,3115.569848,N,12137.015385,E,2.7,209.40327515099997,200122,,E,A*13
$GPGGA,053444.000,3115.569477,N,12137.015408,E,1,19,0.8,39.5,M,,M,,*79
$GPRMC,053444.000,A,3115.569477,N,12137.015408,E,2.2,209.75583586,200122,,E,A*10
$GPGGA,053445.000,3115.569240,N,12137.016212,E,1,19,0.8,39.6,M,,M,,*77
$GPRMC,053445.000,A,3115.569240,N,12137.016212,E,1.5,242.340688015,200122,,E,A*24
$GPGGA,053446.000,3115.568773,N,12137.017195,E,1,19,0.8,39.2,M,,M,,*79
$GPRMC,053446.000,A,3115.568773,N,12137.017195,E,1.7,242.340688015,200122,,E,A*2C
$GPGGA,053447.000,3115.568244,N,12137.018114,E,1,19,0.8,38.7,M,,M,,*7B
$GPRMC,053447.000,A,3115.568244,N,12137.018114,E,2.1,190.471971305,200122,,E,A*2D
$GPGGA,053448.000,3115.567733,N,12137.018802,E,1,19,0.8,38.4,M,,M,,*73
$GPRMC,053448.000,A,3115.567733,N,12137.018802,E,2.2,142.13208553200002,200122,,E,A*1A
$GPGGA,053449.000,3115.567315,N,12137.019622,E,1,19,0.8,37.9,M,,M,,*7D
$GPRMC,053449.000,A,3115.567315,N,12137.019622,E,2.4,175.652564332,200122,,E,A*2B
$GPGGA,053450.000,3115.566844,N,12137.020434,E,1,19,0.8,37.4,M,,M,,*79
$GPRMC,053450.000,A,3115.566844,N,12137.020434,E,2.5,175.652564332,200122,,E,A*23
$GPGGA,053451.000,3115.566387,N,12137.020517,E,1,19,0.8,36.9,M,,M,,*70
$GPRMC,053451.000,A,3115.566387,N,12137.020517,E,2.3,148.581956184,200122,,E,A*21
$GPGGA,053452.000,3115.565417,N,12137.021822,E,1,19,0.8,36.7,M,,M,,*7A
$GPRMC,053452.000,A,3115.565417,N,12137.021822,E,2.8,133.211270976,200122,,E,A*26
$GPGGA,053453.000,3115.564261,N,12137.023057,E,1,19,0.8,36.4,M,,M,,*76
$GPRMC,053453.000,A,3115.564261,N,12137.023057,E,3.2,134.19062171,200122,,E,A*11
$GPGGA,053454.000,3115.563056,N,12137.023784,E,1,19,0.8,35.9,M,,M,,*77
$GPRMC,053454.000,A,3115.563056,N,12137.023784,E,3.4,138.369021182,200122,,E,A*2B
$GPGGA,053455.000,3115.561782,N,12137.024600,E,1,19,0.8,35.5,M,,M,,*7C
$GPRMC,053455.000,A,3115.561782,N,12137.024600,E,3.6,142.195454263,200122,,E,A*28
$GPGGA,053456.000,3115.560845,N,12137.025307,E,1,19,0.8,35.1,M,,M,,*7D
$GPRMC,053456.000,A,3115.560845,N,12137.025307,E,3.7,143.44234154,200122,,E,A*17
$GPGGA,053457.000,3115.560005,N,12137.025801,E,1,19,0.8,34.5,M,,M,,*78
$GPRMC,053457.000,A,3115.560005,N,12137.025801,E,3.7,145.328886476,200122,,E,A*2E
$GPGGA,053458.000,3115.559372,N,12137.026030,E,1,19,0.8,33.8,M,,M,,*7D
$GPRMC,053458.000,A,3115.559372,N,12137.026030,E,3.5,147.008309186,200122,,E,A*26
$GPGGA,053459.000,3115.558894,N,12137.026071,E,1,19,0.8,33.2,M,,M,,*71
$GPRMC,053459.000,A,3115.558894,N,12137.026071,E,3.3,149.211650849,200122,,E,A*21
$GPGGA,053500.000,3115.558340,N,12137.026354,E,1,19,0.8,32.5,M,,M,,*7C
$GPRMC,053500.000,A,3115.558340,N,12137.026354,E,3.2,149.973374951,200122,,E,A*2F
$GPGGA,053501.000,3115.557752,N,12137.026321,E,1,19,0.8,32.0,M,,M,,*72
$GPRMC,053501.000,A,3115.557752,N,12137.026321,E,3.1,153.359271795,200122,,E,A*2C
$GPGGA,053502.000,3115.557068,N,12137.026085,E,1,19,0.8,31.6,M,,M,,*77
$GPRMC,053502.000,A,3115.557068,N,12137.026085,E,3.0,158.67684066799998,200122,,E,A*12
$GPGGA,053503.000,3115.556163,N,12137.026013,E,1,19,0.8,31.5,M,,M,,*71
$GPRMC,053503.000,A,3115.556163,N,12137.026013,E,3.0,163.08667613,200122,,E,A*10
$GPGGA,053504.000,3115.555512,N,12137.025551,E,1,19,0.8,31.1,M,,M,,*73
$GPRMC,053504.000,A,3115.555512,N,12137.025551,E,2.9,207.822277585,200122,,E,A*26
$GPGGA,053505.000,3115.555020,N,12137.024659,E,1,19,0.8,30.7,M,,M,,*7B
$GPRMC,053505.000,A,3115.555020,N,12137.024659,E,2.8,211.82747324,200122,,E,A*16
$GPGGA,053506.000,3115.554802,N,12137.023888,E,1,19,0.8,30.4,M,,M,,*77
$GPRMC,053506.000,A,3115.554802,N,12137.023888,E,2.6,202.679063118,200122,,E,A*2B
$GPGGA,053507.000,3115.554531,N,12137.022884,E,1,19,0.8,29.7,M,,M,,*7D
$GPRMC,053507.000,A,3115.554531,N,12137.022884,E,2.6,205.3643247,200122,,E,A*2B
$GPGGA,053508.000,3115.554101,N,12137.021714,E,1,19,0.8,29.6,M,,M,,*71
$GPRMC,053508.000,A,3115.554101,N,12137.021714,E,2.7,234.396303654,200122,,E,A*2D
$GPGGA,053509.000,3115.553342,N,12137.020216,E,1,19,0.8,29.3,M,,M,,*71
$GPRMC,053509.000,A,3115.553342,N,12137.020216,E,3.2,-141.230105,200122,,E,A*3E
$GPGGA,053510.000,3115.552431,N,12137.018911,E,1,19,0.8,29.4,M,,M,,*7B
$GPRMC,053510.000,A,3115.552431,N,12137.018911,E,3.7,-135.591555319,200122,,E,A*03
$GPGGA,053511.000,3115.551758,N,12137.018436,E,1,19,0.8,29.4,M,,M,,*7D
$GPRMC,053511.000,A,3115.551758,N,12137.018436,E,3.4,-139.045064039,200122,,E,A*00
$GPGGA,053512.000,3115.551248,N,12137.017447,E,1,19,0.8,29.3,M,,M,,*74
$GPRMC,053512.000,A,3115.551248,N,12137.017447,E,3.5,-136.09794699399998,200122,,E,A*37
$GPGGA,053513.000,3115.550788,N,12137.016177,E,1,19,0.8,29.5,M,,M,,*7C
$GPRMC,053513.000,A,3115.550788,N,12137.016177,E,3.6,-131.981668458,200122,,E,A*02
$GPGGA,053514.000,3115.550335,N,12137.014963,E,1,19,0.8,29.8,M,,M,,*7B
$GPRMC,053514.000,A,3115.550335,N,12137.014963,E,3.6,-129.14241147200002,200122,,E,A*30
$GPGGA,053515.000,3115.549390,N,12137.014435,E,1,19,0.8,30.4,M,,M,,*77
$GPRMC,053515.000,A,3115.549390,N,12137.014435,E,3.6,-131.63018828399998,200122,,E,A*34
$GPGGA,053516.000,3115.548976,N,12137.013230,E,1,19,0.8,30.6,M,,M,,*71
$GPRMC,053516.000,A,3115.548976,N,12137.013230,E,3.6,-129.076121951,200122,,E,A*02
$GPGGA,053517.000,3115.548431,N,12137.012289,E,1,19,0.8,31.1,M,,M,,*7B
$GPRMC,053517.000,A,3115.548431,N,12137.012289,E,3.6,-128.156923319,200122,,E,A*00
$GPGGA,053518.000,3115.547868,N,12137.011229,E,1,19,0.8,31.5,M,,M,,*76
$GPRMC,053518.000,A,3115.547868,N,12137.011229,E,3.6,-126.83719807899999,200122,,E,A*3C
$GPGGA,053519.000,3115.547295,N,12137.010116,E,1,19,0.8,32.1,M,,M,,*76
$GPRMC,053519.000,A,3115.547295,N,12137.010116,E,3.7,-125.88959045799999,200122,,E,A*39
$GPGGA,053520.000,3115.546377,N,12137.008936,E,1,19,0.8,32.6,M,,M,,*74
$GPRMC,053520.000,A,3115.546377,N,12137.008936,E,3.9,-126.33836735700001,200122,,E,A*31
$GPGGA,053521.000,3115.545519,N,12137.007973,E,1,19,0.8,33.4,M,,M,,*75
$GPRMC,053521.000,A,3115.545519,N,12137.007973,E,3.9,-126.99442560799999,200122,,E,A*36
$GPGGA,053522.000,3115.545206,N,12137.006461,E,1,19,0.8,34.0,M,,M,,*73
$GPRMC,053522.000,A,3115.545206,N,12137.006461,E,3.9,-124.00149073,200122,,E,A*36
$GPGGA,053523.000,3115.544825,N,12137.005167,E,1,19,0.8,34.6,M,,M,,*7E
$GPRMC,053523.000,A,3115.544825,N,12137.005167,E,3.9,-122.421286186,200122,,E,A*07
$GPGGA,053524.000,3115.544565,N,12137.003796,E,1,19,0.8,35.1,M,,M,,*78
$GPRMC,053524.000,A,3115.544565,N,12137.003796,E,3.9,-120.015252394,200122,,E,A*0E
$GPGGA,053525.000,3115.540894,N,12137.006242,E,1,19,0.8,36.4,M,,M,,*71
$GPRMC,053525.000,A,3115.540894,N,12137.006242,E,3.7,-142.27591205299998,200122,,E,A*31
$GPGGA,053526.000,3115.539619,N,12137.006257,E,1,19,0.8,37.3,M,,M,,*75
$GPRMC,053526.000,A,3115.539619,N,12137.006257,E,3.4,-146.882363411,200122,,E,A*01
$GPGGA,053527.000,3115.539064,N,12137.006169,E,1,19,0.8,37.8,M,,M,,*7D
$GPRMC,053527.000,A,3115.539064,N,12137.006169,E,2.9,234.396303654,200122,,E,A*2E
$GPGGA,053528.000,3115.538736,N,12137.006408,E,1,19,0.8,38.0,M,,M,,*76
$GPRMC,053528.000,A,3115.538736,N,12137.006408,E,2.2,206.28069021099998,200122,,E,A*1D
$GPGGA,053529.000,3115.539077,N,12137.006244,E,1,19,0.8,38.0,M,,M,,*7A
$GPRMC,053529.000,A,3115.539077,N,12137.006244,E,1.5,175.771778455,200122,,E,A*21
$GPGGA,053530.000,3115.539312,N,12137.005612,E,1,19,0.8,37.9,M,,M,,*70
$GPRMC,053530.000,A,3115.539312,N,12137.005612,E,1.2,209.090821313,200122,,E,A*2C
$GPGGA,053531.000,3115.539452,N,12137.005280,E,1,19,0.8,37.7,M,,M,,*73
$GPRMC,053531.000,A,3115.539452,N,12137.005280,E,1.0,221.913121932,200122,,E,A*2B
$GPGGA,053532.000,3115.540077,N,12137.004429,E,1,19,0.8,37.3,M,,M,,*7D
$GPRMC,053532.000,A,3115.540077,N,12137.004429,E,1.2,217.171481611,200122,,E,A*2B
$GPGGA,053533.000,3115.540352,N,12137.003764,E,1,19,0.8,37.1,M,,M,,*77
$GPRMC,053533.000,A,3115.540352,N,12137.003764,E,1.3,216.956262348,200122,,E,A*2C
$GPGGA,053534.000,3115.540637,N,12137.002746,E,1,19,0.8,36.9,M,,M,,*7E
$GPRMC,053534.000,A,3115.540637,N,12137.002746,E,1.7,228.46939327200002,200122,,E,A*11
$GPGGA,053535.000,3115.541020,N,12137.001580,E,1,19,0.8,36.7,M,,M,,*7B
$GPRMC,053535.000,A,3115.541020,N,12137.001580,E,2.0,228.46939327200002,200122,,E,A*1E
$GPGGA,053536.000,3115.541463,N,12137.000742,E,1,19,0.8,36.5,M,,M,,*74
$GPRMC,053536.000,A,3115.541463,N,12137.000742,E,2.2,222.440193976,200122,,E,A*2F
$GPGGA,053537.000,3115.541598,N,12136.999903,E,1,19,0.8,36.2,M,,M,,*74
$GPRMC,053537.000,A,3115.541598,N,12136.999903,E,2.3,219.438271159,200122,,E,A*24
$GPGGA,053538.000,3115.541723,N,12136.999012,E,1,19,0.8,36.0,M,,M,,*72
$GPRMC,053538.000,A,3115.541723,N,12136.999012,E,2.3,213.92439598099998,200122,,E,A*15
$GPGGA,053539.000,3115.541618,N,12136.999087,E,1,19,0.8,35.7,M,,M,,*72
$GPRMC,053539.000,A,3115.541618,N,12136.999087,E,1.9,211.520005441,200122,,E,A*20
$GPGGA,053540.000,3115.541677,N,12136.998552,E,1,19,0.8,34.9,M,,M,,*76
$GPRMC,053540.000,A,3115.541677,N,12136.998552,E,1.9,219.75662628,200122,,E,A*1C
$GPGGA,053541.000,3115.541539,N,12136.998283,E,1,19,0.8,34.0,M,,M,,*7C
$GPRMC,053541.000,A,3115.541539,N,12136.998283,E,1.8,227.713154718,200122,,E,A*24
$GPGGA,053542.000,3115.541131,N,12136.997230,E,1,19,0.8,33.7,M,,M,,*74
$GPRMC,053542.000,A,3115.541131,N,12136.997230,E,2.1,223.10582323900002,200122,,E,A*1E
$GPGGA,053543.000,3115.540603,N,12136.996276,E,1,19,0.8,33.5,M,,M,,*73
$GPRMC,053543.000,A,3115.540603,N,12136.996276,E,2.3,234.611427294,200122,,E,A*20
$GPGGA,053544.000,3115.540573,N,12136.995125,E,1,19,0.8,33.4,M,,M,,*77
$GPRMC,053544.000,A,3115.540573,N,12136.995125,E,2.5,239.350130633,200122,,E,A*24
$GPGGA,053545.000,3115.540126,N,12136.994774,E,1,19,0.8,33.6,M,,M,,*73
$GPRMC,053545.000,A,3115.540126,N,12136.994774,E,2.3,219.19615461,200122,,E,A*1D
$GPGGA,053546.000,3115.540097,N,12136.994064,E,1,19,0.8,33.7,M,,M,,*7C
$GPRMC,053546.000,A,3115.540097,N,12136.994064,E,2.3,221.993007825,200122,,E,A*2A
$GPGGA,053547.000,3115.539910,N,12136.993398,E,1,19,0.8,33.8,M,,M,,*7D
$GPRMC,053547.000,A,3115.539910,N,12136.993398,E,2.3,230.38078075200002,200122,,E,A*19
$GPGGA,053548.000,3115.541111,N,12136.994157,E,1,19,0.8,32.7,M,,M,,*7C
$GPRMC,053548.000,A,3115.541111,N,12136.994157,E,1.6,233.473627048,200122,,E,A*2A
$GPGGA,053549.000,3115.541031,N,12136.993161,E,1,19,0.8,32.7,M,,M,,*7C
$GPRMC,053549.000,A,3115.541031,N,12136.993161,E,1.8,236.669800447,200122,,E,A*28
$GPGGA,053550.000,3115.540562,N,12136.992051,E,1,19,0.8,32.9,M,,M,,*7B
$GPRMC,053550.000,A,3115.540562,N,12136.992051,E,2.2,232.089721423,200122,,E,A*2A
$GPGGA,053551.000,3115.540067,N,12136.990667,E,1,19,0.8,33.4,M,,M,,*77
$GPRMC,053551.000,A,3115.540067,N,12136.990667,E,2.7,230.60590379,200122,,E,A*1A
$GPGGA,053552.000,3115.540997,N,12136.990282,E,1,19,0.8,32.8,M,,M,,*70
$GPRMC,053552.000,A,3115.540997,N,12136.990282,E,2.2,230.60590379,200122,,E,A*15
$GPGGA,053553.000,3115.541068,N,12136.989222,E,1,19,0.8,32.6,M,,M,,*75
$GPRMC,053553.000,A,3115.541068,N,12136.989222,E,2.4,230.60590379,200122,,E,A*18
$GPGGA,053554.000,3115.540670,N,12136.987650,E,1,19,0.8,32.6,M,,M,,*73
$GPRMC,053554.000,A,3115.540670,N,12136.987650,E,2.9,230.60590379,200122,,E,A*13
$GPGGA,053555.000,3115.540949,N,12136.986012,E,1,19,0.8,32.5,M,,M,,*75
$GPRMC,053555.000,A,3115.540949,N,12136.986012,E,3.2,-95.79646011,200122,,E,A*01
$GPGGA,053556.000,3115.541133,N,12136.983840,E,1,19,0.8,32.7,M,,M,,*7A
$GPRMC,053556.000,A,3115.541133,N,12136.983840,E,3.8,-94.01620139799999,200122,,E,A*0D
$GPGGA,053557.000,3115.541324,N,12136.979540,E,1,19,0.8,33.9,M,,M,,*78
$GPRMC,053557.000,A,3115.541324,N,12136.979540,E,5.7,-94.014266528,200122,,E,A*31
$GPGGA,053558.000,3115.541377,N,12136.975960,E,1,19,0.8,35.1,M,,M,,*7D
$GPRMC,053558.000,A,3115.541377,N,12136.975960,E,7.1,-93.22315457399999,200122,,E,A*0A
$GPGGA,053559.000,3115.539632,N,12136.975365,E,1,19,0.8,36.6,M,,M,,*7C
$GPRMC,053559.000,A,3115.539632,N,12136.975365,E,2.4,230.063996575,200122,,E,A*26
$GPGGA,053600.000,3115.537464,N,12136.974609,E,1,19,0.8,38.0,M,,M,,*7A
$GPRMC,053600.000,A,3115.537464,N,12136.974609,E,5.4,-112.279426554,200122,,E,A*0D
$GPGGA,053601.000,3115.535323,N,12136.974584,E,1,19,0.8,39.1,M,,M,,*7B
$GPRMC,053601.000,A,3115.535323,N,12136.974584,E,4.3,-130.59530222,200122,,E,A*3A
$GPGGA,053602.000,3115.532976,N,12136.975061,E,1,19,0.8,40.2,M,,M,,*77
$GPRMC,053602.000,A,3115.532976,N,12136.975061,E,4.5,-146.855513279,200122,,E,A*07
$GPGGA,053603.000,3115.530624,N,12136.977548,E,1,19,0.8,41.7,M,,M,,*74
$GPRMC,053603.000,A,3115.530624,N,12136.977548,E,4.0,169.12949268100002,200122,,E,A*1E
$GPGGA,053604.000,3115.527755,N,12136.979430,E,1,19,0.8,42.5,M,,M,,*73
$GPRMC,053604.000,A,3115.527755,N,12136.979430,E,5.7,150.443906879,200122,,E,A*26
$GPGGA,053605.000,3115.525698,N,12136.981380,E,1,19,0.8,43.0,M,,M,,*7F
$GPRMC,053605.000,A,3115.525698,N,12136.981380,E,7.0,141.07651022,200122,,E,A*14
$GPGGA,053606.000,3115.522060,N,12136.983677,E,1,19,0.8,42.8,M,,M,,*7C
$GPRMC,053606.000,A,3115.522060,N,12136.983677,E,7.8,153.96193687299998,200122,,E,A*17
$GPGGA,053607.000,3115.519530,N,12136.985347,E,1,19,0.8,43.0,M,,M,,*7C
$GPRMC,053607.000,A,3115.519530,N,12136.985347,E,8.3,153.337603996,200122,,E,A*29
$GPGGA,053608.000,3115.517268,N,12136.986858,E,1,19,0.8,43.1,M,,M,,*70
$GPRMC,053608.000,A,3115.517268,N,12136.986858,E,8.4,153.093246698,200122,,E,A*2A
$GPGGA,053609.000,3115.515369,N,12136.988009,E,1,19,0.8,43.0,M,,M,,*70
$GPRMC,053609.000,A,3115.515369,N,12136.988009,E,8.2,152.941108262,200122,,E,A*22
$GPGGA,053610.000,3115.514133,N,12136.989216,E,1,19,0.8,42.5,M,,M,,*7D
$GPRMC,053610.000,A,3115.514133,N,12136.989216,E,7.7,151.055473164,200122,,E,A*22
$GPGGA,053611.000,3115.513466,N,12136.989625,E,1,19,0.8,41.9,M,,M,,*75
$GPRMC,053611.000,A,3115.513466,N,12136.989625,E,6.7,152.108103225,200122,,E,A*2A
$GPGGA,053612.000,3115.513487,N,12136.989908,E,1,19,0.8,41.5,M,,M,,*75
$GPRMC,053612.000,A,3115.513487,N,12136.989908,E,5.6,150.201013193,200122,,E,A*22
$GPGGA,053613.000,3115.512951,N,12136.990290,E,1,19,0.8,41.2,M,,M,,*76
$GPRMC,053613.000,A,3115.512951,N,12136.990290,E,5.0,149.381525661,200122,,E,A*2B
$GPGGA,053614.000,3115.512780,N,12136.990638,E,1,19,0.8,41.0,M,,M,,*77
$GPRMC,053614.000,A,3115.512780,N,12136.990638,E,4.2,146.920975618,200122,,E,A*22
$GPGGA,053615.000,3115.512652,N,12136.990962,E,1,19,0.8,40.7,M,,M,,*7E
$GPRMC,053615.000,A,3115.512652,N,12136.990962,E,3.6,144.141743438,200122,,E,A*28
$GPGGA,053616.000,3115.512905,N,12136.991577,E,1,19,0.8,40.3,M,,M,,*7D
$GPRMC,053616.000,A,3115.512905,N,12136.991577,E,3.0,134.716955599,200122,,E,A*29
$GPGGA,053617.000,3115.513081,N,12136.992272,E,1,19,0.8,40.2,M,,M,,*78
$GPRMC,053617.000,A,3115.513081,N,12136.992272,E,2.6,230.063996575,200122,,E,A*25
$GPGGA,053618.000,3115.513253,N,12136.993079,E,1,19,0.8,39.9,M,,M,,*77
$GPRMC,053618.000,A,3115.513253,N,12136.993079,E,2.5,230.063996575,200122,,E,A*2C
$GPGGA,053619.000,3115.513317,N,12136.994239,E,1,19,0.8,39.9,M,,M,,*76
$GPRMC,053619.000,A,3115.513317,N,12136.994239,E,2.5,230.063996575,200122,,E,A*2D
$GPGGA,053620.000,3115.511934,N,12136.997136,E,1,19,0.8,40.1,M,,M,,*7C
$GPRMC,053620.000,A,3115.511934,N,12136.997136,E,3.4,109.823611538,200122,,E,A*2D
$GPGGA,053621.000,3115.509610,N,12136.999891,E,1,19,0.8,40.4,M,,M,,*72
$GPRMC,053621.000,A,3115.509610,N,12136.999891,E,4.5,118.80973980600001,200122,,E,A*12
$GPGGA,053622.000,3115.509015,N,12137.001158,E,1,19,0.8,40.5,M,,M,,*76
$GPRMC,053622.000,A,3115.509015,N,12137.001158,E,4.4,120.056989546,200122,,E,A*22
$GPGGA,053623.000,3115.508935,N,12137.001393,E,1,19,0.8,40.0,M,,M,,*7D
$GPRMC,053623.000,A,3115.508935,N,12137.001393,E,3.6,121.945979986,200122,,E,A*2C
$GPGGA,053624.000,3115.509004,N,12137.001732,E,1,19,0.8,39.6,M,,M,,*77
$GPRMC,053624.000,A,3115.509004,N,12137.001732,E,2.9,121.910967984,200122,,E,A*2D
$GPGGA,053625.000,3115.508884,N,12137.001786,E,1,19,0.8,39.3,M,,M,,*7D
$GPRMC,053625.000,A,3115.508884,N,12137.001786,E,2.4,230.063996575,200122,,E,A*2D
$GPGGA,053626.000,3115.508420,N,12137.002117,E,1,19,0.8,39.0,M,,M,,*72
$GPRMC,053626.000,A,3115.508420,N,12137.002117,E,2.3,138.729189625,200122,,E,A*24
$GPGGA,053627.000,3115.508311,N,12137.002530,E,1,19,0.8,38.8,M,,M,,*7E
$GPRMC,053627.000,A,3115.508311,N,12137.002530,E,2.1,137.46400635,200122,,E,A*17
$GPGGA,053628.000,3115.508238,N,12137.002252,E,1,19,0.8,38.4,M,,M,,*74
$GPRMC,053628.000,A,3115.508238,N,12137.002252,E,1.6,141.641377416,200122,,E,A*21
$GPGGA,053629.000,3115.508055,N,12137.003064,E,1,19,0.8,38.2,M,,M,,*7C
$GPRMC,053629.000,A,3115.508055,N,12137.003064,E,1.8,136.489734495,200122,,E,A*2F
$GPGGA,053630.000,3115.507932,N,12137.003954,E,1,19,0.8,38.0,M,,M,,*7B
$GPRMC,053630.000,A,3115.507932,N,12137.003954,E,1.9,136.489734495,200122,,E,A*2B
$GPGGA,053631.000,3115.507996,N,12137.004534,E,1,19,0.8,37.7,M,,M,,*71
$GPRMC,053631.000,A,3115.507996,N,12137.004534,E,1.9,136.489734495,200122,,E,A*29
$GPGGA,053632.000,3115.508196,N,12137.005443,E,1,19,0.8,37.5,M,,M,,*77
$GPRMC,053632.000,A,3115.508196,N,12137.005443,E,2.0,136.489734495,200122,,E,A*27
$GPGGA,053633.000,3115.508100,N,12137.005879,E,1,19,0.8,37.2,M,,M,,*7B
$GPRMC,053633.000,A,3115.508100,N,12137.005879,E,1.9,136.489734495,200122,,E,A*26
$GPGGA,053634.000,3115.507546,N,12137.006847,E,1,19,0.8,37.2,M,,M,,*7B
$GPRMC,053634.000,A,3115.507546,N,12137.006847,E,2.1,136.489734495,200122,,E,A*2D
$GPGGA,053635.000,3115.507393,N,12137.007082,E,1,19,0.8,36.9,M,,M,,*7E
$GPRMC,053635.000,A,3115.507393,N,12137.007082,E,1.9,136.489734495,200122,,E,A*29
$GPGGA,053636.000,3115.507063,N,12137.007771,E,1,19,0.8,36.7,M,,M,,*74
$GPRMC,053636.000,A,3115.507063,N,12137.007771,E,1.9,136.489734495,200122,,E,A*2D
$GPGGA,053637.000,3115.506921,N,12137.007835,E,1,19,0.8,36.3,M,,M,,*70
$GPRMC,053637.000,A,3115.506921,N,12137.007835,E,1.8,136.489734495,200122,,E,A*2C
$GPGGA,053638.000,3115.506411,N,12137.007238,E,1,19,0.8,36.0,M,,M,,*75
$GPRMC,053638.000,A,3115.506411,N,12137.007238,E,1.5,136.489734495,200122,,E,A*27
$GPGGA,053639.000,3115.505923,N,12137.007105,E,1,19,0.8,35.8,M,,M,,*7D
$GPRMC,053639.000,A,3115.505923,N,12137.007105,E,1.4,136.489734495,200122,,E,A*25
$GPGGA,053640.000,3115.505631,N,12137.007262,E,1,19,0.8,35.5,M,,M,,*70
$GPRMC,053640.000,A,3115.505631,N,12137.007262,E,1.4,136.489734495,200122,,E,A*25
$GPGGA,053641.000,3115.505081,N,12137.007869,E,1,19,0.8,35.0,M,,M,,*78
$GPRMC,053641.000,A,3115.505081,N,12137.007869,E,1.5,136.489734495,200122,,E,A*29
$GPGGA,053642.000,3115.504585,N,12137.008556,E,1,19,0.8,35.2,M,,M,,*77
$GPRMC,053642.000,A,3115.504585,N,12137.008556,E,1.7,136.489734495,200122,,E,A*26
$GPGGA,053643.000,3115.503893,N,12137.009148,E,1,19,0.8,35.2,M,,M,,*71
$GPRMC,053643.000,A,3115.503893,N,12137.009148,E,1.8,136.489734495,200122,,E,A*2F
$GPGGA,053644.000,3115.503323,N,12137.010360,E,1,19,0.8,35.3,M,,M,,*77
$GPRMC,053644.000,A,3115.503323,N,12137.010360,E,2.1,136.489734495,200122,,E,A*22
$GPGGA,053645.000,3115.502986,N,12137.011490,E,1,19,0.8,35.1,M,,M,,*79
$GPRMC,053645.000,A,3115.502986,N,12137.011490,E,2.3,136.489734495,200122,,E,A*2C
$GPGGA,053646.000,3115.502445,N,12137.012283,E,1,19,0.8,34.9,M,,M,,*76
$GPRMC,053646.000,A,3115.502445,N,12137.012283,E,2.4,136.489734495,200122,,E,A*2D
$GPGGA,053647.000,3115.501819,N,12137.013007,E,1,19,0.8,34.5,M,,M,,*72
$GPRMC,053647.000,A,3115.501819,N,12137.013007,E,2.5,137.212505121,200122,,E,A*2B
$GPGGA,053648.000,3115.501173,N,12137.013903,E,1,19,0.8,34.2,M,,M,,*72
$GPRMC,053648.000,A,3115.501173,N,12137.013903,E,2.6,137.212505121,200122,,E,A*2F
$GPGGA,053649.000,3115.501235,N,12137.015251,E,1,19,0.8,34.8,M,,M,,*72
$GPRMC,053649.000,A,3115.501235,N,12137.015251,E,2.7,137.212505121,200122,,E,A*24
$GPGGA,053650.000,3115.500559,N,12137.016372,E,1,19,0.8,34.4,M,,M,,*79
$GPRMC,053650.000,A,3115.500559,N,12137.016372,E,2.9,137.212505121,200122,,E,A*2D
$GPGGA,053651.000,3115.499503,N,12137.017614,E,1,19,0.8,33.5,M,,M,,*74
$GPRMC,053651.000,A,3115.499503,N,12137.017614,E,3.2,123.282961694,200122,,E,A*27
$GPGGA,053652.000,3115.498021,N,12137.018723,E,1,19,0.8,32.3,M,,M,,*7E
$GPRMC,053652.000,A,3115.498021,N,12137.018723,E,3.5,128.80258499200002,200122,,E,A*18
$GPGGA,053653.000,3115.496644,N,12137.019487,E,1,19,0.8,31.2,M,,M,,*7A
$GPRMC,053653.000,A,3115.496644,N,12137.019487,E,3.6,134.067490188,200122,,E,A*2E
$GPGGA,053654.000,3115.495971,N,12137.019919,E,1,19,0.8,30.9,M,,M,,*77
$GPRMC,053654.000,A,3115.495971,N,12137.019919,E,3.5,136.458548958,200122,,E,A*21
$GPGGA,053655.000,3115.494717,N,12137.020078,E,1,19,0.8,30.4,M,,M,,*70
$GPRMC,053655.000,A,3115.494717,N,12137.020078,E,3.6,144.180042389,200122,,E,A*24
$GPGGA,053656.000,3115.493945,N,12137.020212,E,1,19,0.8,30.4,M,,M,,*73
$GPRMC,053656.000,A,3115.493945,N,12137.020212,E,3.5,147.703770279,200122,,E,A*22
$GPGGA,053657.000,3115.493084,N,12137.019990,E,1,19,0.8,30.4,M,,M,,*7D
$GPRMC,053657.000,A,3115.493084,N,12137.019990,E,3.4,154.196821284,200122,,E,A*2C
$GPGGA,053658.000,3115.492669,N,12137.019799,E,1,19,0.8,30.3,M,,M,,*76
$GPRMC,053658.000,A,3115.492669,N,12137.019799,E,3.1,157.475016641,200122,,E,A*2F
$GPGGA,053659.000,3115.492700,N,12137.019518,E,1,19,0.8,30.5,M,,M,,*74
$GPRMC,053659.000,A,3115.492700,N,12137.019518,E,2.6,139.040332066,200122,,E,A*21
$GPGGA,053700.000,3115.492755,N,12137.018479,E,1,19,0.8,31.0,M,,M,,*7A
$GPRMC,053700.000,A,3115.492755,N,12137.018479,E,2.1,139.040332066,200122,,E,A*2C
$GPGGA,053701.000,3115.492733,N,12137.017454,E,1,19,0.8,31.3,M,,M,,*78
$GPRMC,053701.000,A,3115.492733,N,12137.017454,E,1.8,139.040332066,200122,,E,A*27
$GPGGA,053702.000,3115.492089,N,12137.015852,E,1,19,0.8,31.6,M,,M,,*70
$GPRMC,053702.000,A,3115.492089,N,12137.015852,E,2.4,139.040332066,200122,,E,A*25
$GPGGA,053703.000,3115.491636,N,12137.014611,E,1,19,0.8,31.6,M,,M,,*78
$GPRMC,053703.000,A,3115.491636,N,12137.014611,E,2.7,139.040332066,200122,,E,A*2E
$GPGGA,053704.000,3115.491154,N,12137.013766,E,1,19,0.8,31.7,M,,M,,*7B
$GPRMC,053704.000,A,3115.491154,N,12137.013766,E,2.9,139.040332066,200122,,E,A*22
$GPGGA,053705.000,3115.490715,N,12137.013648,E,1,19,0.8,31.7,M,,M,,*75
$GPRMC,053705.000,A,3115.490715,N,12137.013648,E,2.4,147.373340536,200122,,E,A*2E
$GPGGA,053706.000,3115.490039,N,12137.013489,E,1,19,0.8,31.9,M,,M,,*7E
$GPRMC,053706.000,A,3115.490039,N,12137.013489,E,2.3,147.373340536,200122,,E,A*2C
$GPGGA,053707.000,3115.489102,N,12137.014096,E,1,19,0.8,32.0,M,,M,,*79
$GPRMC,053707.000,A,3115.489102,N,12137.014096,E,2.2,140.974901209,200122,,E,A*2E
$GPGGA,053708.000,3115.488602,N,12137.014757,E,1,19,0.8,32.0,M,,M,,*7A
$GPRMC,053708.000,A,3115.488602,N,12137.014757,E,2.1,130.735026844,200122,,E,A*2D
$GPGGA,053709.000,3115.488193,N,12137.015246,E,1,19,0.8,31.8,M,,M,,*7B
$GPRMC,053709.000,A,3115.488193,N,12137.015246,E,2.1,115.781024161,200122,,E,A*23
$GPGGA,053710.000,3115.487703,N,12137.015824,E,1,19,0.8,31.6,M,,M,,*73
$GPRMC,053710.000,A,3115.487703,N,12137.015824,E,2.4,129.49594855200002,200122,,E,A*1C
$GPGGA,053711.000,3115.486972,N,12137.016313,E,1,19,0.8,31.4,M,,M,,*75
$GPRMC,053711.000,A,3115.486972,N,12137.016313,E,2.5,142.894648841,200122,,E,A*2B
$GPGGA,053712.000,3115.485815,N,12137.017176,E,1,19,0.8,31.2,M,,M,,*73
$GPRMC,053712.000,A,3115.485815,N,12137.017176,E,2.9,153.44237349600002,200122,,E,A*19
$GPGGA,053713.000,3115.484665,N,12137.018377,E,1,19,0.8,31.0,M,,M,,*74
$GPRMC,053713.000,A,3115.484665,N,12137.018377,E,3.3,138.604897811,200122,,E,A*2A
$GPGGA,053714.000,3115.483457,N,12137.019592,E,1,19,0.8,30.9,M,,M,,*73
$GPRMC,053714.000,A,3115.483457,N,12137.019592,E,3.6,137.18623636700002,200122,,E,A*1B
$GPGGA,053715.000,3115.482337,N,12137.020670,E,1,19,0.8,30.6,M,,M,,*78
$GPRMC,053715.000,A,3115.482337,N,12137.020670,E,3.8,137.145374536,200122,,E,A*29
$GPGGA,053716.000,3115.481641,N,12137.021236,E,1,19,0.8,30.4,M,,M,,*79
$GPRMC,053716.000,A,3115.481641,N,12137.021236,E,3.7,138.562889899,200122,,E,A*2A
$GPGGA,053717.000,3115.480970,N,12137.021964,E,1,19,0.8,30.6,M,,M,,*7A
$GPRMC,053717.000,A,3115.480970,N,12137.021964,E,3.6,138.975537291,200122,,E,A*2A
$GPGGA,053718.000,3115.480390,N,12137.022647,E,1,19,0.8,30.7,M,,M,,*7D
$GPRMC,053718.000,A,3115.480390,N,12137.022647,E,3.5,138.997510488,200122,,E,A*28
$GPGGA,053719.000,3115.479953,N,12137.023110,E,1,19,0.8,30.3,M,,M,,*7F
$GPRMC,053719.000,A,3115.479953,N,12137.023110,E,3.3,138.99175087,200122,,E,A*13
$GPGGA,053720.000,3115.479659,N,12137.024011,E,1,19,0.8,30.0,M,,M,,*74
$GPRMC,053720.000,A,3115.479659,N,12137.024011,E,3.3,135.58992036700002,200122,,E,A*15
$GPGGA,053721.000,3115.479482,N,12137.025138,E,1,19,0.8,29.6,M,,M,,*74
$GPRMC,053721.000,A,3115.479482,N,12137.025138,E,3.3,130.908897501,200122,,E,A*22
$GPGGA,053722.000,3115.479257,N,12137.026142,E,1,19,0.8,29.3,M,,M,,*72
$GPRMC,053722.000,A,3115.479257,N,12137.026142,E,3.2,127.719346865,200122,,E,A*20
$GPGGA,053723.000,3115.479236,N,12137.026939,E,1,19,0.8,28.9,M,,M,,*7B
$GPRMC,053723.000,A,3115.479236,N,12137.026939,E,3.1,124.791138891,200122,,E,A*22
$GPGGA,053724.000,3115.479220,N,12137.027108,E,1,19,0.8,28.5,M,,M,,*7C
$GPRMC,053724.000,A,3115.479220,N,12137.027108,E,2.8,118.139843679,200122,,E,A*27
$GPGGA,053725.000,3115.479620,N,12137.026627,E,1,19,0.8,27.9,M,,M,,*71
$GPRMC,053725.000,A,3115.479620,N,12137.026627,E,2.2,138.190205731,200122,,E,A*27
$GPGGA,053726.000,3115.480129,N,12137.026828,E,1,19,0.8,27.6,M,,M,,*74
$GPRMC,053726.000,A,3115.480129,N,12137.026828,E,1.8,136.920692116,200122,,E,A*20
$GPGGA,053727.000,3115.480386,N,12137.027569,E,1,19,0.8,27.6,M,,M,,*7B
$GPRMC,053727.000,A,3115.480386,N,12137.027569,E,1.7,155.282112291,200122,,E,A*25
$GPGGA,053728.000,3115.480094,N,12137.027699,E,1,19,0.8,27.3,M,,M,,*7D
$GPRMC,053728.000,A,3115.480094,N,12137.027699,E,1.6,155.282112291,200122,,E,A*27
$GPGGA,053729.000,3115.479798,N,12137.028094,E,1,19,0.8,27.1,M,,M,,*77
$GPRMC,053729.000,A,3115.479798,N,12137.028094,E,1.6,155.282112291,200122,,E,A*2F
$GPGGA,053730.000,3115.479611,N,12137.028753,E,1,19,0.8,26.9,M,,M,,*7A
$GPRMC,053730.000,A,3115.479611,N,12137.028753,E,1.7,155.282112291,200122,,E,A*2A
$GPGGA,053731.000,3115.479354,N,12137.029678,E,1,19,0.8,26.8,M,,M,,*77
$GPRMC,053731.000,A,3115.479354,N,12137.029678,E,1.8,155.282112291,200122,,E,A*29
$GPGGA,053732.000,3115.478883,N,12137.030470,E,1,19,0.8,26.8,M,,M,,*76
$GPRMC,053732.000,A,3115.478883,N,12137.030470,E,2.0,140.49135113100002,200122,,E,A*1D
$GPGGA,053733.000,3115.478572,N,12137.031666,E,1,19,0.8,26.7,M,,M,,*7F
$GPRMC,053733.000,A,3115.478572,N,12137.031666,E,2.2,162.906188097,200122,,E,A*23
$GPGGA,053734.000,3115.477796,N,12137.032888,E,1,19,0.8,26.6,M,,M,,*73
$GPRMC,053734.000,A,3115.477796,N,12137.032888,E,2.5,142.17238364899998,200122,,E,A*15
$GPGGA,053735.000,3115.477316,N,12137.033662,E,1,19,0.8,26.3,M,,M,,*70
$GPRMC,053735.000,A,3115.477316,N,12137.033662,E,2.5,153.167717925,200122,,E,A*22
$GPGGA,053736.000,3115.476695,N,12137.034259,E,1,19,0.8,25.7,M,,M,,*70
$GPRMC,053736.000,A,3115.476695,N,12137.034259,E,2.6,153.167717925,200122,,E,A*26
$GPGGA,053737.000,3115.476102,N,12137.035105,E,1,19,0.8,25.2,M,,M,,*76
$GPRMC,053737.000,A,3115.476102,N,12137.035105,E,2.7,153.167717925,200122,,E,A*24
$GPGGA,053738.000,3115.475296,N,12137.035858,E,1,19,0.8,25.0,M,,M,,*77
$GPRMC,053738.000,A,3115.475296,N,12137.035858,E,2.7,153.167717925,200122,,E,A*27
$GPGGA,053739.000,3115.475030,N,12137.037084,E,1,19,0.8,24.6,M,,M,,*74
$GPRMC,053739.000,A,3115.475030,N,12137.037084,E,2.9,153.167717925,200122,,E,A*2D
$GPGGA,053740.000,3115.474593,N,12137.038117,E,1,19,0.8,24.3,M,,M,,*76
$GPRMC,053740.000,A,3115.474593,N,12137.038117,E,3.0,118.941662405,200122,,E,A*2D
$GPGGA,053741.000,3115.474186,N,12137.038988,E,1,19,0.8,24.2,M,,M,,*78
$GPRMC,053741.000,A,3115.474186,N,12137.038988,E,3.0,118.915236761,200122,,E,A*27
$GPGGA,053742.000,3115.473877,N,12137.040418,E,1,19,0.8,24.2,M,,M,,*70
$GPRMC,053742.000,A,3115.473877,N,12137.040418,E,3.1,116.669894681,200122,,E,A*29
$GPGGA,053743.000,3115.473372,N,12137.041830,E,1,19,0.8,24.1,M,,M,,*7B
$GPRMC,053743.000,A,3115.473372,N,12137.041830,E,3.3,116.243959409,200122,,E,A*2D
$GPGGA,053744.000,3115.472643,N,12137.043512,E,1,19,0.8,24.3,M,,M,,*77
$GPRMC,053744.000,A,3115.472643,N,12137.043512,E,3.6,116.336679806,200122,,E,A*2B
$GPGGA,053745.000,3115.472040,N,12137.044705,E,1,19,0.8,24.4,M,,M,,*77
$GPRMC,053745.000,A,3115.472040,N,12137.044705,E,3.6,117.221557551,200122,,E,A*2A
$GPGGA,053746.000,3115.471282,N,12137.046277,E,1,19,0.8,24.8,M,,M,,*75
$GPRMC,053746.000,A,3115.471282,N,12137.046277,E,3.8,117.700594656,200122,,E,A*27
$GPGGA,053747.000,3115.469928,N,12137.046399,E,1,19,0.8,24.6,M,,M,,*79
$GPRMC,053747.000,A,3115.469928,N,12137.046399,E,3.7,125.236411476,200122,,E,A*27
$GPGGA,053748.000,3115.468610,N,12137.046346,E,1,19,0.8,24.7,M,,M,,*70
$GPRMC,053748.000,A,3115.468610,N,12137.046346,E,3.5,133.578933159,200122,,E,A*22
$GPGGA,053749.000,3115.467756,N,12137.047136,E,1,19,0.8,25.6,M,,M,,*79
$GPRMC,053749.000,A,3115.467756,N,12137.047136,E,3.6,135.66172725,200122,,E,A*14
$GPGGA,053750.000,3115.466140,N,12137.047541,E,1,19,0.8,26.3,M,,M,,*73
$GPRMC,053750.000,A,3115.466140,N,12137.047541,E,3.7,143.411733227,200122,,E,A*28
$GPGGA,053751.000,3115.465560,N,12137.046456,E,1,19,0.8,26.8,M,,M,,*7A
$GPRMC,053751.000,A,3115.465560,N,12137.046456,E,3.2,157.825888473,200122,,E,A*29
$GPGGA,053752.000,3115.465070,N,12137.047072,E,1,19,0.8,29.1,M,,M,,*78
$GPRMC,053752.000,A,3115.465070,N,12137.047072,E,3.1,160.717417694,200122,,E,A*25
$GPGGA,053753.000,3115.464054,N,12137.047620,E,1,19,0.8,29.9,M,,M,,*77
$GPRMC,053753.000,A,3115.464054,N,12137.047620,E,3.2,160.298427081,200122,,E,A*22
$GPGGA,053754.000,3115.463567,N,12137.048277,E,1,19,0.8,30.3,M,,M,,*79
$GPRMC,053754.000,A,3115.463567,N,12137.048277,E,3.1,157.218126266,200122,,E,A*2E
$GPGGA,053755.000,3115.464785,N,12137.048442,E,1,19,0.8,29.8,M,,M,,*72
$GPRMC,053755.000,A,3115.464785,N,12137.048442,E,2.1,164.95407008,200122,,E,A*1C
$GPGGA,053756.000,3115.465641,N,12137.048662,E,1,19,0.8,29.5,M,,M,,*74
$GPRMC,053756.000,A,3115.465641,N,12137.048662,E,1.5,164.95407008,200122,,E,A*10
$GPGGA,053757.000,3115.467467,N,12137.048239,E,1,19,0.8,29.1,M,,M,,*7F
$GPRMC,053757.000,A,3115.467467,N,12137.048239,E,0.9,314.060079364,200122,,E,A*29
$GPGGA,053758.000,3115.469536,N,12137.046990,E,1,19,0.8,28.5,M,,M,,*78
$GPRMC,053758.000,A,3115.469536,N,12137.046990,E,1.7,308.490961616,200122,,E,A*22
$GPGGA,053759.000,3115.471044,N,12137.046125,E,1,19,0.8,27.8,M,,M,,*74
$GPRMC,053759.000,A,3115.471044,N,12137.046125,E,2.9,-9.150365127999999,200122,,E,A*0C
$GPGGA,053800.000,3115.472337,N,12137.044742,E,1,19,0.8,27.0,M,,M,,*7E
$GPRMC,053800.000,A,3115.472337,N,12137.044742,E,3.7,-19.396588221,200122,,E,A*38
$GPGGA,053801.000,3115.473727,N,12137.043192,E,1,19,0.8,26.9,M,,M,,*7F
$GPRMC,053801.000,A,3115.473727,N,12137.043192,E,4.4,-28.174310640999998,200122,,E,A*3C
$GPGGA,053802.000,3115.475843,N,12137.041535,E,1,19,0.8,26.6,M,,M,,*73
$GPRMC,053802.000,A,3115.475843,N,12137.041535,E,5.7,-29.659067346999997,200122,,E,A*3B
$GPGGA,053803.000,3115.477519,N,12137.040268,E,1,19,0.8,26.5,M,,M,,*7F
$GPRMC,053803.000,A,3115.477519,N,12137.040268,E,6.1,-30.740455821999998,200122,,E,A*30
$GPGGA,053804.000,3115.477546,N,12137.039831,E,1,19,0.8,26.3,M,,M,,*7C
$GPRMC,053804.000,A,3115.477546,N,12137.039831,E,4.6,-32.487630782,200122,,E,A*3C
$GPGGA,053805.000,3115.478398,N,12137.038513,E,1,19,0.8,26.2,M,,M,,*7A
$GPRMC,053805.000,A,3115.478398,N,12137.038513,E,4.6,-36.587135625,200122,,E,A*30
$GPGGA,053806.000,3115.478646,N,12137.037459,E,1,19,0.8,25.4,M,,M,,*7A
$GPRMC,053806.000,A,3115.478646,N,12137.037459,E,4.0,-41.53414928,200122,,E,A*0B
$GPGGA,053807.000,3115.480313,N,12137.036240,E,1,19,0.8,25.1,M,,M,,*73
$GPRMC,053807.000,A,3115.480313,N,12137.036240,E,4.7,-36.696883786,200122,,E,A*37
$GPGGA,053808.000,3115.481918,N,12137.035682,E,1,19,0.8,24.9,M,,M,,*7C
$GPRMC,053808.000,A,3115.481918,N,12137.035682,E,4.9,-31.985367336,200122,,E,A*3B
$GPGGA,053809.000,3115.482802,N,12137.034997,E,1,19,0.8,24.6,M,,M,,*71
$GPRMC,053809.000,A,3115.482802,N,12137.034997,E,4.5,-33.088435362,200122,,E,A*32
$GPGGA,053810.000,3115.483936,N,12137.034771,E,1,19,0.8,24.4,M,,M,,*7A
$GPRMC,053810.000,A,3115.483936,N,12137.034771,E,4.4,-30.050290873,200122,,E,A*3E
$GPGGA,053811.000,3115.485160,N,12137.034526,E,1,19,0.8,24.4,M,,M,,*76
$GPRMC,053811.000,A,3115.485160,N,12137.034526,E,4.3,-27.208723871999997,200122,,E,A*3D
$GPGGA,053812.000,3115.486246,N,12137.034251,E,1,19,0.8,24.2,M,,M,,*70
$GPRMC,053812.000,A,3115.486246,N,12137.034251,E,4.2,-25.111986634,200122,,E,A*35
$GPGGA,053813.000,3115.487111,N,12137.033816,E,1,19,0.8,23.9,M,,M,,*73
$GPRMC,053813.000,A,3115.487111,N,12137.033816,E,4.1,-24.744612189,200122,,E,A*3D
$GPGGA,053814.000,3115.487592,N,12137.033320,E,1,19,0.8,23.4,M,,M,,*78
$GPRMC,053814.000,A,3115.487592,N,12137.033320,E,3.8,-25.921553396,200122,,E,A*33
$GPGGA,053815.000,3115.487713,N,12137.032802,E,1,19,0.8,22.9,M,,M,,*74
$GPRMC,053815.000,A,3115.487713,N,12137.032802,E,3.4,-28.634883996,200122,,E,A*33
$GPGGA,053816.000,3115.487598,N,12137.032088,E,1,19,0.8,22.7,M,,M,,*72
$GPRMC,053816.000,A,3115.487598,N,12137.032088,E,3.0,-34.008349608,200122,,E,A*3E
$GPGGA,053817.000,3115.487070,N,12137.031390,E,1,19,0.8,22.3,M,,M,,*7D
$GPRMC,053817.000,A,3115.487070,N,12137.031390,E,2.5,296.51094627599997,200122,,E,A*16
$GPGGA,053818.000,3115.486460,N,12137.030674,E,1,19,0.8,21.9,M,,M,,*71
$GPRMC,053818.000,A,3115.486460,N,12137.030674,E,2.1,296.51094627599997,200122,,E,A*17
$GPGGA,053819.000,3115.485135,N,12137.030091,E,1,19,0.8,21.1,M,,M,,*73
$GPRMC,053819.000,A,3115.485135,N,12137.030091,E,1.7,296.51094627599997,200122,,E,A*18
$GPGGA,053820.000,3115.483992,N,12137.029132,E,1,19,0.8,20.6,M,,M,,*7C
$GPRMC,053820.000,A,3115.483992,N,12137.029132,E,2.1,296.51094627599997,200122,,E,A*14
$GPGGA,053821.000,3115.483472,N,12137.027883,E,1,19,0.8,20.4,M,,M,,*71
$GPRMC,053821.000,A,3115.483472,N,12137.027883,E,2.3,301.15307073900004,200122,,E,A*17
$GPGGA,053822.000,3115.483717,N,12137.026966,E,1,19,0.8,20.2,M,,M,,*7F
$GPRMC,053822.000,A,3115.483717,N,12137.026966,E,2.2,314.482649513,200122,,E,A*21
$GPGGA,053823.000,3115.484510,N,12137.026292,E,1,19,0.8,20.3,M,,M,,*7D
$GPRMC,053823.000,A,3115.484510,N,12137.026292,E,2.2,333.702310288,200122,,E,A*20
$GPGGA,053824.000,3115.486150,N,12137.026225,E,1,19,0.8,20.4,M,,M,,*73
$GPRMC,053824.000,A,3115.486150,N,12137.026225,E,2.6,321.20940237599996,200122,,E,A*11
$GPGGA,053825.000,3115.487755,N,12137.026018,E,1,19,0.8,20.7,M,,M,,*7F
$GPRMC,053825.000,A,3115.487755,N,12137.026018,E,3.3,-32.63936533,200122,,E,A*00
$GPGGA,053826.000,3115.489175,N,12137.026290,E,1,19,0.8,21.1,M,,M,,*73
$GPRMC,053826.000,A,3115.489175,N,12137.026290,E,3.5,-23.853419513000002,200122,,E,A*36
$GPGGA,053827.000,3115.490126,N,12137.026473,E,1,19,0.8,21.2,M,,M,,*74
$GPRMC,053827.000,A,3115.490126,N,12137.026473,E,3.3,-20.222475972,200122,,E,A*38
$GPGGA,053828.000,3115.490923,N,12137.027006,E,1,19,0.8,21.3,M,,M,,*70
$GPRMC,053828.000,A,3115.490923,N,12137.027006,E,2.9,-15.310357814000001,200122,,E,A*37
$GPGGA,053829.000,3115.491005,N,12137.027728,E,1,19,0.8,21.4,M,,M,,*71
$GPRMC,053829.000,A,3115.491005,N,12137.027728,E,2.1,312.69619985400004,200122,,E,A*1A
$GPGGA,053830.000,3115.491701,N,12137.028160,E,1,19,0.8,21.6,M,,M,,*7D
$GPRMC,053830.000,A,3115.491701,N,12137.028160,E,2.1,322.606012153,200122,,E,A*26
$GPGGA,053831.000,3115.492625,N,12137.028193,E,1,19,0.8,21.8,M,,M,,*7A
$GPRMC,053831.000,A,3115.492625,N,12137.028193,E,2.4,331.442419231,200122,,E,A*22
$GPGGA,053832.000,3115.493753,N,12137.027987,E,1,19,0.8,22.0,M,,M,,*71
$GPRMC,053832.000,A,3115.493753,N,12137.027987,E,2.8,331.442419231,200122,,E,A*2E
$GPGGA,053833.000,3115.494568,N,12137.027440,E,1,19,0.8,21.7,M,,M,,*7F
$GPRMC,053833.000,A,3115.494568,N,12137.027440,E,2.9,331.442419231,200122,,E,A*25
$GPGGA,053834.000,3115.494502,N,12137.027065,E,1,19,0.8,21.2,M,,M,,*72
$GPRMC,053834.000,A,3115.494502,N,12137.027065,E,2.3,331.442419231,200122,,E,A*27
$GPGGA,053835.000,3115.494126,N,12137.026748,E,1,19,0.8,21.1,M,,M,,*7B
$GPRMC,053835.000,A,3115.494126,N,12137.026748,E,1.7,337.591092197,200122,,E,A*2B
$GPGGA,053836.000,3115.493895,N,12137.026073,E,1,19,0.8,21.0,M,,M,,*70
$GPRMC,053836.000,A,3115.493895,N,12137.026073,E,1.4,338.45087642,200122,,E,A*1A
$GPGGA,053837.000,3115.494073,N,12137.025366,E,1,19,0.8,20.7,M,,M,,*74
$GPRMC,053837.000,A,3115.494073,N,12137.025366,E,1.5,338.45087642,200122,,E,A*19
$GPGGA,053838.000,3115.494270,N,12137.024678,E,1,19,0.8,20.5,M,,M,,*73
$GPRMC,053838.000,A,3115.494270,N,12137.024678,E,1.6,338.45087642,200122,,E,A*1F
$GPGGA,053839.000,3115.494394,N,12137.024397,E,1,19,0.8,20.5,M,,M,,*7D
$GPRMC,053839.000,A,3115.494394,N,12137.024397,E,1.5,338.45087642,200122,,E,A*12
$GPGGA,053840.000,3115.495200,N,12137.023682,E,1,19,0.8,19.9,M,,M,,*7E
$GPRMC,053840.000,A,3115.495200,N,12137.023682,E,1.9,338.45087642,200122,,E,A*1B
$GPGGA,053841.000,3115.494831,N,12137.023248,E,1,19,0.8,20.0,M,,M,,*77
$GPRMC,053841.000,A,3115.494831,N,12137.023248,E,1.6,338.45087642,200122,,E,A*1E
$GPGGA,053842.000,3115.495182,N,12137.022551,E,1,19,0.8,20.0,M,,M,,*7A
$GPRMC,053842.000,A,3115.495182,N,12137.022551,E,1.7,338.45087642,200122,,E,A*12
$GPGGA,053843.000,3115.494690,N,12137.022349,E,1,19,0.8,19.4,M,,M,,*7F
$GPRMC,053843.000,A,3115.494690,N,12137.022349,E,1.3,338.45087642,200122,,E,A*1D
$GPGGA,053844.000,3115.495274,N,12137.021612,E,1,19,0.8,19.2,M,,M,,*79
$GPRMC,053844.000,A,3115.495274,N,12137.021612,E,1.6,338.45087642,200122,,E,A*18
$GPGGA,053845.000,3115.495567,N,12137.021092,E,1,19,0.8,19.1,M,,M,,*70
$GPRMC,053845.000,A,3115.495567,N,12137.021092,E,1.7,338.45087642,200122,,E,A*13
$GPGGA,053846.000,3115.495957,N,12137.019741,E,1,19,0.8,19.2,M,,M,,*7D
$GPRMC,053846.000,A,3115.495957,N,12137.019741,E,2.1,338.45087642,200122,,E,A*18
$GPGGA,053847.000,3115.497472,N,12137.018522,E,1,19,0.8,19.8,M,,M,,*78
$GPRMC,053847.000,A,3115.497472,N,12137.018522,E,2.8,338.45087642,200122,,E,A*1E
$GPGGA,053848.000,3115.498449,N,12137.017146,E,1,19,0.8,20.4,M,,M,,*7F
$GPRMC,053848.000,A,3115.498449,N,12137.017146,E,3.2,-49.254329587,200122,,E,A*33
$GPGGA,053849.000,3115.500375,N,12137.016243,E,1,19,0.8,21.4,M,,M,,*70
$GPRMC,053849.000,A,3115.500375,N,12137.016243,E,3.9,-40.438777611,200122,,E,A*30
$GPGGA,053850.000,3115.499780,N,12137.016354,E,1,19,0.8,21.2,M,,M,,*76
$GPRMC,053850.000,A,3115.499780,N,12137.016354,E,2.8,338.45087642,200122,,E,A*11
$GPGGA,053851.000,3115.500833,N,12137.015255,E,1,19,0.8,21.2,M,,M,,*72
$GPRMC,053851.000,A,3115.500833,N,12137.015255,E,3.3,-43.925163698,200122,,E,A*3E
$GPGGA,053852.000,3115.501273,N,12137.014349,E,1,19,0.8,20.9,M,,M,,*79
$GPRMC,053852.000,A,3115.501273,N,12137.014349,E,3.1,-49.44242534,200122,,E,A*0C
$GPGGA,053853.000,3115.501268,N,12137.013916,E,1,19,0.8,20.5,M,,M,,*79
$GPRMC,053853.000,A,3115.501268,N,12137.013916,E,2.6,338.45087642,200122,,E,A*16
$GPGGA,053854.000,3115.502826,N,12137.012981,E,1,19,0.8,20.0,M,,M,,*77
$GPRMC,053854.000,A,3115.502826,N,12137.012981,E,3.4,-41.957540121,200122,,E,A*38
$GPGGA,053855.000,3115.503259,N,12137.012540,E,1,19,0.8,19.9,M,,M,,*77
$GPRMC,053855.000,A,3115.503259,N,12137.012540,E,3.1,-42.608147421999995,200122,,E,A*32
$GPGGA,053856.000,3115.503241,N,12137.012444,E,1,19,0.8,19.3,M,,M,,*72
$GPRMC,053856.000,A,3115.503241,N,12137.012444,E,2.5,338.45087642,200122,,E,A*12
$GPGGA,053857.000,3115.503947,N,12137.011608,E,1,19,0.8,19.0,M,,M,,*74
$GPRMC,053857.000,A,3115.503947,N,12137.011608,E,2.7,338.45087642,200122,,E,A*15
$GPGGA,053858.000,3115.504696,N,12137.011136,E,1,19,0.8,18.7,M,,M,,*73
$GPRMC,053858.000,A,3115.504696,N,12137.011136,E,2.8,338.45087642,200122,,E,A*1B
$GPGGA,053859.000,3115.505488,N,12137.010699,E,1,19,0.8,18.3,M,,M,,*79
$GPRMC,053859.000,A,3115.505488,N,12137.010699,E,2.9,338.45087642,200122,,E,A*14
$GPGGA,053900.000,3115.506220,N,12137.010494,E,1,19,0.8,18.0,M,,M,,*7F
$GPRMC,053900.000,A,3115.506220,N,12137.010494,E,2.9,338.45087642,200122,,E,A*11
$GPGGA,053901.000,3115.507525,N,12137.010051,E,1,19,0.8,18.1,M,,M,,*71
$GPRMC,053901.000,A,3115.507525,N,12137.010051,E,3.2,-29.328636862,200122,,E,A*32
$GPGGA,053902.000,3115.509097,N,12137.009348,E,1,19,0.8,18.4,M,,M,,*76
$GPRMC,053902.000,A,3115.509097,N,12137.009348,E,3.6,-26.666088581,200122,,E,A*37
$GPGGA,053903.000,3115.510265,N,12137.008925,E,1,19,0.8,18.7,M,,M,,*73
$GPRMC,053903.000,A,3115.510265,N,12137.008925,E,3.8,-24.988028409,200122,,E,A*39
$GPGGA,053904.000,3115.511562,N,12137.008541,E,1,19,0.8,19.3,M,,M,,*7E
$GPRMC,053904.000,A,3115.511562,N,12137.008541,E,3.9,-23.166192259000002,200122,,E,A*3E
$GPGGA,053905.000,3115.512902,N,12137.008057,E,1,19,0.8,19.8,M,,M,,*7F
$GPRMC,053905.000,A,3115.512902,N,12137.008057,E,4.1,-22.161192754,200122,,E,A*37
$GPGGA,053906.000,3115.513408,N,12137.007393,E,1,19,0.8,20.3,M,,M,,*7F
$GPRMC,053906.000,A,3115.513408,N,12137.007393,E,3.8,-24.754153513000002,200122,,E,A*30
$GPGGA,053907.000,3115.514607,N,12137.006504,E,1,19,0.8,20.5,M,,M,,*7B
$GPRMC,053907.000,A,3115.514607,N,12137.006504,E,4.0,-26.009267589,200122,,E,A*35
$GPGGA,053908.000,3115.517020,N,12137.004928,E,1,19,0.8,21.4,M,,M,,*74
$GPRMC,053908.000,A,3115.517020,N,12137.004928,E,4.9,-26.291508309,200122,,E,A*30
$GPGGA,053909.000,3115.519320,N,12137.003230,E,1,19,0.8,22.4,M,,M,,*7E
$GPRMC,053909.000,A,3115.519320,N,12137.003230,E,5.8,-26.971828851999998,200122,,E,A*34
$GPGGA,053910.000,3115.523422,N,12137.001301,E,1,19,0.8,24.5,M,,M,,*7C
$GPRMC,053910.000,A,3115.523422,N,12137.001301,E,8.1,-23.961850645,200122,,E,A*34
$GPGGA,053911.000,3115.522536,N,12137.000413,E,1,19,0.8,25.4,M,,M,,*7D
$GPRMC,053911.000,A,3115.522536,N,12137.000413,E,4.3,-45.777621303000004,200122,,E,A*39
$GPGGA,053912.000,3115.519679,N,12137.000062,E,1,19,0.8,26.0,M,,M,,*7B
$GPRMC,053912.000,A,3115.519679,N,12137.000062,E,6.0,-153.739804356,200122,,E,A*08
$GPGGA,053913.000,3115.516967,N,12136.999834,E,1,19,0.8,26.3,M,,M,,*75
$GPRMC,053913.000,A,3115.516967,N,12136.999834,E,4.0,-145.371276193,200122,,E,A*0C
$GPGGA,053914.000,3115.515189,N,12136.999567,E,1,19,0.8,26.3,M,,M,,*72
$GPRMC,053914.000,A,3115.515189,N,12136.999567,E,3.2,-140.382885394,200122,,E,A*04
