$GPGGA,085113.000,3114.482133,N,12130.004884,E,1,19,0.8,22.4,M,,M,,*71
$GPRMC,085113.000,A,3114.482133,N,12130.004884,E,2.9,-42.23863522,200122,,E,A*06
$GPGGA,085114.000,3114.483141,N,12130.004039,E,1,19,0.8,19.8,M,,M,,*78
$GPRMC,085114.000,A,3114.483141,N,12130.004039,E,2.1,296.110915752,200122,,E,A*21
$GPGGA,085115.000,3114.483564,N,12130.003718,E,1,19,0.8,18.5,M,,M,,*75
$GPRMC,085115.000,A,3114.483564,N,12130.003718,E,2.1,300.377051957,200122,,E,A*2F
$GPGGA,085116.000,3114.484089,N,12130.003085,E,1,19,0.8,16.3,M,,M,,*7C
$GPRMC,085116.000,A,3114.484089,N,12130.003085,E,2.1,302.052196852,200122,,E,A*26
$GPGGA,085117.000,3114.485296,N,12130.002160,E,1,19,0.8,13.3,M,,M,,*7E
$GPRMC,085117.000,A,3114.485296,N,12130.002160,E,2.7,307.227813737,200122,,E,A*2A
$GPGGA,085118.000,3114.485825,N,12130.001201,E,1,19,0.8,13.4,M,,M,,*73
$GPRMC,085118.000,A,3114.485825,N,12130.001201,E,3.2,-46.028765148000005,200122,,E,A*37
$GPGGA,085119.000,3114.486100,N,12130.000320,E,1,19,0.8,13.9,M,,M,,*71
$GPRMC,085119.000,A,3114.486100,N,12130.000320,E,3.1,-48.93487201600001,200122,,E,A*06
$GPGGA,085120.000,3114.486558,N,12129.999255,E,1,19,0.8,14.4,M,,M,,*7A
$GPRMC,085120.000,A,3114.486558,N,12129.999255,E,3.1,-49.535040333000005,200122,,E,A*32
$GPGGA,085121.000,3114.486924,N,12129.998426,E,1,19,0.8,14.6,M,,M,,*7D
$GPRMC,085121.000,A,3114.486924,N,12129.998426,E,2.7,312.909684249,200122,,E,A*24
$GPGGA,085122.000,3114.487360,N,12129.997981,E,1,19,0.8,14.3,M,,M,,*7F
$GPRMC,085122.000,A,3114.487360,N,12129.997981,E,2.5,312.96429844200003,200122,,E,A*1D
$GPGGA,085123.000,3114.487767,N,12129.997454,E,1,19,0.8,14.3,M,,M,,*78
$GPRMC,085123.000,A,3114.487767,N,12129.997454,E,2.4,309.40057889900004,200122,,E,A*1A
$GPGGA,085124.000,3114.488176,N,12129.996849,E,1,19,0.8,14.4,M,,M,,*70
$GPRMC,085124.000,A,3114.488176,N,12129.996849,E,2.4,308.472274218,200122,,E,A*2D
$GPGGA,085125.000,3114.489081,N,12129.996544,E,1,19,0.8,14.4,M,,M,,*79
$GPRMC,085125.000,A,3114.489081,N,12129.996544,E,2.6,315.337707244,200122,,E,A*24
$GPGGA,085126.000,3114.489462,N,12129.995940,E,1,19,0.8,14.2,M,,M,,*7E
$GPRMC,085126.000,A,3114.489462,N,12129.995940,E,2.5,313.2911913,200122,,E,A*25
$GPGGA,085127.000,3114.490017,N,12129.995300,E,1,19,0.8,14.3,M,,M,,*7E
$GPRMC,085127.000,A,3114.490017,N,12129.995300,E,2.6,311.637383916,200122,,E,A*21
$GPGGA,085128.000,3114.490272,N,12129.994947,E,1,19,0.8,14.5,M,,M,,*7E
$GPRMC,085128.000,A,3114.490272,N,12129.994947,E,2.2,312.106399352,200122,,E,A*24
$GPGGA,085129.000,3114.490933,N,12129.994768,E,1,19,0.8,14.7,M,,M,,*70
$GPRMC,085129.000,A,3114.490933,N,12129.994768,E,2.2,309.33164863,200122,,E,A*1C
$GPGGA,085130.000,3114.491410,N,12129.994318,E,1,19,0.8,15.1,M,,M,,*71
$GPRMC,085130.000,A,3114.491410,N,12129.994318,E,2.2,309.792413196,200122,,E,A*20
$GPGGA,085131.000,3114.491869,N,12129.993894,E,1,19,0.8,15.0,M,,M,,*7B
$GPRMC,085131.000,A,3114.491869,N,12129.993894,E,2.2,310.237768856,200122,,E,A*23
$GPGGA,085132.000,3114.492378,N,12129.993432,E,1,19,0.8,15.0,M,,M,,*70
$GPRMC,085132.000,A,3114.492378,N,12129.993432,E,2.2,308.92489719900004,200122,,E,A*19
$GPGGA,085133.000,3114.492927,N,12129.992982,E,1,19,0.8,14.8,M,,M,,*7F
$GPRMC,085133.000,A,3114.492927,N,12129.992982,E,2.3,307.60656139099996,200122,,E,A*13
$GPGGA,085134.000,3114.493491,N,12129.992532,E,1,19,0.8,14.9,M,,M,,*7F
$GPRMC,085134.000,A,3114.493491,N,12129.992532,E,2.4,309.61982797400003,200122,,E,A*1F
$GPGGA,085135.000,3114.494359,N,12129.992183,E,1,19,0.8,14.8,M,,M,,*75
$GPRMC,085135.000,A,3114.494359,N,12129.992183,E,2.5,311.23101497700003,200122,,E,A*19
$GPGGA,085136.000,3114.494793,N,12129.991871,E,1,19,0.8,14.7,M,,M,,*7C
$GPRMC,085136.000,A,3114.494793,N,12129.991871,E,2.4,312.887636398,200122,,E,A*24
$GPGGA,085137.000,3114.495402,N,12129.991551,E,1,19,0.8,14.8,M,,M,,*77
$GPRMC,085137.000,A,3114.495402,N,12129.991551,E,2.4,314.558109443,200122,,E,A*23
$GPGGA,085138.000,3114.495958,N,12129.990788,E,1,19,0.8,15.1,M,,M,,*75
$GPRMC,085138.000,A,3114.495958,N,12129.990788,E,2.4,313.746054583,200122,,E,A*27
$GPGGA,085139.000,3114.496734,N,12129.990288,E,1,19,0.8,15.1,M,,M,,*76
$GPRMC,085139.000,A,3114.496734,N,12129.990288,E,2.4,313.487982713,200122,,E,A*23
$GPGGA,085140.000,3114.497787,N,12129.989697,E,1,19,0.8,15.1,M,,M,,*73
$GPRMC,085140.000,A,3114.497787,N,12129.989697,E,2.8,313.743240545,200122,,E,A*25
$GPGGA,085141.000,3114.497578,N,12129.988949,E,1,19,0.8,14.5,M,,M,,*78
$GPRMC,085141.000,A,3114.497578,N,12129.988949,E,2.4,310.54168495700003,200122,,E,A*14
$GPGGA,085142.000,3114.497921,N,12129.988273,E,1,19,0.8,14.5,M,,M,,*79
$GPRMC,085142.000,A,3114.497921,N,12129.988273,E,2.3,309.577316876,200122,,E,A*20
$GPGGA,085143.000,3114.499193,N,12129.987285,E,1,19,0.8,15.3,M,,M,,*76
$GPRMC,085143.000,A,3114.499193,N,12129.987285,E,2.8,313.35372851299996,200122,,E,A*18
$GPGGA,085144.000,3114.499640,N,12129.986633,E,1,19,0.8,15.2,M,,M,,*71
$GPRMC,085144.000,A,3114.499640,N,12129.986633,E,2.7,314.285093119,200122,,E,A*22
$GPGGA,085145.000,3114.500895,N,12129.986783,E,1,19,0.8,15.3,M,,M,,*7C
$GPRMC,085145.000,A,3114.500895,N,12129.986783,E,2.9,316.322156081,200122,,E,A*26
$GPGGA,085146.000,3114.501238,N,12129.985327,E,1,19,0.8,16.4,M,,M,,*7E
$GPRMC,085146.000,A,3114.501238,N,12129.985327,E,3.1,-27.835578488000003,200122,,E,A*3E
$GPGGA,085147.000,3114.502246,N,12129.984822,E,1,19,0.8,16.4,M,,M,,*7A
$GPRMC,085147.000,A,3114.502246,N,12129.984822,E,3.3,-26.543947200999998,200122,,E,A*31
$GPGGA,085148.000,3114.503241,N,12129.984214,E,1,19,0.8,16.4,M,,M,,*7C
$GPRMC,085148.000,A,3114.503241,N,12129.984214,E,3.5,-26.655671536,200122,,E,A*3C
$GPGGA,085149.000,3114.504156,N,12129.983711,E,1,19,0.8,16.3,M,,M,,*7F
$GPRMC,085149.000,A,3114.504156,N,12129.983711,E,3.5,-26.407852828000003,200122,,E,A*33
$GPGGA,085150.000,3114.505599,N,12129.983487,E,1,19,0.8,16.8,M,,M,,*76
$GPRMC,085150.000,A,3114.505599,N,12129.983487,E,3.5,-25.551426056,200122,,E,A*3D
$GPGGA,085151.000,3114.506569,N,12129.983649,E,1,19,0.8,19.1,M,,M,,*7D
$GPRMC,085151.000,A,3114.506569,N,12129.983649,E,3.3,-25.260213934,200122,,E,A*3E
$GPGGA,085152.000,3114.508334,N,12129.983412,E,1,19,0.8,19.2,M,,M,,*71
$GPRMC,085152.000,A,3114.508334,N,12129.983412,E,3.5,-23.295626047,200122,,E,A*34
$GPGGA,085153.000,3114.509797,N,12129.983845,E,1,19,0.8,19.5,M,,M,,*75
$GPRMC,085153.000,A,3114.509797,N,12129.983845,E,3.5,-22.232481154000002,200122,,E,A*35
$GPGGA,085154.000,3114.512769,N,12129.984332,E,1,19,0.8,21.6,M,,M,,*7D
$GPRMC,085154.000,A,3114.512769,N,12129.984332,E,3.7,-22.304384336,200122,,E,A*35
$GPGGA,085155.000,3114.512879,N,12129.983606,E,1,19,0.8,21.4,M,,M,,*75
$GPRMC,085155.000,A,3114.512879,N,12129.983606,E,3.5,-25.038802406,200122,,E,A*37
$GPGGA,085156.000,3114.510636,N,12129.981979,E,1,19,0.8,20.1,M,,M,,*70
$GPRMC,085156.000,A,3114.510636,N,12129.981979,E,2.8,319.289518141,200122,,E,A*23
$GPGGA,085157.000,3114.510296,N,12129.981042,E,1,19,0.8,19.9,M,,M,,*7C
$GPRMC,085157.000,A,3114.510296,N,12129.981042,E,2.2,330.044552699,200122,,E,A*23
$GPGGA,085158.000,3114.510405,N,12129.980345,E,1,19,0.8,19.8,M,,M,,*7B
$GPRMC,085158.000,A,3114.510405,N,12129.980345,E,2.2,316.162411615,200122,,E,A*26
$GPGGA,085159.000,3114.510732,N,12129.979908,E,1,19,0.8,19.8,M,,M,,*78
$GPRMC,085159.000,A,3114.510732,N,12129.979908,E,2.2,303.128060942,200122,,E,A*20
$GPGGA,085200.000,3114.510896,N,12129.979271,E,1,19,0.8,19.3,M,,M,,*78
$GPRMC,085200.000,A,3114.510896,N,12129.979271,E,2.2,314.323369499,200122,,E,A*25
$GPGGA,085201.000,3114.510887,N,12129.979513,E,1,19,0.8,18.9,M,,M,,*71
$GPRMC,085201.000,A,3114.510887,N,12129.979513,E,1.8,310.324812788,200122,,E,A*29
$GPGGA,085202.000,3114.510528,N,12129.979160,E,1,19,0.8,17.4,M,,M,,*78
$GPRMC,085202.000,A,3114.510528,N,12129.979160,E,1.4,303.804632168,200122,,E,A*21
$GPGGA,085203.000,3114.510334,N,12129.979008,E,1,19,0.8,17.4,M,,M,,*7D
$GPRMC,085203.000,A,3114.510334,N,12129.979008,E,1.2,306.268499996,200122,,E,A*2D
$GPGGA,085204.000,3114.510521,N,12129.979442,E,1,19,0.8,16.5,M,,M,,*72
$GPRMC,085204.000,A,3114.510521,N,12129.979442,E,0.8,313.444242181,200122,,E,A*2B
$GPGGA,085205.000,3114.510519,N,12129.979432,E,1,19,0.8,16.7,M,,M,,*7D
$GPRMC,085205.000,A,3114.510519,N,12129.979432,E,0.6,322.97508826,200122,,E,A*1D
$GPGGA,085206.000,3114.510904,N,12129.979426,E,1,19,0.8,17.1,M,,M,,*7C
$GPRMC,085206.000,A,3114.510904,N,12129.979426,E,0.5,327.56836320900004,200122,,E,A*10
$GPGGA,085207.000,3114.511072,N,12129.979408,E,1,19,0.8,17.3,M,,M,,*7A
$GPRMC,085207.000,A,3114.511072,N,12129.979408,E,0.3,328.522704572,200122,,E,A*29
$GPGGA,085208.000,3114.511316,N,12129.979147,E,1,19,0.8,17.5,M,,M,,*7C
$GPRMC,085208.000,A,3114.511316,N,12129.979147,E,0.4,328.422819885,200122,,E,A*29
$GPGGA,085209.000,3114.511440,N,12129.978980,E,1,19,0.8,17.6,M,,M,,*78
$GPRMC,085209.000,A,3114.511440,N,12129.978980,E,0.4,326.106511465,200122,,E,A*24
$GPGGA,085210.000,3114.511832,N,12129.978600,E,1,19,0.8,17.8,M,,M,,*70
$GPRMC,085210.000,A,3114.511832,N,12129.978600,E,0.6,323.368561802,200122,,E,A*25
$GPGGA,085211.000,3114.512075,N,12129.978431,E,1,19,0.8,17.8,M,,M,,*79
$GPRMC,085211.000,A,3114.512075,N,12129.978431,E,0.6,322.07738282599996,200122,,E,A*18
$GPGGA,085212.000,3114.512583,N,12129.978078,E,1,19,0.8,17.9,M,,M,,*7E
$GPRMC,085212.000,A,3114.512583,N,12129.978078,E,0.8,324.42571117299997,200122,,E,A*11
$GPGGA,085213.000,3114.513149,N,12129.977457,E,1,19,0.8,18.1,M,,M,,*7D
$GPRMC,085213.000,A,3114.513149,N,12129.977457,E,1.0,320.389369855,200122,,E,A*29
$GPGGA,085214.000,3114.513776,N,12129.976776,E,1,19,0.8,18.4,M,,M,,*74
$GPRMC,085214.000,A,3114.513776,N,12129.976776,E,1.3,319.865958792,200122,,E,A*29
$GPGGA,085215.000,3114.514083,N,12129.976392,E,1,19,0.8,18.5,M,,M,,*70
$GPRMC,085215.000,A,3114.514083,N,12129.976392,E,1.3,323.595105519,200122,,E,A*26
$GPGGA,085216.000,3114.514499,N,12129.976190,E,1,19,0.8,18.5,M,,M,,*7C
$GPRMC,085216.000,A,3114.514499,N,12129.976190,E,1.3,326.346114504,200122,,E,A*2B
$GPGGA,085217.000,3114.514942,N,12129.975792,E,1,19,0.8,18.7,M,,M,,*73
$GPRMC,085217.000,A,3114.514942,N,12129.975792,E,1.3,326.634430452,200122,,E,A*27
$GPGGA,085218.000,3114.516136,N,12129.974817,E,1,19,0.8,19.7,M,,M,,*77
$GPRMC,085218.000,A,3114.516136,N,12129.974817,E,1.7,326.283085517,200122,,E,A*24
$GPGGA,085219.000,3114.516953,N,12129.973953,E,1,19,0.8,18.4,M,,M,,*79
$GPRMC,085219.000,A,3114.516953,N,12129.973953,E,1.9,325.43504922,200122,,E,A*1D
$GPGGA,085220.000,3114.517723,N,12129.973373,E,1,19,0.8,18.3,M,,M,,*74
$GPRMC,085220.000,A,3114.517723,N,12129.973373,E,2.0,327.255567862,200122,,E,A*2A
$GPGGA,085221.000,3114.518964,N,12129.973123,E,1,19,0.8,18.0,M,,M,,*73
$GPRMC,085221.000,A,3114.518964,N,12129.973123,E,2.2,328.119450199,200122,,E,A*20
$GPGGA,085222.000,3114.520190,N,12129.972652,E,1,19,0.8,18.3,M,,M,,*7B
$GPRMC,085222.000,A,3114.520190,N,12129.972652,E,2.4,327.336601228,200122,,E,A*22
$GPGGA,085223.000,3114.521021,N,12129.972201,E,1,19,0.8,18.3,M,,M,,*72
$GPRMC,085223.000,A,3114.521021,N,12129.972201,E,2.4,327.94623659900003,200122,,E,A*18
$GPGGA,085224.000,3114.522458,N,12129.972011,E,1,19,0.8,18.2,M,,M,,*7E
$GPRMC,085224.000,A,3114.522458,N,12129.972011,E,2.7,327.773542094,200122,,E,A*21
$GPGGA,085225.000,3114.523342,N,12129.971542,E,1,19,0.8,18.9,M,,M,,*79
$GPRMC,085225.000,A,3114.523342,N,12129.971542,E,2.8,325.341284382,200122,,E,A*2C
$GPGGA,085226.000,3114.524270,N,12129.970881,E,1,19,0.8,19.3,M,,M,,*75
$GPRMC,085226.000,A,3114.524270,N,12129.970881,E,2.9,325.12356526900004,200122,,E,A*14
$GPGGA,085227.000,3114.525056,N,12129.970238,E,1,19,0.8,19.5,M,,M,,*7D
$GPRMC,085227.000,A,3114.525056,N,12129.970238,E,2.9,-27.536068525,200122,,E,A*35
$GPGGA,085228.000,3114.525690,N,12129.969737,E,1,19,0.8,19.7,M,,M,,*7E
$GPRMC,085228.000,A,3114.525690,N,12129.969737,E,2.9,331.059737388,200122,,E,A*2D
$GPGGA,085229.000,3114.526125,N,12129.969379,E,1,19,0.8,19.6,M,,M,,*7A
$GPRMC,085229.000,A,3114.526125,N,12129.969379,E,2.8,331.72568084,200122,,E,A*17
$GPGGA,085230.000,3114.527769,N,12129.969594,E,1,19,0.8,20.9,M,,M,,*7D
$GPRMC,085230.000,A,3114.527769,N,12129.969594,E,3.0,-20.330797468,200122,,E,A*33
$GPGGA,085231.000,3114.530290,N,12129.970248,E,1,19,0.8,22.9,M,,M,,*75
$GPRMC,085231.000,A,3114.530290,N,12129.970248,E,3.6,-9.077889862000001,200122,,E,A*03
$GPGGA,085232.000,3114.531877,N,12129.970333,E,1,19,0.8,23.7,M,,M,,*76
$GPRMC,085232.000,A,3114.531877,N,12129.970333,E,3.8,-6.287248419,200122,,E,A*05
$GPGGA,085233.000,3114.532605,N,12129.970410,E,1,19,0.8,24.4,M,,M,,*7D
$GPRMC,085233.000,A,3114.532605,N,12129.970410,E,3.5,-4.9167709330000005,200122,,E,A*38
$GPGGA,085234.000,3114.532669,N,12129.970424,E,1,19,0.8,25.1,M,,M,,*73
$GPRMC,085234.000,A,3114.532669,N,12129.970424,E,2.9,56.538489778999995,200122,,E,A*18
$GPGGA,085235.000,3114.531554,N,12129.969430,E,1,19,0.8,27.1,M,,M,,*73
$GPRMC,085235.000,A,3114.531554,N,12129.969430,E,1.6,56.777580554,200122,,E,A*17
$GPGGA,085236.000,3114.530989,N,12129.969217,E,1,19,0.8,28.0,M,,M,,*70
$GPRMC,085236.000,A,3114.530989,N,12129.969217,E,0.9,66.702111911,200122,,E,A*14
$GPGGA,085237.000,3114.528999,N,12129.969532,E,1,19,0.8,28.8,M,,M,,*71
$GPRMC,085237.000,A,3114.528999,N,12129.969532,E,1.4,55.847698099,200122,,E,A*10
$GPGGA,085238.000,3114.526795,N,12129.971113,E,1,19,0.8,29.3,M,,M,,*76
$GPRMC,085238.000,A,3114.526795,N,12129.971113,E,2.6,106.94595580100001,200122,,E,A*1E
$GPGGA,085239.000,3114.524758,N,12129.972322,E,1,19,0.8,30.0,M,,M,,*7C
$GPRMC,085239.000,A,3114.524758,N,12129.972322,E,3.6,169.163971764,200122,,E,A*20
$GPGGA,085240.000,3114.524039,N,12129.972593,E,1,19,0.8,30.0,M,,M,,*7E
$GPRMC,085240.000,A,3114.524039,N,12129.972593,E,3.1,166.537277937,200122,,E,A*2A
$GPGGA,085241.000,3114.523440,N,12129.972858,E,1,19,0.8,30.0,M,,M,,*78
$GPRMC,085241.000,A,3114.523440,N,12129.972858,E,2.8,346.791985494,200122,,E,A*28
$GPGGA,085242.000,3114.523896,N,12129.972918,E,1,19,0.8,30.0,M,,M,,*79
$GPRMC,085242.000,A,3114.523896,N,12129.972918,E,1.7,261.607832266,200122,,E,A*29
$GPGGA,085243.000,3114.523009,N,12129.972483,E,1,19,0.8,30.5,M,,M,,*7C
$GPRMC,085243.000,A,3114.523009,N,12129.972483,E,1.1,265.883038963,200122,,E,A*25
$GPGGA,085244.000,3114.522805,N,12129.972681,E,1,19,0.8,30.5,M,,M,,*7E
$GPRMC,085244.000,A,3114.522805,N,12129.972681,E,1.0,270.597536111,200122,,E,A*2C
$GPGGA,085245.000,3114.522263,N,12129.972681,E,1,19,0.8,30.5,M,,M,,*75
$GPRMC,085245.000,A,3114.522263,N,12129.972681,E,1.3,238.21888736900002,200122,,E,A*10
$GPGGA,085246.000,3114.525020,N,12129.964289,E,1,19,0.8,34.6,M,,M,,*78
$GPRMC,085246.000,A,3114.525020,N,12129.964289,E,1.7,238.55444090700001,200122,,E,A*17
$GPGGA,085247.000,3114.525086,N,12129.963730,E,1,19,0.8,34.6,M,,M,,*75
$GPRMC,085247.000,A,3114.525086,N,12129.963730,E,1.8,275.56849320599997,200122,,E,A*12
$GPGGA,085248.000,3114.525060,N,12129.963147,E,1,19,0.8,34.6,M,,M,,*74
$GPRMC,085248.000,A,3114.525060,N,12129.963147,E,1.8,318.135380082,200122,,E,A*2A
$GPGGA,085249.000,3114.525102,N,12129.962601,E,1,19,0.8,34.6,M,,M,,*74
$GPRMC,085249.000,A,3114.525102,N,12129.962601,E,1.8,275.592043698,200122,,E,A*28
$GPGGA,085250.000,3114.521040,N,12129.963769,E,1,19,0.8,35.2,M,,M,,*74
$GPRMC,085250.000,A,3114.521040,N,12129.963769,E,2.6,297.559380325,200122,,E,A*24
$GPGGA,085251.000,3114.520618,N,12129.963187,E,1,19,0.8,35.2,M,,M,,*79
$GPRMC,085251.000,A,3114.520618,N,12129.963187,E,2.4,295.926282076,200122,,E,A*2B
$GPGGA,085252.000,3114.520611,N,12129.962696,E,1,19,0.8,35.2,M,,M,,*75
$GPRMC,085252.000,A,3114.520611,N,12129.962696,E,1.9,300.118433671,200122,,E,A*2C
$GPGGA,085253.000,3114.522626,N,12129.962776,E,1,19,0.8,36.2,M,,M,,*7E
$GPRMC,085253.000,A,3114.522626,N,12129.962776,E,1.6,296.848494228,200122,,E,A*2C
$GPGGA,085254.000,3114.522847,N,12129.962338,E,1,19,0.8,36.3,M,,M,,*7F
$GPRMC,085254.000,A,3114.522847,N,12129.962338,E,1.6,291.032096309,200122,,E,A*2A
$GPGGA,085255.000,3114.524720,N,12129.958136,E,1,19,0.8,37.6,M,,M,,*77
$GPRMC,085255.000,A,3114.524720,N,12129.958136,E,2.8,282.128234282,200122,,E,A*2B
$GPGGA,085256.000,3114.525564,N,12129.954049,E,1,19,0.8,39.4,M,,M,,*7E
$GPRMC,085256.000,A,3114.525564,N,12129.954049,E,3.7,-66.379462312,200122,,E,A*3E
$GPGGA,085257.000,3114.524836,N,12129.951426,E,1,19,0.8,40.9,M,,M,,*7F
$GPRMC,085257.000,A,3114.524836,N,12129.951426,E,3.9,-84.168300289,200122,,E,A*3C
$GPGGA,085258.000,3114.524921,N,12129.948706,E,1,19,0.8,41.6,M,,M,,*70
$GPRMC,085258.000,A,3114.524921,N,12129.948706,E,4.1,-85.36842253100001,200122,,E,A*03
$GPGGA,085259.000,3114.525717,N,12129.945445,E,1,19,0.8,43.2,M,,M,,*74
$GPRMC,085259.000,A,3114.525717,N,12129.945445,E,4.5,-77.441085425,200122,,E,A*38
$GPGGA,085300.000,3114.525746,N,12129.942723,E,1,19,0.8,44.3,M,,M,,*7F
$GPRMC,085300.000,A,3114.525746,N,12129.942723,E,4.8,-81.56839149300001,200122,,E,A*01
$GPGGA,085301.000,3114.525487,N,12129.939557,E,1,19,0.8,46.6,M,,M,,*7A
$GPRMC,085301.000,A,3114.525487,N,12129.939557,E,5.3,-85.40691858699999,200122,,E,A*02
$GPGGA,085302.000,3114.524487,N,12129.938805,E,1,19,0.8,47.6,M,,M,,*72
$GPRMC,085302.000,A,3114.524487,N,12129.938805,E,3.7,-103.279700355,200122,,E,A*0E
$GPGGA,085303.000,3114.524039,N,12129.937775,E,1,19,0.8,47.6,M,,M,,*75
$GPRMC,085303.000,A,3114.524039,N,12129.937775,E,3.2,-113.156822741,200122,,E,A*0D
$GPGGA,085304.000,3114.523686,N,12129.936696,E,1,19,0.8,48.1,M,,M,,*72
$GPRMC,085304.000,A,3114.523686,N,12129.936696,E,2.8,247.041661389,200122,,E,A*28
$GPGGA,085305.000,3114.523510,N,12129.935819,E,1,19,0.8,48.3,M,,M,,*77
$GPRMC,085305.000,A,3114.523510,N,12129.935819,E,2.4,265.81184107,200122,,E,A*17
$GPGGA,085306.000,3114.522940,N,12129.935130,E,1,19,0.8,48.3,M,,M,,*7E
$GPRMC,085306.000,A,3114.522940,N,12129.935130,E,2.6,236.943281225,200122,,E,A*28
$GPGGA,085307.000,3114.522445,N,12129.933890,E,1,19,0.8,48.3,M,,M,,*72
$GPRMC,085307.000,A,3114.522445,N,12129.933890,E,3.1,-116.11293890700001,200122,,E,A*31
$GPGGA,085308.000,3114.522032,N,12129.932989,E,1,19,0.8,48.4,M,,M,,*76
$GPRMC,085308.000,A,3114.522032,N,12129.932989,E,3.0,-114.356457816,200122,,E,A*07
$GPGGA,085309.000,3114.521577,N,12129.932687,E,1,19,0.8,48.1,M,,M,,*74
$GPRMC,085309.000,A,3114.521577,N,12129.932687,E,2.9,238.82988877900002,200122,,E,A*11
$GPGGA,085310.000,3114.521007,N,12129.931232,E,1,19,0.8,48.1,M,,M,,*77
$GPRMC,085310.000,A,3114.521007,N,12129.931232,E,3.3,-117.475992728,200122,,E,A*03
$GPGGA,085311.000,3114.517427,N,12129.927174,E,1,19,0.8,53.0,M,,M,,*78
$GPRMC,085311.000,A,3114.517427,N,12129.927174,E,4.5,-124.221390931,200122,,E,A*0F
$GPGGA,085312.000,3114.516012,N,12129.926707,E,1,19,0.8,53.7,M,,M,,*7C
$GPRMC,085312.000,A,3114.516012,N,12129.926707,E,4.9,-134.77802772799998,200122,,E,A*36
$GPGGA,085313.000,3114.515280,N,12129.925071,E,1,19,0.8,53.6,M,,M,,*73
$GPRMC,085313.000,A,3114.515280,N,12129.925071,E,4.9,-125.072917935,200122,,E,A*0A
$GPGGA,085314.000,3114.514262,N,12129.924517,E,1,19,0.8,53.3,M,,M,,*78
$GPRMC,085314.000,A,3114.514262,N,12129.924517,E,4.6,-138.42421137600002,200122,,E,A*32
$GPGGA,085315.000,3114.512561,N,12129.926481,E,1,19,0.8,52.4,M,,M,,*71
$GPRMC,085315.000,A,3114.512561,N,12129.926481,E,4.1,-141.459236605,200122,,E,A*08
$GPGGA,085316.000,3114.510617,N,12129.931951,E,1,19,0.8,51.6,M,,M,,*75
$GPRMC,085316.000,A,3114.510617,N,12129.931951,E,3.1,-145.546065761,200122,,E,A*06
$GPGGA,085317.000,3114.510126,N,12129.932717,E,1,19,0.8,50.2,M,,M,,*7B
$GPRMC,085317.000,A,3114.510126,N,12129.932717,E,2.7,234.555884195,200122,,E,A*2A
$GPGGA,085318.000,3114.509122,N,12129.934679,E,1,19,0.8,47.2,M,,M,,*71
$GPRMC,085318.000,A,3114.509122,N,12129.934679,E,3.0,-156.369477241,200122,,E,A*09
$GPGGA,085319.000,3114.508534,N,12129.935980,E,1,19,0.8,44.7,M,,M,,*7C
$GPRMC,085319.000,A,3114.508534,N,12129.935980,E,3.0,-162.11130772,200122,,E,A*3A
$GPGGA,085320.000,3114.507589,N,12129.936318,E,1,19,0.8,44.0,M,,M,,*70
$GPRMC,085320.000,A,3114.507589,N,12129.936318,E,3.1,-167.506776409,200122,,E,A*0D
$GPGGA,085321.000,3114.506083,N,12129.937274,E,1,19,0.8,43.6,M,,M,,*74
$GPRMC,085321.000,A,3114.506083,N,12129.937274,E,3.5,-178.749474327,200122,,E,A*01
$GPGGA,085322.000,3114.504591,N,12129.937659,E,1,19,0.8,43.1,M,,M,,*7F
$GPRMC,085322.000,A,3114.504591,N,12129.937659,E,3.9,-178.842758753,200122,,E,A*0F
$GPGGA,085323.000,3114.503789,N,12129.938663,E,1,19,0.8,42.2,M,,M,,*76
$GPRMC,085323.000,A,3114.503789,N,12129.938663,E,3.5,171.26274145600001,200122,,E,A*1B
$GPGGA,085324.000,3114.503575,N,12129.939245,E,1,19,0.8,41.7,M,,M,,*77
$GPRMC,085324.000,A,3114.503575,N,12129.939245,E,2.2,225.248480927,200122,,E,A*24
$GPGGA,085325.000,3114.502932,N,12129.939544,E,1,19,0.8,41.8,M,,M,,*71
$GPRMC,085325.000,A,3114.502932,N,12129.939544,E,2.7,220.301757344,200122,,E,A*27
$GPGGA,085326.000,3114.502442,N,12129.939682,E,1,19,0.8,41.7,M,,M,,*7E
$GPRMC,085326.000,A,3114.502442,N,12129.939682,E,2.2,234.349175348,200122,,E,A*21
$GPGGA,085327.000,3114.501677,N,12129.939096,E,1,19,0.8,40.9,M,,M,,*74
$GPRMC,085327.000,A,3114.501677,N,12129.939096,E,2.2,232.559173991,200122,,E,A*2D
$GPGGA,085328.000,3114.501150,N,12129.938733,E,1,19,0.8,40.8,M,,M,,*71
$GPRMC,085328.000,A,3114.501150,N,12129.938733,E,2.1,231.89593529400003,200122,,E,A*13
$GPGGA,085329.000,3114.500892,N,12129.938168,E,1,19,0.8,39.7,M,,M,,*7F
$GPRMC,085329.000,A,3114.500892,N,12129.938168,E,2.0,237.382790243,200122,,E,A*2E
$GPGGA,085330.000,3114.500772,N,12129.937266,E,1,19,0.8,39.5,M,,M,,*76
$GPRMC,085330.000,A,3114.500772,N,12129.937266,E,2.1,240.732397013,200122,,E,A*2F
$GPGGA,085331.000,3114.500696,N,12129.936436,E,1,19,0.8,39.8,M,,M,,*73
$GPRMC,085331.000,A,3114.500696,N,12129.936436,E,2.1,234.359830443,200122,,E,A*2A
$GPGGA,085332.000,3114.500799,N,12129.936076,E,1,19,0.8,39.6,M,,M,,*70
$GPRMC,085332.000,A,3114.500799,N,12129.936076,E,1.8,224.19523842400002,200122,,E,A*1F
$GPGGA,085333.000,3114.500162,N,12129.934386,E,1,19,0.8,39.8,M,,M,,*73
$GPRMC,085333.000,A,3114.500162,N,12129.934386,E,2.5,218.50140142,200122,,E,A*10
$GPGGA,085334.000,3114.499742,N,12129.933581,E,1,19,0.8,39.7,M,,M,,*78
$GPRMC,085334.000,A,3114.499742,N,12129.933581,E,2.6,212.88807868700002,200122,,E,A*16
$GPGGA,085335.000,3114.499207,N,12129.932706,E,1,19,0.8,39.7,M,,M,,*71
$GPRMC,085335.000,A,3114.499207,N,12129.932706,E,2.8,198.926352238,200122,,E,A*2C
$GPGGA,085336.000,3114.498405,N,12129.931168,E,1,19,0.8,39.6,M,,M,,*7B
$GPRMC,085336.000,A,3114.498405,N,12129.931168,E,3.5,-121.362169167,200122,,E,A*0D
$GPGGA,085337.000,3114.497785,N,12129.930038,E,1,19,0.8,39.4,M,,M,,*79
$GPRMC,085337.000,A,3114.497785,N,12129.930038,E,3.7,-121.531519921,200122,,E,A*06
$GPGGA,085338.000,3114.496895,N,12129.928834,E,1,19,0.8,39.3,M,,M,,*73
$GPRMC,085338.000,A,3114.496895,N,12129.928834,E,4.1,-123.68649486,200122,,E,A*37
$GPGGA,085339.000,3114.495817,N,12129.928157,E,1,19,0.8,39.1,M,,M,,*75
$GPRMC,085339.000,A,3114.495817,N,12129.928157,E,4.2,-129.105614509,200122,,E,A*0E
$GPGGA,085340.000,3114.494937,N,12129.927186,E,1,19,0.8,39.0,M,,M,,*7B
$GPRMC,085340.000,A,3114.494937,N,12129.927186,E,4.3,-130.785193606,200122,,E,A*02
$GPGGA,085341.000,3114.494015,N,12129.925642,E,1,19,0.8,39.0,M,,M,,*7E
$GPRMC,085341.000,A,3114.494015,N,12129.925642,E,4.6,-130.777820082,200122,,E,A*04
$GPGGA,085342.000,3114.493100,N,12129.924569,E,1,19,0.8,38.8,M,,M,,*7D
$GPRMC,085342.000,A,3114.493100,N,12129.924569,E,4.7,-131.4138761,200122,,E,A*07
$GPGGA,085343.000,3114.492599,N,12129.922364,E,1,19,0.8,38.8,M,,M,,*74
$GPRMC,085343.000,A,3114.492599,N,12129.922364,E,5.0,-127.086032014,200122,,E,A*0B
$GPGGA,085344.000,3114.491076,N,12129.922331,E,1,19,0.8,38.6,M,,M,,*7A
$GPRMC,085344.000,A,3114.491076,N,12129.922331,E,4.8,-134.412950019,200122,,E,A*09
$GPGGA,085345.000,3114.490149,N,12129.921568,E,1,19,0.8,38.3,M,,M,,*7B
$GPRMC,085345.000,A,3114.490149,N,12129.921568,E,4.4,-136.457263449,200122,,E,A*08
$GPGGA,085346.000,3114.488995,N,12129.921546,E,1,19,0.8,38.2,M,,M,,*75
$GPRMC,085346.000,A,3114.488995,N,12129.921546,E,4.0,-144.429657253,200122,,E,A*01
$GPGGA,085347.000,3114.488255,N,12129.920797,E,1,19,0.8,38.1,M,,M,,*7F
$GPRMC,085347.000,A,3114.488255,N,12129.920797,E,3.9,-144.530829161,200122,,E,A*0A
$GPGGA,085348.000,3114.487150,N,12129.920908,E,1,19,0.8,38.1,M,,M,,*71
$GPRMC,085348.000,A,3114.487150,N,12129.920908,E,3.6,-154.09478395600001,200122,,E,A*33
$GPGGA,085349.000,3114.486613,N,12129.920013,E,1,19,0.8,38.0,M,,M,,*73
$GPRMC,085349.000,A,3114.486613,N,12129.920013,E,3.4,-151.191709244,200122,,E,A*08
$GPGGA,085350.000,3114.485939,N,12129.919215,E,1,19,0.8,38.0,M,,M,,*71
$GPRMC,085350.000,A,3114.485939,N,12129.919215,E,3.5,-147.826663863,200122,,E,A*0B
$GPGGA,085351.000,3114.485150,N,12129.918516,E,1,19,0.8,38.1,M,,M,,*73
$GPRMC,085351.000,A,3114.485150,N,12129.918516,E,3.5,-146.740806233,200122,,E,A*04
$GPGGA,085352.000,3114.484376,N,12129.917856,E,1,19,0.8,38.1,M,,M,,*71
$GPRMC,085352.000,A,3114.484376,N,12129.917856,E,3.5,-146.644898759,200122,,E,A*0D
$GPGGA,085353.000,3114.484083,N,12129.917224,E,1,19,0.8,37.9,M,,M,,*71
$GPRMC,085353.000,A,3114.484083,N,12129.917224,E,3.2,-147.299306867,200122,,E,A*06
$GPGGA,085354.000,3114.484184,N,12129.916928,E,1,19,0.8,37.8,M,,M,,*77
$GPRMC,085354.000,A,3114.484184,N,12129.916928,E,2.5,239.03034117299998,200122,,E,A*17
$GPGGA,085355.000,3114.483976,N,12129.916462,E,1,19,0.8,37.7,M,,M,,*78
$GPRMC,085355.000,A,3114.483976,N,12129.916462,E,2.6,237.927593458,200122,,E,A*29
$GPGGA,085356.000,3114.483573,N,12129.916134,E,1,19,0.8,37.5,M,,M,,*76
$GPRMC,085356.000,A,3114.483573,N,12129.916134,E,2.5,230.99079861400003,200122,,E,A*1D
$GPGGA,085357.000,3114.483017,N,12129.915577,E,1,19,0.8,37.6,M,,M,,*73
$GPRMC,085357.000,A,3114.483017,N,12129.915577,E,2.5,232.73358970299998,200122,,E,A*11
$GPGGA,085358.000,3114.482387,N,12129.915145,E,1,19,0.8,37.6,M,,M,,*72
$GPRMC,085358.000,A,3114.482387,N,12129.915145,E,2.6,228.59815599900003,200122,,E,A*19
$GPGGA,085359.000,3114.481859,N,12129.914585,E,1,19,0.8,37.6,M,,M,,*71
$GPRMC,085359.000,A,3114.481859,N,12129.914585,E,2.6,230.649152548,200122,,E,A*28
$GPGGA,085400.000,3114.481628,N,12129.914397,E,1,19,0.8,37.6,M,,M,,*77
$GPRMC,085400.000,A,3114.481628,N,12129.914397,E,2.3,231.252613429,200122,,E,A*20
$GPGGA,085401.000,3114.481075,N,12129.914141,E,1,19,0.8,37.6,M,,M,,*71
$GPRMC,085401.000,A,3114.481075,N,12129.914141,E,2.3,235.30174086099998,200122,,E,A*1B
$GPGGA,085402.000,3114.481414,N,12129.913809,E,1,19,0.8,37.8,M,,M,,*7D
$GPRMC,085402.000,A,3114.481414,N,12129.913809,E,1.6,251.771704048,200122,,E,A*24
$GPGGA,085403.000,3114.481936,N,12129.912546,E,1,19,0.8,37.9,M,,M,,*77
$GPRMC,085403.000,A,3114.481936,N,12129.912546,E,1.5,258.728825535,200122,,E,A*2A
$GPGGA,085404.000,3114.481758,N,12129.912603,E,1,19,0.8,38.1,M,,M,,*73
$GPRMC,085404.000,A,3114.481758,N,12129.912603,E,1.1,268.996102619,200122,,E,A*24
$GPGGA,085405.000,3114.481792,N,12129.912337,E,1,19,0.8,38.1,M,,M,,*76
$GPRMC,085405.000,A,3114.481792,N,12129.912337,E,1.0,260.722038683,200122,,E,A*22
$GPGGA,085406.000,3114.481315,N,12129.911772,E,1,19,0.8,38.2,M,,M,,*7B
$GPRMC,085406.000,A,3114.481315,N,12129.911772,E,1.5,253.538182234,200122,,E,A*28
$GPGGA,085407.000,3114.481079,N,12129.911370,E,1,19,0.8,38.2,M,,M,,*75
$GPRMC,085407.000,A,3114.481079,N,12129.911370,E,1.5,247.561930565,200122,,E,A*2D
$GPGGA,085408.000,3114.480936,N,12129.910888,E,1,19,0.8,38.1,M,,M,,*77
$GPRMC,085408.000,A,3114.480936,N,12129.910888,E,1.5,226.763867695,200122,,E,A*24
$GPGGA,085409.000,3114.480869,N,12129.910515,E,1,19,0.8,38.0,M,,M,,*75
$GPRMC,085409.000,A,3114.480869,N,12129.910515,E,1.4,229.56984604299998,200122,,E,A*16
$GPGGA,085410.000,3114.480738,N,12129.910001,E,1,19,0.8,37.9,M,,M,,*70
$GPRMC,085410.000,A,3114.480738,N,12129.910001,E,1.5,211.685910738,200122,,E,A*2E
$GPGGA,085411.000,3114.480600,N,12129.910386,E,1,19,0.8,37.6,M,,M,,*78
$GPRMC,085411.000,A,3114.480600,N,12129.910386,E,1.2,187.681060355,200122,,E,A*27
$GPGGA,085412.000,3114.480584,N,12129.910141,E,1,19,0.8,37.5,M,,M,,*7E
$GPRMC,085412.000,A,3114.480584,N,12129.910141,E,1.2,153.530851767,200122,,E,A*2D
$GPGGA,085413.000,3114.480599,N,12129.909875,E,1,19,0.8,37.5,M,,M,,*75
$GPRMC,085413.000,A,3114.480599,N,12129.909875,E,1.1,139.352690281,200122,,E,A*25
$GPGGA,085414.000,3114.480358,N,12129.910599,E,1,19,0.8,37.4,M,,M,,*7F
$GPRMC,085414.000,A,3114.480358,N,12129.910599,E,1.0,135.386754554,200122,,E,A*2C
$GPGGA,085415.000,3114.480149,N,12129.911191,E,1,19,0.8,37.1,M,,M,,*74
$GPRMC,085415.000,A,3114.480149,N,12129.911191,E,0.9,130.605212267,200122,,E,A*21
$GPGGA,085416.000,3114.479550,N,12129.912869,E,1,19,0.8,36.9,M,,M,,*79
$GPRMC,085416.000,A,3114.479550,N,12129.912869,E,0.5,120.73924978299999,200122,,E,A*1F
$GPGGA,085417.000,3114.478394,N,12129.913122,E,1,19,0.8,36.9,M,,M,,*70
$GPRMC,085417.000,A,3114.478394,N,12129.913122,E,1.1,114.70403992,200122,,E,A*10
$GPGGA,085418.000,3114.477138,N,12129.913310,E,1,19,0.8,37.0,M,,M,,*7F
$GPRMC,085418.000,A,3114.477138,N,12129.913310,E,1.9,129.503789609,200122,,E,A*2C
$GPGGA,085419.000,3114.476192,N,12129.913196,E,1,19,0.8,37.1,M,,M,,*72
$GPRMC,085419.000,A,3114.476192,N,12129.913196,E,2.6,130.73356518399999,200122,,E,A*19
$GPGGA,085420.000,3114.475759,N,12129.913064,E,1,19,0.8,37.3,M,,M,,*74
$GPRMC,085420.000,A,3114.475759,N,12129.913064,E,2.0,127.293745274,200122,,E,A*20
$GPGGA,085421.000,3114.475337,N,12129.914948,E,1,19,0.8,36.9,M,,M,,*72
$GPRMC,085421.000,A,3114.475337,N,12129.914948,E,1.5,127.26835063,200122,,E,A*1B
$GPGGA,085422.000,3114.475024,N,12129.915012,E,1,19,0.8,36.9,M,,M,,*77
$GPRMC,085422.000,A,3114.475024,N,12129.915012,E,1.5,113.735163915,200122,,E,A*2E
$GPGGA,085423.000,3114.474265,N,12129.916550,E,1,19,0.8,36.9,M,,M,,*70
$GPRMC,085423.000,A,3114.474265,N,12129.916550,E,1.8,128.25605063700002,200122,,E,A*10
$GPGGA,085424.000,3114.474426,N,12129.916442,E,1,19,0.8,36.9,M,,M,,*74
$GPRMC,085424.000,A,3114.474426,N,12129.916442,E,1.5,125.02076757399999,200122,,E,A*1C
$GPGGA,085425.000,3114.474337,N,12129.916492,E,1,19,0.8,37.0,M,,M,,*77
$GPRMC,085425.000,A,3114.474337,N,12129.916492,E,1.4,124.26672834200001,200122,,E,A*10
$GPGGA,085426.000,3114.474266,N,12129.916572,E,1,19,0.8,37.2,M,,M,,*7C
$GPRMC,085426.000,A,3114.474266,N,12129.916572,E,1.2,111.88494077899999,200122,,E,A*1A
$GPGGA,085427.000,3114.473721,N,12129.917677,E,1,19,0.8,36.8,M,,M,,*70
$GPRMC,085427.000,A,3114.473721,N,12129.917677,E,1.6,122.73158866600001,200122,,E,A*16
$GPGGA,085428.000,3114.473929,N,12129.917693,E,1,19,0.8,36.6,M,,M,,*7D
$GPRMC,085428.000,A,3114.473929,N,12129.917693,E,1.5,130.527498374,200122,,E,A*27
$GPGGA,085429.000,3114.473525,N,12129.918471,E,1,19,0.8,36.3,M,,M,,*78
$GPRMC,085429.000,A,3114.473525,N,12129.918471,E,1.6,129.769306386,200122,,E,A*29
$GPGGA,085430.000,3114.473624,N,12129.918648,E,1,19,0.8,36.2,M,,M,,*7B
$GPRMC,085430.000,A,3114.473624,N,12129.918648,E,1.4,108.668058246,200122,,E,A*2F
$GPGGA,085431.000,3114.473356,N,12129.919217,E,1,19,0.8,36.1,M,,M,,*76
$GPRMC,085431.000,A,3114.473356,N,12129.919217,E,1.5,178.403969467,200122,,E,A*26
$GPGGA,085432.000,3114.460936,N,12129.940454,E,1,19,0.8,34.1,M,,M,,*74
$GPRMC,085432.000,A,3114.460936,N,12129.940454,E,3.1,121.644010149,200122,,E,A*23
$GPGGA,085433.000,3114.460463,N,12129.941521,E,1,19,0.8,33.9,M,,M,,*75
$GPRMC,085433.000,A,3114.460463,N,12129.941521,E,3.0,118.37969128200001,200122,,E,A*17
$GPGGA,085434.000,3114.459867,N,12129.942760,E,1,19,0.8,33.7,M,,M,,*7A
$GPRMC,085434.000,A,3114.459867,N,12129.942760,E,3.1,118.353328687,200122,,E,A*28
$GPGGA,085435.000,3114.460259,N,12129.942627,E,1,19,0.8,33.6,M,,M,,*75
$GPRMC,085435.000,A,3114.460259,N,12129.942627,E,2.0,181.714972008,200122,,E,A*25
$GPGGA,085436.000,3114.460213,N,12129.943472,E,1,19,0.8,33.7,M,,M,,*7A
$GPRMC,085436.000,A,3114.460213,N,12129.943472,E,2.1,182.121696117,200122,,E,A*23
$GPGGA,085437.000,3114.460083,N,12129.944020,E,1,19,0.8,33.6,M,,M,,*75
$GPRMC,085437.000,A,3114.460083,N,12129.944020,E,2.0,177.772368207,200122,,E,A*20
$GPGGA,085438.000,3114.459887,N,12129.944605,E,1,19,0.8,33.5,M,,M,,*7E
$GPRMC,085438.000,A,3114.459887,N,12129.944605,E,1.9,170.177552931,200122,,E,A*27
$GPGGA,085439.000,3114.459799,N,12129.945115,E,1,19,0.8,33.8,M,,M,,*75
$GPRMC,085439.000,A,3114.459799,N,12129.945115,E,1.8,167.647924041,200122,,E,A*21
$GPGGA,085440.000,3114.459850,N,12129.945255,E,1,19,0.8,34.0,M,,M,,*79
$GPRMC,085440.000,A,3114.459850,N,12129.945255,E,1.7,168.752570548,200122,,E,A*26
$GPGGA,085441.000,3114.459768,N,12129.945374,E,1,19,0.8,34.5,M,,M,,*7B
$GPRMC,085441.000,A,3114.459768,N,12129.945374,E,1.6,162.481555232,200122,,E,A*2A
$GPGGA,085442.000,3114.460620,N,12129.944645,E,1,19,0.8,36.0,M,,M,,*7E
$GPRMC,085442.000,A,3114.460620,N,12129.944645,E,1.2,140.415549691,200122,,E,A*21
$GPGGA,085443.000,3114.459121,N,12129.945043,E,1,19,0.8,38.9,M,,M,,*75
$GPRMC,085443.000,A,3114.459121,N,12129.945043,E,1.1,137.219553876,200122,,E,A*28
$GPGGA,085444.000,3114.459076,N,12129.944856,E,1,19,0.8,40.3,M,,M,,*79
$GPRMC,085444.000,A,3114.459076,N,12129.944856,E,0.9,132.232545837,200122,,E,A*26
$GPGGA,085445.000,3114.461209,N,12129.941770,E,1,19,0.8,42.8,M,,M,,*7E
$GPRMC,085445.000,A,3114.461209,N,12129.941770,E,0.3,122.970440384,200122,,E,A*29
$GPGGA,085446.000,3114.463775,N,12129.937915,E,1,19,0.8,44.5,M,,M,,*76
$GPRMC,085446.000,A,3114.463775,N,12129.937915,E,1.0,133.013496016,200122,,E,A*27
$GPGGA,085447.000,3114.465048,N,12129.935694,E,1,19,0.8,45.6,M,,M,,*7E
$GPRMC,085447.000,A,3114.465048,N,12129.935694,E,1.4,128.75791928299998,200122,,E,A*19
$GPGGA,085448.000,3114.465760,N,12129.934132,E,1,19,0.8,46.5,M,,M,,*76
$GPRMC,085448.000,A,3114.465760,N,12129.934132,E,1.7,125.51801901200001,200122,,E,A*1D
$GPGGA,085449.000,3114.466140,N,12129.932656,E,1,19,0.8,47.5,M,,M,,*72
$GPRMC,085449.000,A,3114.466140,N,12129.932656,E,1.8,123.38104404100001,200122,,E,A*19
$GPGGA,085450.000,3114.465793,N,12129.932183,E,1,19,0.8,48.7,M,,M,,*73
$GPRMC,085450.000,A,3114.465793,N,12129.932183,E,1.4,130.20219012,200122,,E,A*1E
$GPGGA,085451.000,3114.465913,N,12129.931888,E,1,19,0.8,48.7,M,,M,,*75
$GPRMC,085451.000,A,3114.465913,N,12129.931888,E,1.3,126.99887234299999,200122,,E,A*1A
$GPGGA,085452.000,3114.465392,N,12129.931160,E,1,19,0.8,50.0,M,,M,,*74
$GPRMC,085452.000,A,3114.465392,N,12129.931160,E,1.2,119.300989512,200122,,E,A*2C
$GPGGA,085453.000,3114.464929,N,12129.930628,E,1,19,0.8,51.5,M,,M,,*70
$GPRMC,085453.000,A,3114.464929,N,12129.930628,E,1.1,107.70095126,200122,,E,A*13
$GPGGA,085454.000,3114.464709,N,12129.930812,E,1,19,0.8,51.4,M,,M,,*7D
$GPRMC,085454.000,A,3114.464709,N,12129.930812,E,0.8,103.57431484,200122,,E,A*11
$GPGGA,085455.000,3114.464579,N,12129.930664,E,1,19,0.8,51.4,M,,M,,*76
$GPRMC,085455.000,A,3114.464579,N,12129.930664,E,0.8,91.02153348899999,200122,,E,A*27
$GPGGA,085456.000,3114.463353,N,12129.929470,E,1,19,0.8,52.9,M,,M,,*7D
$GPRMC,085456.000,A,3114.463353,N,12129.929470,E,1.2,96.35294699100001,200122,,E,A*2A
$GPGGA,085457.000,3114.462035,N,12129.927059,E,1,19,0.8,55.5,M,,M,,*74
$GPRMC,085457.000,A,3114.462035,N,12129.927059,E,1.8,95.985660395,200122,,E,A*15
$GPGGA,085458.000,3114.460827,N,12129.927853,E,1,19,0.8,55.5,M,,M,,*70
$GPRMC,085458.000,A,3114.460827,N,12129.927853,E,2.2,120.7615162,200122,,E,A*2C
$GPGGA,085459.000,3114.459813,N,12129.928606,E,1,19,0.8,55.4,M,,M,,*7C
$GPRMC,085459.000,A,3114.459813,N,12129.928606,E,2.6,139.43386025,200122,,E,A*10
$GPGGA,085500.000,3114.459016,N,12129.926517,E,1,19,0.8,58.0,M,,M,,*78
$GPRMC,085500.000,A,3114.459016,N,12129.926517,E,2.7,123.74951909100001,200122,,E,A*14
$GPGGA,085501.000,3114.459212,N,12129.929109,E,1,19,0.8,58.8,M,,M,,*73
$GPRMC,085501.000,A,3114.459212,N,12129.929109,E,2.3,131.532765628,200122,,E,A*22
$GPGGA,085502.000,3114.460397,N,12129.932864,E,1,19,0.8,59.2,M,,M,,*75
$GPRMC,085502.000,A,3114.460397,N,12129.932864,E,2.6,131.111138045,200122,,E,A*2C
$GPGGA,085503.000,3114.461553,N,12129.936628,E,1,19,0.8,58.6,M,,M,,*7C
$GPRMC,085503.000,A,3114.461553,N,12129.936628,E,2.3,130.177942949,200122,,E,A*24
$GPGGA,085504.000,3114.461989,N,12129.939144,E,1,19,0.8,58.9,M,,M,,*7D
$GPRMC,085504.000,A,3114.461989,N,12129.939144,E,2.4,149.441426218,200122,,E,A*23
$GPGGA,085505.000,3114.461938,N,12129.940820,E,1,19,0.8,58.8,M,,M,,*72
$GPRMC,085505.000,A,3114.461938,N,12129.940820,E,2.8,127.5422822,200122,,E,A*2A
$GPGGA,085506.000,3114.466126,N,12129.944142,E,1,19,0.8,62.0,M,,M,,*79
$GPRMC,085506.000,A,3114.466126,N,12129.944142,E,3.4,79.919104662,200122,,E,A*18
$GPGGA,085507.000,3114.466213,N,12129.946250,E,1,19,0.8,63.1,M,,M,,*7F
$GPRMC,085507.000,A,3114.466213,N,12129.946250,E,3.9,86.777531398,200122,,E,A*17
$GPGGA,085508.000,3114.466078,N,12129.948046,E,1,19,0.8,63.6,M,,M,,*73
$GPRMC,085508.000,A,3114.466078,N,12129.948046,E,4.1,92.723277959,200122,,E,A*15
$GPGGA,085509.000,3114.465733,N,12129.949824,E,1,19,0.8,63.8,M,,M,,*7A
$GPRMC,085509.000,A,3114.465733,N,12129.949824,E,4.2,94.38519641299999,200122,,E,A*28
$GPGGA,085510.000,3114.465449,N,12129.951835,E,1,19,0.8,64.3,M,,M,,*79
$GPRMC,085510.000,A,3114.465449,N,12129.951835,E,4.4,94.228966268,200122,,E,A*12
$GPGGA,085511.000,3114.465411,N,12129.952503,E,1,19,0.8,64.3,M,,M,,*7E
$GPRMC,085511.000,A,3114.465411,N,12129.952503,E,3.9,93.92161948200001,200122,,E,A*2E
$GPGGA,085512.000,3114.465437,N,12129.953187,E,1,19,0.8,64.4,M,,M,,*77
$GPRMC,085512.000,A,3114.465437,N,12129.953187,E,3.5,93.04121227600001,200122,,E,A*21
$GPGGA,085513.000,3114.465529,N,12129.954093,E,1,19,0.8,64.4,M,,M,,*7B
$GPRMC,085513.000,A,3114.465529,N,12129.954093,E,3.3,91.59731924200001,200122,,E,A*2A
$GPGGA,085514.000,3114.472294,N,12129.955564,E,1,19,0.8,66.7,M,,M,,*76
$GPRMC,085514.000,A,3114.472294,N,12129.955564,E,4.6,51.374275033,200122,,E,A*1D
$GPGGA,085515.000,3114.470041,N,12129.955211,E,1,19,0.8,67.2,M,,M,,*7E
$GPRMC,085515.000,A,3114.470041,N,12129.955211,E,3.0,81.277118523,200122,,E,A*13
$GPGGA,085516.000,3114.467909,N,12129.955508,E,1,19,0.8,67.3,M,,M,,*70
$GPRMC,085516.000,A,3114.467909,N,12129.955508,E,2.6,132.082336315,200122,,E,A*27
$GPGGA,085517.000,3114.468062,N,12129.956240,E,1,19,0.8,67.3,M,,M,,*72
$GPRMC,085517.000,A,3114.468062,N,12129.956240,E,2.5,129.648466678,200122,,E,A*20
$GPGGA,085518.000,3114.466606,N,12129.957208,E,1,19,0.8,67.6,M,,M,,*7F
$GPRMC,085518.000,A,3114.466606,N,12129.957208,E,2.7,140.455656562,200122,,E,A*22
$GPGGA,085519.000,3114.465243,N,12129.958141,E,1,19,0.8,67.7,M,,M,,*78
$GPRMC,085519.000,A,3114.465243,N,12129.958141,E,2.9,137.917462614,200122,,E,A*26
$GPGGA,085520.000,3114.463764,N,12129.958759,E,1,19,0.8,68.3,M,,M,,*70
$GPRMC,085520.000,A,3114.463764,N,12129.958759,E,3.2,128.937709103,200122,,E,A*2C
$GPGGA,085521.000,3114.461916,N,12129.958597,E,1,19,0.8,69.1,M,,M,,*7B
$GPRMC,085521.000,A,3114.461916,N,12129.958597,E,3.5,140.352714358,200122,,E,A*24
$GPGGA,085522.000,3114.461228,N,12129.959293,E,1,19,0.8,69.1,M,,M,,*7C
$GPRMC,085522.000,A,3114.461228,N,12129.959293,E,3.4,139.76968629700002,200122,,E,A*1A
$GPGGA,085523.000,3114.460528,N,12129.961283,E,1,19,0.8,68.0,M,,M,,*71
$GPRMC,085523.000,A,3114.460528,N,12129.961283,E,3.6,136.02322137299998,200122,,E,A*1A
$GPGGA,085524.000,3114.456498,N,12129.963551,E,1,19,0.8,66.6,M,,M,,*7B
$GPRMC,085524.000,A,3114.456498,N,12129.963551,E,5.5,149.097417017,200122,,E,A*21
$GPGGA,085525.000,3114.455863,N,12129.964205,E,1,19,0.8,66.4,M,,M,,*72
$GPRMC,085525.000,A,3114.455863,N,12129.964205,E,3.5,132.830466573,200122,,E,A*24
$GPGGA,085526.000,3114.455306,N,12129.964651,E,1,19,0.8,66.3,M,,M,,*7B
$GPRMC,085526.000,A,3114.455306,N,12129.964651,E,2.4,136.06810691200002,200122,,E,A*11
$GPGGA,085527.000,3114.454747,N,12129.964497,E,1,19,0.8,66.2,M,,M,,*73
$GPRMC,085527.000,A,3114.454747,N,12129.964497,E,2.0,148.677565173,200122,,E,A*21
$GPGGA,085528.000,3114.454160,N,12129.965200,E,1,19,0.8,66.0,M,,M,,*74
$GPRMC,085528.000,A,3114.454160,N,12129.965200,E,2.1,161.80371359,200122,,E,A*19
$GPGGA,085529.000,3114.453537,N,12129.965798,E,1,19,0.8,65.9,M,,M,,*7A
$GPRMC,085529.000,A,3114.453537,N,12129.965798,E,2.2,147.152233649,200122,,E,A*27
$GPGGA,085530.000,3114.452683,N,12129.966207,E,1,19,0.8,65.8,M,,M,,*7E
$GPRMC,085530.000,A,3114.452683,N,12129.966207,E,2.4,160.399016869,200122,,E,A*2D
$GPGGA,085531.000,3114.451767,N,12129.966531,E,1,19,0.8,65.5,M,,M,,*78
$GPRMC,085531.000,A,3114.451767,N,12129.966531,E,2.7,152.943974586,200122,,E,A*28
$GPGGA,085532.000,3114.451243,N,12129.967112,E,1,19,0.8,65.3,M,,M,,*7A
$GPRMC,085532.000,A,3114.451243,N,12129.967112,E,2.6,152.19318652299998,200122,,E,A*1B
$GPGGA,085533.000,3114.450743,N,12129.967527,E,1,19,0.8,65.3,M,,M,,*7D
$GPRMC,085533.000,A,3114.450743,N,12129.967527,E,2.5,152.556935082,200122,,E,A*25
$GPGGA,085534.000,3114.450239,N,12129.967961,E,1,19,0.8,65.3,M,,M,,*7C
$GPRMC,085534.000,A,3114.450239,N,12129.967961,E,2.5,153.531097654,200122,,E,A*28
$GPGGA,085535.000,3114.449334,N,12129.964112,E,1,19,0.8,66.6,M,,M,,*70
$GPRMC,085535.000,A,3114.449334,N,12129.964112,E,2.1,157.191505356,200122,,E,A*25
$GPGGA,085536.000,3114.453212,N,12129.973616,E,1,19,0.8,50.6,M,,M,,*7D
$GPRMC,085536.000,A,3114.453212,N,12129.973616,E,2.3,158.510237315,200122,,E,A*2C
$GPGGA,085537.000,3114.453901,N,12129.976045,E,1,19,0.8,43.3,M,,M,,*77
$GPRMC,085537.000,A,3114.453901,N,12129.976045,E,3.4,110.40066018200001,200122,,E,A*10
$GPGGA,085538.000,3114.453692,N,12129.976753,E,1,19,0.8,39.5,M,,M,,*76
$GPRMC,085538.000,A,3114.453692,N,12129.976753,E,3.1,115.458905515,200122,,E,A*20
$GPGGA,085539.000,3114.453882,N,12129.978602,E,1,19,0.8,35.3,M,,M,,*79
$GPRMC,085539.000,A,3114.453882,N,12129.978602,E,3.4,109.254465537,200122,,E,A*2C
$GPGGA,085540.000,3114.453399,N,12129.979053,E,1,19,0.8,33.2,M,,M,,*72
$GPRMC,085540.000,A,3114.453399,N,12129.979053,E,3.1,114.50011175600001,200122,,E,A*1D
$GPGGA,085541.000,3114.453111,N,12129.979354,E,1,19,0.8,31.4,M,,M,,*71
$GPRMC,085541.000,A,3114.453111,N,12129.979354,E,2.9,114.128325304,200122,,E,A*2A
$GPGGA,085542.000,3114.452435,N,12129.980117,E,1,19,0.8,30.3,M,,M,,*75
$GPRMC,085542.000,A,3114.452435,N,12129.980117,E,3.3,116.283477948,200122,,E,A*21
$GPGGA,085543.000,3114.452231,N,12129.980755,E,1,19,0.8,29.8,M,,M,,*75
$GPRMC,085543.000,A,3114.452231,N,12129.980755,E,3.2,114.85552471,200122,,E,A*14
$GPGGA,085544.000,3114.452086,N,12129.981719,E,1,19,0.8,29.1,M,,M,,*7C
$GPRMC,085544.000,A,3114.452086,N,12129.981719,E,3.3,110.950932992,200122,,E,A*2A
$GPGGA,085545.000,3114.453227,N,12129.983399,E,1,19,0.8,30.4,M,,M,,*76
$GPRMC,085545.000,A,3114.453227,N,12129.983399,E,3.9,95.75734674,200122,,E,A*2A
$GPGGA,085546.000,3114.455298,N,12129.983211,E,1,19,0.8,27.9,M,,M,,*7D
$GPRMC,085546.000,A,3114.455298,N,12129.983211,E,4.0,85.322968898,200122,,E,A*1F
$GPGGA,085547.000,3114.455454,N,12129.984492,E,1,19,0.8,26.9,M,,M,,*71
$GPRMC,085547.000,A,3114.455454,N,12129.984492,E,4.7,90.055354561,200122,,E,A*1C
$GPGGA,085548.000,3114.456144,N,12129.985253,E,1,19,0.8,25.6,M,,M,,*7F
$GPRMC,085548.000,A,3114.456144,N,12129.985253,E,4.3,73.738414013,200122,,E,A*18
$GPGGA,085549.000,3114.457239,N,12129.985918,E,1,19,0.8,24.3,M,,M,,*76
$GPRMC,085549.000,A,3114.457239,N,12129.985918,E,5.6,62.452857082,200122,,E,A*1D
$GPGGA,085550.000,3114.457323,N,12129.986689,E,1,19,0.8,23.4,M,,M,,*70
$GPRMC,085550.000,A,3114.457323,N,12129.986689,E,4.6,74.048152781,200122,,E,A*1A
$GPGGA,085551.000,3114.457267,N,12129.987788,E,1,19,0.8,22.8,M,,M,,*7C
$GPRMC,085551.000,A,3114.457267,N,12129.987788,E,3.8,79.831570027,200122,,E,A*16
$GPGGA,085552.000,3114.457602,N,12129.988800,E,1,19,0.8,22.5,M,,M,,*75
$GPRMC,085552.000,A,3114.457602,N,12129.988800,E,3.5,73.83170324,200122,,E,A*20
$GPGGA,085553.000,3114.457739,N,12129.989795,E,1,19,0.8,22.2,M,,M,,*78
$GPRMC,085553.000,A,3114.457739,N,12129.989795,E,3.4,75.522847242,200122,,E,A*1F
$GPGGA,085554.000,3114.457358,N,12129.990511,E,1,19,0.8,21.8,M,,M,,*73
$GPRMC,085554.000,A,3114.457358,N,12129.990511,E,3.0,82.095285994,200122,,E,A*1C
$GPGGA,085555.000,3114.457201,N,12129.991272,E,1,19,0.8,21.5,M,,M,,*71
$GPRMC,085555.000,A,3114.457201,N,12129.991272,E,2.8,81.316141924,200122,,E,A*11
$GPGGA,085556.000,3114.456558,N,12129.991882,E,1,19,0.8,21.0,M,,M,,*78
$GPRMC,085556.000,A,3114.456558,N,12129.991882,E,2.7,85.791650751,200122,,E,A*16
$GPGGA,085557.000,3114.456660,N,12129.992864,E,1,19,0.8,21.0,M,,M,,*7A
$GPRMC,085557.000,A,3114.456660,N,12129.992864,E,2.8,76.636226024,200122,,E,A*1B
$GPGGA,085558.000,3114.456653,N,12129.993822,E,1,19,0.8,20.9,M,,M,,*7E
$GPRMC,085558.000,A,3114.456653,N,12129.993822,E,2.8,55.933522841999995,200122,,E,A*18
$GPGGA,085559.000,3114.456769,N,12129.994863,E,1,19,0.8,20.8,M,,M,,*74
$GPRMC,085559.000,A,3114.456769,N,12129.994863,E,2.9,86.365174755,200122,,E,A*14
$GPGGA,085600.000,3114.456820,N,12129.995810,E,1,19,0.8,20.8,M,,M,,*7C
$GPRMC,085600.000,A,3114.456820,N,12129.995810,E,2.9,86.364995563,200122,,E,A*1D
$GPGGA,085601.000,3114.456438,N,12129.996783,E,1,19,0.8,20.6,M,,M,,*70
$GPRMC,085601.000,A,3114.456438,N,12129.996783,E,3.0,89.802371239,200122,,E,A*1B
$GPGGA,085602.000,3114.453984,N,12129.997525,E,1,19,0.8,19.4,M,,M,,*7B
$GPRMC,085602.000,A,3114.453984,N,12129.997525,E,3.1,103.813099509,200122,,E,A*2B
$GPGGA,085603.000,3114.449920,N,12129.997577,E,1,19,0.8,18.3,M,,M,,*7E
$GPRMC,085603.000,A,3114.449920,N,12129.997577,E,3.4,125.632098391,200122,,E,A*22
$GPGGA,085604.000,3114.447332,N,12129.999395,E,1,19,0.8,17.8,M,,M,,*7E
$GPRMC,085604.000,A,3114.447332,N,12129.999395,E,4.0,129.935454443,200122,,E,A*2D
$GPGGA,085605.000,3114.446153,N,12130.000903,E,1,19,0.8,17.8,M,,M,,*7F
$GPRMC,085605.000,A,3114.446153,N,12130.000903,E,4.1,128.69516291,200122,,E,A*12
$GPGGA,085606.000,3114.445014,N,12130.002296,E,1,19,0.8,18.0,M,,M,,*7F
$GPRMC,085606.000,A,3114.445014,N,12130.002296,E,4.3,129.85736686299998,200122,,E,A*1C
$GPGGA,085607.000,3114.443995,N,12130.003758,E,1,19,0.8,18.2,M,,M,,*7C
$GPRMC,085607.000,A,3114.443995,N,12130.003758,E,4.4,127.732396826,200122,,E,A*2F
$GPGGA,085608.000,3114.443361,N,12130.004822,E,1,19,0.8,18.3,M,,M,,*76
$GPRMC,085608.000,A,3114.443361,N,12130.004822,E,4.3,126.962974116,200122,,E,A*25
$GPGGA,085609.000,3114.442128,N,12130.005804,E,1,19,0.8,18.9,M,,M,,*76
$GPRMC,085609.000,A,3114.442128,N,12130.005804,E,4.4,129.992474851,200122,,E,A*2F
$GPGGA,085610.000,3114.441054,N,12130.006819,E,1,19,0.8,19.4,M,,M,,*74
$GPRMC,085610.000,A,3114.441054,N,12130.006819,E,4.4,132.658925352,200122,,E,A*23
$GPGGA,085611.000,3114.439606,N,12130.008265,E,1,19,0.8,20.0,M,,M,,*7A
$GPRMC,085611.000,A,3114.439606,N,12130.008265,E,4.6,134.621226121,200122,,E,A*27
$GPGGA,085612.000,3114.438888,N,12130.009318,E,1,19,0.8,20.2,M,,M,,*78
$GPRMC,085612.000,A,3114.438888,N,12130.009318,E,4.5,133.586732064,200122,,E,A*2D
$GPGGA,085613.000,3114.438240,N,12130.009682,E,1,19,0.8,20.4,M,,M,,*77
$GPRMC,085613.000,A,3114.438240,N,12130.009682,E,4.3,137.317672064,200122,,E,A*2D
$GPGGA,085614.000,3114.438155,N,12130.010562,E,1,19,0.8,20.7,M,,M,,*71
$GPRMC,085614.000,A,3114.438155,N,12130.010562,E,4.1,131.76071908,200122,,E,A*1E
$GPGGA,085615.000,3114.437821,N,12130.011147,E,1,19,0.8,20.9,M,,M,,*79
$GPRMC,085615.000,A,3114.437821,N,12130.011147,E,3.9,132.082696809,200122,,E,A*20
$GPGGA,085616.000,3114.439007,N,12130.010557,E,1,19,0.8,20.4,M,,M,,*71
$GPRMC,085616.000,A,3114.439007,N,12130.010557,E,3.3,129.36663891700002,200122,,E,A*14
$GPGGA,085617.000,3114.438844,N,12130.011272,E,1,19,0.8,20.5,M,,M,,*7E
$GPRMC,085617.000,A,3114.438844,N,12130.011272,E,3.2,126.07089150600001,200122,,E,A*12
$GPGGA,085618.000,3114.438937,N,12130.011910,E,1,19,0.8,20.5,M,,M,,*7B
$GPRMC,085618.000,A,3114.438937,N,12130.011910,E,3.0,121.47129871899999,200122,,E,A*11
$GPGGA,085619.000,3114.438924,N,12130.012713,E,1,19,0.8,20.5,M,,M,,*76
$GPRMC,085619.000,A,3114.438924,N,12130.012713,E,2.9,20.430149603,200122,,E,A*1C
$GPGGA,085620.000,3114.438672,N,12130.013630,E,1,19,0.8,20.6,M,,M,,*72
$GPRMC,085620.000,A,3114.438672,N,12130.013630,E,2.9,27.15667024,200122,,E,A*27
$GPGGA,085621.000,3114.439788,N,12130.016012,E,1,19,0.8,21.7,M,,M,,*75
$GPRMC,085621.000,A,3114.439788,N,12130.016012,E,3.1,105.56153801299999,200122,,E,A*1B
$GPGGA,085622.000,3114.442802,N,12130.014163,E,1,19,0.8,21.4,M,,M,,*71
$GPRMC,085622.000,A,3114.442802,N,12130.014163,E,2.4,36.540102051999995,200122,,E,A*15
$GPGGA,085623.000,3114.448769,N,12130.009456,E,1,19,0.8,20.2,M,,M,,*70
$GPRMC,085623.000,A,3114.448769,N,12130.009456,E,1.7,39.962870395,200122,,E,A*1B
$GPGGA,085624.000,3114.461893,N,12130.000360,E,1,19,0.8,17.7,M,,M,,*7C
$GPRMC,085624.000,A,3114.461893,N,12130.000360,E,3.8,7.4121535629999995,200122,,E,A*1F
$GPGGA,085625.000,3114.462799,N,12130.000697,E,1,19,0.8,17.6,M,,M,,*77
$GPRMC,085625.000,A,3114.462799,N,12130.000697,E,2.2,26.237459956,200122,,E,A*1D
$GPGGA,085626.000,3114.463731,N,12130.000835,E,1,19,0.8,17.6,M,,M,,*71
$GPRMC,085626.000,A,3114.463731,N,12130.000835,E,2.7,18.585359883,200122,,E,A*13
$GPGGA,085627.000,3114.464805,N,12130.000598,E,1,19,0.8,17.5,M,,M,,*76
$GPRMC,085627.000,A,3114.464805,N,12130.000598,E,2.2,356.981152534,200122,,E,A*2B
$GPGGA,085628.000,3114.465868,N,12130.000485,E,1,19,0.8,17.5,M,,M,,*7E
$GPRMC,085628.000,A,3114.465868,N,12130.000485,E,2.3,359.42605975699996,200122,,E,A*17
$GPGGA,085629.000,3114.466733,N,12130.000138,E,1,19,0.8,17.2,M,,M,,*79
$GPRMC,085629.000,A,3114.466733,N,12130.000138,E,2.4,348.634087535,200122,,E,A*23
$GPGGA,085630.000,3114.467690,N,12129.999743,E,1,19,0.8,17.0,M,,M,,*71
$GPRMC,085630.000,A,3114.467690,N,12129.999743,E,2.5,351.284856662,200122,,E,A*2A
$GPGGA,085631.000,3114.469760,N,12129.998478,E,1,19,0.8,16.5,M,,M,,*7E
$GPRMC,085631.000,A,3114.469760,N,12129.998478,E,3.2,-13.06843624,200122,,E,A*01
$GPGGA,085632.000,3114.470942,N,12129.998110,E,1,19,0.8,16.4,M,,M,,*71
$GPRMC,085632.000,A,3114.470942,N,12129.998110,E,3.5,-12.909305737999999,200122,,E,A*35
$GPGGA,085633.000,3114.472283,N,12129.997441,E,1,19,0.8,16.2,M,,M,,*7C
$GPRMC,085633.000,A,3114.472283,N,12129.997441,E,3.7,-14.150515072000001,200122,,E,A*3E
$GPGGA,085634.000,3114.474195,N,12129.996254,E,1,19,0.8,15.3,M,,M,,*78
$GPRMC,085634.000,A,3114.474195,N,12129.996254,E,4.0,-17.393176310999998,200122,,E,A*30
$GPGGA,085635.000,3114.475620,N,12129.994939,E,1,19,0.8,14.9,M,,M,,*78
$GPRMC,085635.000,A,3114.475620,N,12129.994939,E,4.4,-23.202579162,200122,,E,A*3C
$GPGGA,085636.000,3114.476585,N,12129.994367,E,1,19,0.8,14.7,M,,M,,*7B
$GPRMC,085636.000,A,3114.476585,N,12129.994367,E,4.3,-23.546185430999998,200122,,E,A*35
$GPGGA,085637.000,3114.478148,N,12129.990620,E,1,19,0.8,14.2,M,,M,,*76
$GPRMC,085637.000,A,3114.478148,N,12129.990620,E,6.4,-48.05901805,200122,,E,A*08
$GPGGA,085638.000,3114.479461,N,12129.989329,E,1,19,0.8,14.1,M,,M,,*71
$GPRMC,085638.000,A,3114.479461,N,12129.989329,E,5.8,-39.436215906,200122,,E,A*3D
$GPGGA,085639.000,3114.480499,N,12129.988279,E,1,19,0.8,14.0,M,,M,,*75
$GPRMC,085639.000,A,3114.480499,N,12129.988279,E,5.2,-35.384221294,200122,,E,A*37
$GPGGA,085640.000,3114.481663,N,12129.987205,E,1,19,0.8,14.0,M,,M,,*79
$GPRMC,085640.000,A,3114.481663,N,12129.987205,E,5.5,-38.256175106,200122,,E,A*35
$GPGGA,085641.000,3114.482900,N,12129.986413,E,1,19,0.8,13.5,M,,M,,*73
$GPRMC,085641.000,A,3114.482900,N,12129.986413,E,5.4,-35.775343770999996,200122,,E,A*3A
$GPGGA,085642.000,3114.483287,N,12129.985963,E,1,19,0.8,12.0,M,,M,,*78
$GPRMC,085642.000,A,3114.483287,N,12129.985963,E,5.0,-37.608508171,200122,,E,A*39
$GPGGA,085643.000,3114.484013,N,12129.985118,E,1,19,0.8,11.9,M,,M,,*7F
$GPRMC,085643.000,A,3114.484013,N,12129.985118,E,4.7,-38.881339203,200122,,E,A*30
$GPGGA,085644.000,3114.484933,N,12129.984226,E,1,19,0.8,11.9,M,,M,,*7C
$GPRMC,085644.000,A,3114.484933,N,12129.984226,E,4.6,-38.935713219,200122,,E,A*3B
$GPGGA,085645.000,3114.485173,N,12129.983984,E,1,19,0.8,11.4,M,,M,,*79
$GPRMC,085645.000,A,3114.485173,N,12129.983984,E,4.5,-40.23375094,200122,,E,A*02
$GPGGA,085646.000,3114.485693,N,12129.983073,E,1,19,0.8,11.1,M,,M,,*77
$GPRMC,085646.000,A,3114.485693,N,12129.983073,E,4.4,-41.948132529,200122,,E,A*3F
$GPGGA,085647.000,3114.486427,N,12129.982253,E,1,19,0.8,11.2,M,,M,,*7A
$GPRMC,085647.000,A,3114.486427,N,12129.982253,E,4.3,-42.215343997,200122,,E,A*3B
$GPGGA,085648.000,3114.486748,N,12129.981195,E,1,19,0.8,11.0,M,,M,,*77
$GPRMC,085648.000,A,3114.486748,N,12129.981195,E,4.0,-45.84255077899999,200122,,E,A*0A
$GPGGA,085649.000,3114.487206,N,12129.980417,E,1,19,0.8,11.0,M,,M,,*76
$GPRMC,085649.000,A,3114.487206,N,12129.980417,E,3.6,-47.698596816999995,200122,,E,A*39
$GPGGA,085650.000,3114.487894,N,12129.979571,E,1,19,0.8,11.1,M,,M,,*79
$GPRMC,085650.000,A,3114.487894,N,12129.979571,E,3.6,-47.395905563999996,200122,,E,A*35
$GPGGA,085651.000,3114.495040,N,12129.981376,E,1,19,0.8,17.2,M,,M,,*79
$GPRMC,085651.000,A,3114.495040,N,12129.981376,E,4.2,-30.263041918000003,200122,,E,A*3E
$GPGGA,085652.000,3114.495434,N,12129.980824,E,1,19,0.8,17.4,M,,M,,*76
$GPRMC,085652.000,A,3114.495434,N,12129.980824,E,2.5,310.08684899400004,200122,,E,A*11
$GPGGA,085653.000,3114.496118,N,12129.980096,E,1,19,0.8,17.7,M,,M,,*7D
$GPRMC,085653.000,A,3114.496118,N,12129.980096,E,3.8,-32.086395195,200122,,E,A*3D
$GPGGA,085654.000,3114.495917,N,12129.976805,E,1,19,0.8,20.4,M,,M,,*72
$GPRMC,085654.000,A,3114.495917,N,12129.976805,E,4.4,-36.220127428000005,200122,,E,A*39
$GPGGA,085655.000,3114.496910,N,12129.975964,E,1,19,0.8,20.4,M,,M,,*72
$GPRMC,085655.000,A,3114.496910,N,12129.975964,E,4.4,-36.119581258000004,200122,,E,A*38
$GPGGA,085656.000,3114.496635,N,12129.975058,E,1,19,0.8,19.9,M,,M,,*78
$GPRMC,085656.000,A,3114.496635,N,12129.975058,E,3.1,-51.123880414,200122,,E,A*39
$GPGGA,085657.000,3114.496457,N,12129.971223,E,1,19,0.8,25.0,M,,M,,*73
$GPRMC,085657.000,A,3114.496457,N,12129.971223,E,3.3,-36.946715973,200122,,E,A*33
$GPGGA,085658.000,3114.496535,N,12129.970887,E,1,19,0.8,24.9,M,,M,,*74
$GPRMC,085658.000,A,3114.496535,N,12129.970887,E,1.6,281.75421311900004,200122,,E,A*16
$GPGGA,085659.000,3114.496654,N,12129.970581,E,1,19,0.8,25.0,M,,M,,*72
$GPRMC,085659.000,A,3114.496654,N,12129.970581,E,1.1,297.708360413,200122,,E,A*2F
$GPGGA,085700.000,3114.495664,N,12129.965599,E,1,19,0.8,32.7,M,,M,,*73
$GPRMC,085700.000,A,3114.495664,N,12129.965599,E,1.6,287.908268274,200122,,E,A*29
$GPGGA,085701.000,3114.495594,N,12129.965278,E,1,19,0.8,32.9,M,,M,,*78
$GPRMC,085701.000,A,3114.495594,N,12129.965278,E,1.2,306.309044,200122,,E,A*16
$GPGGA,085702.000,3114.495975,N,12129.965313,E,1,19,0.8,33.3,M,,M,,*7F
$GPRMC,085702.000,A,3114.495975,N,12129.965313,E,1.0,294.634939176,200122,,E,A*2A
$GPGGA,085703.000,3114.496392,N,12129.965338,E,1,19,0.8,33.2,M,,M,,*76
$GPRMC,085703.000,A,3114.496392,N,12129.965338,E,0.7,297.085611078,200122,,E,A*21
$GPGGA,085704.000,3114.497104,N,12129.965825,E,1,19,0.8,33.6,M,,M,,*7E
$GPRMC,085704.000,A,3114.497104,N,12129.965825,E,0.7,296.707054669,200122,,E,A*20
$GPGGA,085705.000,3114.497248,N,12129.965661,E,1,19,0.8,33.6,M,,M,,*7A
$GPRMC,085705.000,A,3114.497248,N,12129.965661,E,0.7,309.847273276,200122,,E,A*25
$GPGGA,085706.000,3114.497385,N,12129.965498,E,1,19,0.8,33.6,M,,M,,*7D
$GPRMC,085706.000,A,3114.497385,N,12129.965498,E,0.7,332.478340374,200122,,E,A*28
$GPGGA,085707.000,3114.497522,N,12129.965335,E,1,19,0.8,33.6,M,,M,,*77
$GPRMC,085707.000,A,3114.497522,N,12129.965335,E,0.7,315.769812337,200122,,E,A*2F
$GPGGA,085708.000,3114.496971,N,12129.964616,E,1,19,0.8,35.1,M,,M,,*77
$GPRMC,085708.000,A,3114.496971,N,12129.964616,E,0.6,318.194283634,200122,,E,A*22
$GPGGA,085709.000,3114.497004,N,12129.964442,E,1,19,0.8,35.1,M,,M,,*7F
$GPRMC,085709.000,A,3114.497004,N,12129.964442,E,0.6,316.054877116,200122,,E,A*2F
$GPGGA,085710.000,3114.497754,N,12129.964310,E,1,19,0.8,36.6,M,,M,,*71
$GPRMC,085710.000,A,3114.497754,N,12129.964310,E,0.7,317.352093979,200122,,E,A*23
$GPGGA,085711.000,3114.495838,N,12129.964504,E,1,19,0.8,36.4,M,,M,,*76
$GPRMC,085711.000,A,3114.495838,N,12129.964504,E,0.9,309.312715345,200122,,E,A*2F
$GPGGA,085712.000,3114.495398,N,12129.964307,E,1,19,0.8,36.6,M,,M,,*73
$GPRMC,085712.000,A,3114.495398,N,12129.964307,E,1.0,302.11224787599997,200122,,E,A*14
$GPGGA,085713.000,3114.503045,N,12129.963175,E,1,19,0.8,42.5,M,,M,,*7F
$GPRMC,085713.000,A,3114.503045,N,12129.963175,E,0.3,315.36325215200003,200122,,E,A*14
$GPGGA,085714.000,3114.503314,N,12129.962727,E,1,19,0.8,42.6,M,,M,,*7C
$GPRMC,085714.000,A,3114.503314,N,12129.962727,E,0.7,337.06317321,200122,,E,A*15
$GPGGA,085715.000,3114.503488,N,12129.963191,E,1,19,0.8,42.5,M,,M,,*76
$GPRMC,085715.000,A,3114.503488,N,12129.963191,E,0.2,326.725244648,200122,,E,A*22
$GPGGA,085716.000,3114.503458,N,12129.963293,E,1,19,0.8,42.6,M,,M,,*7A
$GPRMC,085716.000,A,3114.503458,N,12129.963293,E,0.2,319.686160891,200122,,E,A*26
$GPGGA,085717.000,3114.506749,N,12129.962031,E,1,19,0.8,45.7,M,,M,,*70
$GPRMC,085717.000,A,3114.506749,N,12129.962031,E,0.8,318.4406349,200122,,E,A*26
$GPGGA,085718.000,3114.507522,N,12129.962495,E,1,19,0.8,45.6,M,,M,,*7A
$GPRMC,085718.000,A,3114.507522,N,12129.962495,E,1.4,336.90077863,200122,,E,A*10
$GPGGA,085719.000,3114.507966,N,12129.962659,E,1,19,0.8,45.6,M,,M,,*75
$GPRMC,085719.000,A,3114.507966,N,12129.962659,E,1.4,327.426814367,200122,,E,A*24
$GPGGA,085720.000,3114.512593,N,12129.962717,E,1,19,0.8,47.1,M,,M,,*73
$GPRMC,085720.000,A,3114.512593,N,12129.962717,E,2.6,329.513491825,200122,,E,A*23
$GPGGA,085721.000,3114.513340,N,12129.962576,E,1,19,0.8,47.1,M,,M,,*7E
$GPRMC,085721.000,A,3114.513340,N,12129.962576,E,3.1,3.681924263,200122,,E,A*20
$GPGGA,085722.000,3114.516797,N,12129.962319,E,1,19,0.8,47.9,M,,M,,*71
$GPRMC,085722.000,A,3114.516797,N,12129.962319,E,3.6,-0.041128215,200122,,E,A*01
$GPGGA,085723.000,3114.519458,N,12129.961983,E,1,19,0.8,48.7,M,,M,,*74
$GPRMC,085723.000,A,3114.519458,N,12129.961983,E,3.9,-0.82343769,200122,,E,A*34
$GPGGA,085724.000,3114.520067,N,12129.961940,E,1,19,0.8,48.7,M,,M,,*7E
$GPRMC,085724.000,A,3114.520067,N,12129.961940,E,3.3,-0.990873945,200122,,E,A*06
$GPGGA,085725.000,3114.520933,N,12129.961817,E,1,19,0.8,48.8,M,,M,,*7B
$GPRMC,085725.000,A,3114.520933,N,12129.961817,E,3.3,-2.972913442,200122,,E,A*0F
$GPGGA,085726.000,3114.521700,N,12129.959699,E,1,19,0.8,50.7,M,,M,,*72
$GPRMC,085726.000,A,3114.521700,N,12129.959699,E,2.3,311.91900628,200122,,E,A*15
$GPGGA,085727.000,3114.522414,N,12129.959497,E,1,19,0.8,50.8,M,,M,,*75
$GPRMC,085727.000,A,3114.522414,N,12129.959497,E,2.6,323.829544935,200122,,E,A*2D
$GPGGA,085728.000,3114.523096,N,12129.959297,E,1,19,0.8,50.9,M,,M,,*72
$GPRMC,085728.000,A,3114.523096,N,12129.959297,E,2.6,317.903017044,200122,,E,A*29
$GPGGA,085729.000,3114.523587,N,12129.958961,E,1,19,0.8,50.9,M,,M,,*75
$GPRMC,085729.000,A,3114.523587,N,12129.958961,E,2.4,325.713229168,200122,,E,A*22
$GPGGA,085730.000,3114.524602,N,12129.958705,E,1,19,0.8,50.9,M,,M,,*78
$GPRMC,085730.000,A,3114.524602,N,12129.958705,E,2.7,329.04089737,200122,,E,A*15
$GPGGA,085731.000,3114.525100,N,12129.958360,E,1,19,0.8,50.8,M,,M,,*7B
$GPRMC,085731.000,A,3114.525100,N,12129.958360,E,2.6,331.229781779,200122,,E,A*27
$GPGGA,085732.000,3114.525696,N,12129.957812,E,1,19,0.8,51.0,M,,M,,*78
$GPRMC,085732.000,A,3114.525696,N,12129.957812,E,2.6,314.814542069,200122,,E,A*25
$GPGGA,085733.000,3114.526180,N,12129.957252,E,1,19,0.8,51.0,M,,M,,*74
$GPRMC,085733.000,A,3114.526180,N,12129.957252,E,2.6,321.33081582,200122,,E,A*18
$GPGGA,085734.000,3114.527301,N,12129.955764,E,1,19,0.8,51.7,M,,M,,*7C
$GPRMC,085734.000,A,3114.527301,N,12129.955764,E,2.9,322.12732517,200122,,E,A*1B
$GPGGA,085735.000,3114.528017,N,12129.955192,E,1,19,0.8,51.9,M,,M,,*77
$GPRMC,085735.000,A,3114.528017,N,12129.955192,E,2.7,316.33144513900004,200122,,E,A*1A
$GPGGA,085736.000,3114.529054,N,12129.954603,E,1,19,0.8,52.5,M,,M,,*73
$GPRMC,085736.000,A,3114.529054,N,12129.954603,E,2.8,305.196242246,200122,,E,A*2D
