     3.04           OBSERVATION DATA    M: Mixed            RINEX VERSION / TYPE
Higeo_Hi1105        Huawei CBG          20220209 105537 UTC PGM / RUN BY / DATE 
************************************************************COMMENT             
* If you have any problem,                                 *COMMENT             
*     please contact with LBS Technology Group, thanks.    *COMMENT             
*                                                          *COMMENT             
* Version Higeo2RinexV1.1 2020.07.21                       *COMMENT             
* Fuction:  Convert Higeo Log to Rinex file                *COMMENT             
*                                                          *COMMENT             
* Note that the verision support B1C B2A signal            *COMMENT             
*     BDS: C1D L1D D1D S1D indicate BDS B1C                *COMMENT             
*     BDS: C5D L5D D5D S5D indicate BDS B2A                *COMMENT             
*     Reference: RINEX V3.04                               *COMMENT             
*                                                          *COMMENT             
* Copyright(C) Huawei Technologies Co., Ltd. 2019 - 2020   *COMMENT             
*     All rights reserved.                                 *COMMENT             
************************************************************COMMENT             
                                                            MARKER NAME         
                                                            MARKER NUMBER       
                                                            MARKER TYPE         
                                                            OBSERVER / AGENCY   
                                                            REC # / TYPE / VERS 
                                                            ANT # / TYPE        
        0.0000        0.0000        0.0000                  APPROX POSITION XYZ 
        0.0000        0.0000        0.0000                  ANTENNA: DELTA H/E/N
G    8 C1C L1C D1C S1C C5I L5I D5I S5I                      SYS / # / OBS TYPES 
R    4 C1C L1C D1C S1C                                      SYS / # / OBS TYPES 
E    8 C1C L1C D1C S1C C5I L5I D5I S5I                      SYS / # / OBS TYPES 
J    8 C1C L1C D1C S1C C5I L5I D5I S5I                      SYS / # / OBS TYPES 
C   12 C2I L2I D2I S2I C1D L1D D1D S1D C5D L5D D5D S5D      SYS / # / OBS TYPES 
  2022     1    25     6    53   56.0000000     GPS         TIME OF FIRST OBS   
  2022     1    25     7    16   20.0000000     GPS         TIME OF LAST OBS    
G                                                           SYS / PHASE SHIFT   
R                                                           SYS / PHASE SHIFT   
E                                                           SYS / PHASE SHIFT   
J                                                           SYS / PHASE SHIFT   
C                                                           SYS / PHASE SHIFT   
  0                                                         GLONASS SLOT / FRQ #
 C1C    0.000 C1P    0.000 C2C    0.000 C2P    0.000        GLONASS COD/PHS/BIS 
                                                            END OF HEADER       
> 2022  1 25  6 53 56.0000000  0  2                     
G 8  21659464.159      -17453.912       -2102.221          29.000                                                                  
G27  20041100.850        -280.912        -302.674          27.000                                                                  
> 2022  1 25  6 53 58.0000000  0  7                     
G 4  21213868.580        4596.321         897.155          33.000                                                                  
G 8  21659063.370      -28512.901       -2105.438          22.000                                                                  
G 9  22955370.470       -3563.583       -1049.528          30.000                                                                  
G16  20563440.068       10847.451        1665.818          29.000                                                                  
G18  24283620.356        5286.627        1168.789          19.000                                                                  
G26  22139779.069       13166.975        2751.254          26.000                                                                  
G27  20041057.603       -1850.982        -296.963          20.000                                                                  
> 2022  1 25  6 53 59.0000000  0  9                     
G 4  21214037.646        9309.762         894.998          37.000                                                                  
G 8  21658663.540      -39581.952       -2107.715          34.000                                                                  
G 9  22955174.355       -9073.915       -1046.845          32.000                                                                  
G16  20563759.843       19614.257        1669.296          29.000                                                                  
G18  24360021.824       11424.398        1163.899          32.000                                                                  
G26  22140304.809       27614.908        2747.279          29.000                                                                  
G27  20041000.400       -3404.717        -294.615          29.000                                                                  
G31  23442542.546       15126.780        3326.806          19.000                                                                  
R 3  22264078.716                                          33.000  
> 2022  1 25  6 54  0.0000000  0 11                     
G 4  21214207.969       14012.431         895.180          33.000                                                                  
G 8  21658264.051      -50654.520       -2109.611          32.000                                                                  
G 9  22954974.175      -14586.158       -1048.811          29.000                                                                  
G16  20564078.493       28379.187        1664.829          32.000                                                                  
G18  24360242.055       17539.871        1161.524          32.000                                                                  
G26  22140826.470       42066.136        2750.586          27.000                                                                  
G27  20040938.303       -4946.529        -293.934          32.000                                                                  
G31  23394708.289       32607.926        3324.668          24.000                                                                  
R 3  22264870.964                                          29.000  
R24  20881118.532                                          20.000  
C11  23717183.214      -11058.083       -2198.405          27.000                                                                                                                                  
> 2022  1 25  6 54  1.0000000  0 11                     
G 4  21214378.353       18713.151         893.348          31.000                                                                  
G 8  21657863.602      -61737.073       -2108.628          32.000                                                                  
G 9  22954776.874      -20098.994       -1049.517          30.000                                                                  
G16  20564396.610       37123.328        1664.393          34.000                                                                  
G18  24360460.881       23640.124        1163.087          31.000                                                                  
G26  22141345.727       56511.365        2746.536          30.000                                                                  
G27  20040877.772       -6512.508        -297.574          36.000                                                                  
G31  23395333.430       50077.348        3324.522          24.000                                                                  
R 3  22265652.551                                          33.000  
R24  20880649.516                                          18.000  
C11  23716756.764      -22586.673       -2221.665          23.000                                                                                                                                  
> 2022  1 25  6 54  2.0000000  0 12                     
G 4  21214547.384       23405.417         893.687          30.000                                                                  
G 8  21657461.278      -72820.758       -2110.937          28.000                                                                  
G 9  22954576.703      -25625.059       -1051.303          27.000                                                                  
G16  20564713.855       45869.343        1662.427          24.000                                                                  
G18  24360682.743       29746.775        1160.989          22.000                                                                  
G26  22141866.922       70936.997        2745.156          28.000                                                                  
G27  20040818.881       -8077.024        -298.848          26.000                                                                  
G31  23395966.271       67538.429        3320.737          21.000                                                                  
R 3  22266432.767                                          30.000  
R24  20880159.095                                          20.000  
C11  23716327.620      -34235.528       -2241.858          25.000                                                                                                                                  
C25  22963493.356       -5935.674        -896.948          32.000                                                                                                                                  
> 2022  1 25  6 54  3.0000000  0 12                     
G 4  21214713.066       28079.665         886.481          30.000                                                                  
G 8  21657059.756      -83907.974       -2108.091          29.000                                                                  
G 9  22954376.566      -31167.339       -1059.754          29.000                                                                  
G16  20565030.393       54599.553        1658.194          32.000                                                                  
G18  24360904.135       35832.234        1154.575          27.000                                                                  
G26  22142389.809       85348.802        2739.905          30.000                                                                  
G27  20040761.335       -9644.678        -300.002          28.000                                                                  
G31  23396601.328       84992.889        3321.073          20.000                                                                  
R 3  22267209.991                                          26.000  
R24  20879642.316                                          20.000  
C11  23715906.318      -45967.841       -2252.417          15.000                                                                                                                                  
C25  22963320.738      -10615.446        -901.260          30.000                                                                                                                                  
> 2022  1 25  6 54  4.0000000  0 11                     
G 4  21214882.581       32742.581         889.397          31.000                                                                  
G 8  21656658.260      -94993.532       -2109.413          23.000                                                                  
G 9  22954174.711      -36734.090       -1057.470          27.000                                                                  
G16  20565344.621       63320.742        1660.490          30.000                                                                  
G18  24361122.987       41898.449        1153.098          19.000                                                                  
G26  22142911.888       99744.673        2738.107          30.000                                                                  
G27  20040704.132      -11208.834        -295.499          29.000                                                                  
G31  23397233.802      102448.093        3321.045          19.000                                                                  
R 3  22267986.910                                          21.000  
C11  23715473.351      -57685.501       -2248.978          18.000                                                                                                                                  
C25  22963148.278      -15299.285        -897.473          29.000                                                                                                                                  
> 2022  1 25  6 54  5.0000000  0 11                     
G 4  21215052.441       37418.353         894.592          26.000                                                                  
G 8  21656257.253     -106082.447       -2111.610          23.000                                                                  
G 9  22953974.601      -42295.287       -1056.537          25.000                                                                  
G16  20565661.404       72043.121        1662.292          27.000                                                                  
G18  24361341.995       47963.696        1152.824          25.000                                                                  
G26  22143433.746      114126.259           0.005          25.000                                                                  
G27  20040648.199      -12762.614        -294.374          24.000                                                                  
G31  23397865.928      119904.553        3320.100          21.000                                                                  
R 3  22268764.108                                          20.000  
C11  23715028.910      -69400.986       -2249.536          21.000                                                                                                                                  
C25  22962976.044      -19987.471        -903.442          25.000                                                                                                                                  
> 2022  1 25  6 54  6.0000000  0 12                     
G 4  21215221.150       42105.915         891.153          22.000                                                                  
G 8  21655855.670     -117176.620       -2110.510          19.000                                                                  
G 9  22953775.712      -47861.683       -1058.301          28.000                                                                  
G16  20565978.666       80753.629        1655.775          35.000                                                                  
G18  24361554.897       54033.048        1155.107          24.000                                                                  
G26  22143951.328      128531.217        2744.091          28.000                                                                  
G27  20040592.938      -14322.440        -297.422          22.000                                                                  
G31  23398501.159      137370.195        3324.447          21.000                                                                  
R 3  22269540.809                                          17.000  
R12  23281742.221                                          21.000  
C11  23714596.973      -81119.881       -2251.312          19.000                                                                                                                                  
C25  22962802.563      -24695.241        -905.240          23.000                                                                                                                                  
> 2022  1 25  6 54  7.0000000  0 12                     
G 4  21215390.679       46769.342         886.049          29.000                                                                  
G 8  21655455.099     -128273.544       -2113.751          27.000                                                                  
G 9  22953573.970      -53446.035       -1062.927          27.000                                                                  
G16  20566293.267       89443.325        1655.302          29.000                                                                  
G18  24361774.003       60107.837        1155.663          22.000                                                                  
G26  22144471.100      142943.202        2741.913          29.000                                                                  
G27  20040535.954      -15892.871        -298.469          22.000                                                                  
G31  23399133.904      154836.402        3322.385          20.000                                                                  
R 3  22270317.073                                          17.000  
R12  23282265.370                                          20.000  
C11  23714165.237      -92858.891       -2256.242          18.000                                                                                                                                  
C25  22962629.291      -29407.626        -904.738          22.000                                                                                                                                  
> 2022  1 25  6 54  8.0000000  0 12                     
G 4  21215559.920       51416.594         885.280          27.000                                                                  
G 8  21655051.824     -139373.182       -2111.573          27.000                                                                  
G 9  22953370.544      -59015.293       -1057.301          33.000                                                                  
G16  20566609.788       98146.394        1659.926          29.000                                                                  
G18  24361990.412       66181.714        1155.566          23.000                                                                  
G26  22144988.058      157349.215        2735.228          34.000                                                                  
G27  20040478.948      -17463.503        -298.851          23.000                                                                  
G31  23399769.109      172276.601           0.002          25.000                                                                  
R 3  22271108.389                                          14.000  
R12  23282792.026                                          22.000  
C11  23713732.671     -104599.822       -2254.560          18.000                                                                                                                                  
C25  22962455.670      -34113.377        -903.359          25.000                                                                                                                                  
> 2022  1 25  6 54 10.0000000  0 12                     
G 4  21215859.427       59661.736         891.909          27.000                                                                  
G 8  21654342.157     -158962.232       -2109.745          30.000                                                                  
G 9  22953013.547      -68843.879       -1059.701          30.000                                                                  
G16  20567166.441      113507.951        1657.761          29.000                                                                  
G18  24362380.738       76872.998        1152.624          24.000                                                                  
G26  22145914.202      182703.246        2738.577          27.000                                                                  
G27  20040376.758      -20246.064        -302.964          23.000                                                                  
G31  23400882.564      203012.527        3316.470          31.000                                                                  
R 3  22272477.419                                          15.000  
R12  23283718.249                                          19.000  
R24  20876314.572                                          20.000  
C11  23712965.889     -125306.883       -2253.515          22.000                                                                                                                                  
> 2022  1 25  6 54 11.0000000  0 18                     
G 4  21216029.854       64349.797         890.736          27.000                                                                  
G 8  21653940.548     -170051.655       -2111.083          23.000                                                                  
G 9  22952811.125      -74407.196       -1064.161          31.000                                                                  
G16  20567481.934      122221.483        1652.994          24.000                                                                  
G18  24362600.132       82931.536        1152.606          19.000                                                                  
G26  22146429.585      197094.451        2741.145          30.000                                                                  
G27  20040320.051      -21835.905        -302.359          23.000                                                                  
G31  23401514.533      220458.601        3321.273          22.000                                                                  
R 3  22273253.491                                          15.000  
R12  23284245.403                                          18.000  
R24  20875827.955                                          17.000  
E36  26815946.069        5975.856        1418.272          21.000                                                                  
C 7  36420332.768        6010.427         763.685          21.000                                                                                                                                  
C 9  35871944.084        4950.728         779.456          20.000                                                                                                                                  
C11  23712532.984     -137043.566       -2254.634          21.000                                                                                                                                  
C24  22686935.388        9897.688        1406.927          32.000                                                                                                                                  
C26  25470269.702       37162.806        2775.187          20.000                                                                                                                                  
C34  22444358.415       -9473.219       -1315.602          20.000                                                                                                                                  
> 2022  1 25  6 54 12.0000000  0 24                     
G 4  21216197.743       69009.005         884.949          30.000                                                                  
G 8  21653536.086     -181165.451       -2117.549          28.000                                                                  
G 9  22952610.630      -79996.091       -1064.865          27.000                                                                  
G16  20567796.902      130922.690        1656.196          29.000                                                                  
G18  24362818.862       88991.304        1153.625          20.000                                                                  
G26  22146946.321      211505.539        2739.698          28.000                                                                  
G27  20040263.603      -23421.426        -302.960          26.000                                                                  
G31  23402144.306      237895.740        3317.495          19.000                                                                  
R 3  22274029.633                                          13.000  
R12  23284770.663                                          19.000  
R24  20875334.812                                          21.000  
E 8  26107120.576       47367.535        3590.129          30.000                                                                  
E36  26816222.166       13418.215        1414.493          22.000                                                                  
J 1  37012595.674       93103.843        1298.352          26.000                                                                  
J 2  39287393.883        5675.416         544.192          26.000                                                                  
J 3  37236011.588       66203.030         967.324          27.000                                                                  
C 7  36420494.168        9989.387         763.268          23.000                                                                                                                                  
C 9  35872086.750        9001.817         776.590          22.000                                                                                                                                  
C10  37265149.125        5403.239         697.742          25.000                                                                                                                                  
C11  23712100.497     -148774.273       -2257.164          20.000                                                                                                                                  
C24  22687206.285       17231.709        1409.600          30.000                                                                                                                                  
C25  22961812.261      -11800.138        -901.887          17.000                                                                                                                                  
C26  25470801.401       51601.018        2773.767          21.000                                                                                                                                  
C34  22444103.651      -16323.113       -1315.958          24.000                                                                                                                                  
> 2022  1 25  6 54 13.0000000  0 25                     
G 4  21216365.614       73660.114         886.565          24.000                                                                  
G 8  21653134.214     -192282.694       -2116.712          22.000                                                                  
G 9  22952407.815      -85579.585       -1056.415          32.000                                                                  
G16  20568112.891      139632.125        1655.711          27.000                                                                  
G18  24363035.201       95061.116        1156.232          24.000                                                                  
G26  22147460.199      225898.194        2737.549          32.000                                                                  
G27  20040205.212      -24999.796        -300.128          21.000                                                                  
G31  23402778.264      255331.165        3316.497          23.000                                                                  
R 3  22274805.697                                          14.000  
R12  23285296.351                                          17.000  
R24  20874838.754                                          20.000  
E 2  26100258.991       14169.086        2222.997          27.000                                                                  
E 8  26107804.127       66244.044        3590.513          20.000                                                                  
E36  26816506.081       20846.627        1414.086          25.000                                                                  
J 1  37012842.865       99931.401        1298.497          21.000                                                                  
J 2  39287499.086        8532.472         542.212          30.000                                                                  
J 3  37236196.299       71268.480         963.352          25.000                                                                  
C 7  36420640.151       13968.589         764.620          21.000                                                                                                                                  
C 9  35872234.521       13047.672         776.857          23.000                                                                                                                                  
C10  37265283.478        9041.326         699.565          21.000                                                                                                                                  
C11  23711667.215     -160526.248       -2256.593          23.000                                                                                                                                  
C24  22687476.859       24549.274        1402.125          28.000                                                                                                                                  
C25  22961639.417      -16503.153        -904.291          17.000                                                                                                                                  
C26  25471333.371       66036.594        2769.489          20.000                                                                                                                                  
C34  22443861.372      -23184.581       -1319.720          22.000                                                                                                                                  
> 2022  1 25  6 54 14.0000000  0 26                     
G 4  21216532.163       78316.761         886.923          25.000                                                                  
G 8  21652729.237     -203400.207       -2116.093          27.000                                                                  
G 9  22952206.335      -91121.964       -1055.778          26.000                                                                  
G16  20568427.858      148341.869        1659.520          26.000                                                                  
G18  24363253.817      101143.166        1158.805          23.000                                                                  
G26  22147980.713      240286.976        2734.468          25.000                                                                  
G27  20040147.002      -26582.206        -301.150          24.000                                                                  
G31  23403410.433      272768.968        3319.033          24.000                                                                  
R 3  22275581.830                                          15.000  
R12  23285823.215                                          18.000  
R24  20874353.193                                          26.000  
E 2  26100681.967       25880.194        2231.366          29.000                                                                  
E 8  26108489.449       85117.900        3590.543          24.000                                                                  
E36  26816777.407       28292.794        1417.412          20.000                                                                  
J 1  37013091.146      106759.164        1301.151          23.000                                                                  
J 2  39287603.373       11376.976         538.023          24.000                                                                  
J 3  37236380.259       76342.398         965.099          21.000                                                                  
C 7  36420785.533       17941.359         761.387          24.000                                                                                                                                  
C 9  35872384.409       17097.349         778.797          20.000                                                                                                                                  
C10  37265420.192       12696.565         701.500          22.000                                                                                                                                  
C11  23711234.109     -172272.914       -2257.275          20.000                                                                                                                                  
C12  22174315.801        1513.717         232.336          22.000                                                                                                                                  
C24  22687746.299       31853.036        1403.771          25.000                                                                                                                                  
C25  22961466.031      -21204.921        -901.810          17.000                                                                                                                                  
C26  25471864.861       80460.146        2769.214          22.000                                                                                                                                  
C34  22443606.642      -30046.672       -1315.057          26.000                                                                                                                                  
> 2022  1 25  6 54 15.0000000  0 26                     
G 4  21216701.840       82981.856         888.404          26.000                                                                  
G 8  21652327.768     -214522.800       -2117.813          23.000                                                                  
G 9  22952003.040      -96653.450       -1052.418          33.000                                                                  
G16  20568742.233      157052.707        1660.041          27.000                                                                  
G18  24363474.475      107235.677        1157.942          19.000                                                                  
G26  22148501.462      254671.643        2735.442          24.000                                                                  
G27  20040089.082      -28164.746        -301.676          22.000                                                                  
G31  23404043.919      290211.810        3316.797          25.000                                                                  
R 3  22276357.972                                          15.000  
R12  23286346.129                                          18.000  
R24  20873859.886                                          20.000  
E 2  26101106.496       37599.446        2230.320          22.000                                                                  
E 8  26109174.501      103984.219        3589.782          20.000                                                                  
E36  26817047.877       35760.169        1422.432          20.000                                                                  
J 1  37013337.003      113585.682        1295.430          24.000                                                                  
J 2  39287706.491       14204.318         537.516          25.000                                                                  
J 3  37236564.507       81420.873         966.644          20.000                                                                  
C 7  36420931.176       21905.221         761.395          21.000                                                                                                                                  
C 9  35872533.567       21154.409         778.396          22.000                                                                                                                                  
C10  37265556.740       16347.572         701.348          20.000                                                                                                                                  
C11  23710801.011     -184023.261       -2257.928          20.000                                                                                                                                  
C12  22174361.730        2739.277         237.773          24.000                                                                                                                                  
C24  22688017.441       39168.496        1403.682          24.000                                                                                                                                  
C25  22961291.965      -25903.555        -901.096          16.000                                                                                                                                  
C26  25472397.067       94892.705        2773.193          22.000                                                                                                                                  
C34  22443353.422      -36895.346       -1315.537          23.000                                                                                                                                  
> 2022  1 25  6 54 16.0000000  0 27                     
G 4  21216869.850       87645.997         888.626          23.000                                                                  
G 8  21651930.391     -225647.305       -2116.295          29.000                                                                  
G 9  22951803.828     -102197.089       -1056.976          23.000                                                                  
G16  20569056.555      165752.841        1653.500          30.000                                                                  
G18  24363695.161      113333.671        1161.583          20.000                                                                  
G26  22149020.476      269057.351        2738.935          32.000                                                                  
G27  20040032.610      -29749.337        -300.674          22.000                                                                  
G31  23404676.010      307646.693        3317.584          28.000                                                                  
R 3  22277134.255                                          14.000  
R12  23286871.118                                          19.000  
R24  20873369.055                                          21.000  
E 2  26101531.487       49314.902        2228.942          26.000                                                                  
E 8  26109859.126      122854.968        3591.708          24.000                                                                  
E15  26970824.539       -5285.149       -2166.183          29.000                                                                  
E30  23903255.173        6462.448         964.305          28.000                                                                  
E36  26817318.879       43216.180        1418.650          24.000                                                                  
J 1  37013585.485      120400.828        1296.383          26.000                                                                  
J 2  39287808.920       17035.372         539.924          23.000                                                                  
J 3  37236749.854       86502.311         966.833          21.000                                                                  
C 9  35872682.653       25201.446         775.755          22.000                                                                                                                                  
C10  37265691.482       19999.848         702.842          22.000                                                                                                                                  
C11  23710368.254     -195783.408       -2257.560          24.000                                                                                                                                  
C12  22174405.417        3969.524         234.668          22.000                                                                                                                                  
C24  22688287.701       46496.927        1407.987          30.000                                                                                                                                  
C25  22961118.798      -30599.868        -902.212          16.000                                                                                                                                  
C26  25472928.923      109336.110        2774.866          29.000                                                                                                                                  
C34  22443100.942      -43748.185       -1315.500          23.000                                                                                                                                  
> 2022  1 25  6 54 17.0000000  0 29                     
G 4  21217038.123       92313.708         889.158          23.000                                                                  
G 8  21651525.806     -236772.054       -2119.210          25.000                                                                  
G 9  22951602.767     -107751.006       -1055.708          23.000                                                                  
G16  20569370.964      174462.560        1653.734          32.000                                                                  
G18  24363914.589      119436.673        1160.179          21.000                                                                  
G26  22149540.505      283458.502        2739.424          30.000                                                                  
G27  20039976.197      -31324.086        -299.013          25.000                                                                  
G31  23405309.008      325098.071        3320.767          23.000                                                                  
R 3  22277910.258                                          15.000  
R12  23287392.784                                          18.000  
R24  20872879.237                                          20.000  
E 2  26101954.742       61022.251        2228.070          28.000                                                                  
E 7  24685097.456        6134.286        1840.031          24.000                                                                  
E 8  26110544.012      141721.789        3589.029          22.000                                                                  
E15  26970399.819      -16661.709       -2166.320          27.000                                                                  
E30  23903438.750       11528.495         963.837          29.000    23903438.980        2306.813         722.488          19.000  
E36  26817588.031       50653.581        1416.041          24.000                                                                  
J 1  37013834.639      127205.556        1294.777          27.000                                                                  
J 2  39287912.291       19868.272         536.981          30.000                                                                  
J 3  37236934.696       91589.016         967.546          20.000                                                                  
C 7  36421226.239        6516.325         759.544          19.000                                                                                                                                  
C 9  35872831.801       29242.150         776.893          21.000                                                                                                                                  
C10  37265826.128       23656.067         700.901          20.000                                                                                                                                  
C11  23709936.221     -207541.377       -2257.205          25.000                                                                                                                                  
C12  22174450.919        5181.691         232.226          21.000                                                                                                                                  
C24  22688558.974       53840.966        1407.748          31.000                                                                                                                                  
C25  22960945.596      -35296.758        -900.288          16.000                                                                                                                                  
C26  25473462.263      123798.777        2777.947          23.000                                                                                                                                  
C34  22442848.245      -50602.638       -1316.640          27.000                                                                                                                                  
> 2022  1 25  6 54 18.0000000  0 29                     
G 4  21217206.474       96988.573         889.851          21.000                                                                  
G 8  21651122.871     -247891.926       -2114.727          25.000                                                                  
G 9  22951401.496     -113302.953       -1057.222          17.000                                                                  
G16  20569685.646      183149.740        1654.634          34.000                                                                  
G18  24364131.818      125533.597        1159.761          26.000                                                                  
G26  22150059.649      297848.266        2735.925          36.000                                                                  
G27  20039917.734      -32901.987        -300.013          23.000                                                                  
G31  23405943.777      342541.688        3318.577          25.000                                                                  
R 3  22278685.736                                          16.000  
R12  23287915.715                                          17.000  
R24  20872388.746                                          23.000  
E 2  26102379.201       72729.135        2225.283          22.000                                                                  
E 7  24685447.062       15787.177        1836.997          22.000                                                                  
E 8  26111226.533      160578.060        3584.133          22.000                                                                  
E15  26969988.142      -28037.586       -2165.128          26.000                                                                  
E30  23903622.537       16600.503         965.327          33.000    23903624.389        5128.226         716.573          20.000  
E36  26817856.476       58096.523        1418.391          24.000                                                                  
J 1  37014081.708      134009.805        1294.312          25.000                                                                  
J 2  39288014.545       22680.007         536.641          26.000    39288020.411        3242.441         402.380          20.000  
J 3  37237120.698       96684.800         969.928          22.000                                                                  
C 7  36421368.942        3912.485         757.487          24.000                                                                                                                                  
C 9  35872980.879       33288.243         775.982          24.000                                                                                                                                  
C10  37265960.468       27296.575         698.485          18.000                                                                                                                                  
C11  23709503.070     -219297.985       -2259.907          23.000                                                                                                                                  
C12  22174498.156        6392.547         232.995          25.000                                                                                                                                  
C24  22688828.571       61146.824        1403.196          28.000                                                                                                                                  
C25  22960772.115      -39991.033        -901.853          17.000                                                                                                                                  
C26  25473995.812      138264.985        2777.424          18.000                                                                                                                                  
C34  22442594.842      -57451.615       -1314.393          27.000                                                                                                                                  
> 2022  1 25  6 54 19.0000000  0 29                     
G 4  21217375.287      101653.911         888.468          19.000                                                                  
G 8  21650719.805     -259014.662       -2116.218          23.000                                                                  
G 9  22951200.068     -118866.366       -1060.361          18.000                                                                  
G16  20569999.174      191847.194        1651.025          29.000                                                                  
G18  24364351.804      131617.999        1158.405          28.000                                                                  
G26  22150580.145      312247.794        2736.706          33.000                                                                  
G27  20039861.762      -34476.251        -298.745          24.000                                                                  
G31  23406575.545      359969.739        3315.781          22.000                                                                  
R 3  22279461.425                                          16.000  
R12  23288439.492                                          16.000  
R24  20871897.454                                          21.000  
E 2  26102812.883        7864.980        2225.764          23.000                                                                  
E 7  24685797.088       25446.476        1839.099          24.000                                                                  
E 8  26111909.456      179429.939        3588.567          20.000                                                                  
E15  26969577.634      -39414.070       -2165.246          25.000                                                                  
E30  23903806.960       21677.936         966.864          28.000    23903808.577        7967.101         722.436          19.000  
E36  26818126.291       65560.603        1419.497          24.000                                                                  
J 1  37014331.237      140826.761        1297.366          21.000                                                                  
J 2  39288118.867       25528.358         540.731          27.000    39288122.831        4828.190         401.345          23.000  
J 3  37237306.333      101784.517         969.612          21.000                                                                  
C 7  36421504.351        7850.441         756.528          19.000                                                                                                                                  
C 9  35873129.792       37330.699         774.401          21.000                                                                                                                                  
C10  37266094.783       30929.933         698.760          17.000                                                                                                                                  
C11  23709069.580     -231055.918       -2258.883          20.000                                                                                                                                  
C12  22174542.611        7617.730         233.417          21.000                                                                                                                                  
C24  22689098.700       68461.591        1405.883          29.000                                                                                                                                  
C25  22960597.988      -44687.580        -901.610          17.000                                                                                                                                  
C26  25474529.562      152732.267        2776.344          19.000                                                                                                                                  
C34  22442342.459      -64297.811       -1318.672          20.000                                                                                                                                  
> 2022  1 25  6 54 20.0000000  0 29                     
G 4  21217544.467      106324.871         890.850          18.000                                                                  
G 8  21650317.446     -270134.700       -2116.156          19.000                                                                  
G 9  22951002.558     -124436.816       -1059.181          17.000                                                                  
G16  20570311.611      200525.262        1657.375          30.000                                                                  
G18  24364570.517      137718.159        1162.833          28.000                                                                  
G26  22151099.385      326639.613        2742.590          33.000                                                                  
G27  20039803.796      -36047.130        -301.355          24.000                                                                  
G31  23407206.091      377391.338        3314.964          23.000                                                                  
R 3  22280237.113                                          17.000  
R12  23288963.993                                          19.000  
R24  20871407.941                                          25.000  
E 2  26103234.410       19550.096        2226.405          27.000                                                                  
E 7  24686146.511       35092.978        1834.827          20.000                                                                  
E 8  26112592.807      198290.186        3588.390          19.000                                                                  
E15  26969165.634      -50790.581       -2164.874          24.000                                                                  
E30  23903990.983       26761.172         966.353          29.000    23903991.824       10795.419         720.073          20.000  
E36  26818395.174       73017.156        1424.426          23.000                                                                  
J 1  37014578.429      147640.576        1295.293          24.000                                                                  
J 2  39288221.627       28361.563         540.571          27.000    39288225.652        6399.026         400.440          18.000  
J 3  37237490.642      106874.920         968.390          22.000                                                                  
C 7  36421649.593       11796.084         756.599          20.000                                                                                                                                  
C 9  35873278.505       41374.401         777.085          20.000                                                                                                                                  
C10  37266228.791       34562.674         699.201          17.000                                                                                                                                  
C11  23708636.020     -242824.545       -2262.128          20.000                                                                                                                                  
C12  22174587.868        8838.456         236.135          25.000                                                                                                                                  
C24  22689370.234       75777.935        1405.680          30.000                                                                    22689364.097        5234.407        1062.509          25.000  
