     3.03           OBSERVATION DATA    M: Mixed            RINEX VERSION / TYPE
Geo++ RINEX Logger  Geo++               20210912 103229 UTC PGM / RUN BY / DATE
************************************************************COMMENT
This file was generated by the Geo++ RINEX Logger App       COMMENT
for Android devices (Version 2.1.6). If you encounter       COMMENT
any issues, please send an email to android@geopp.de        COMMENT
Filtering Mode: BEST                                        COMMENT
************************************************************COMMENT
Geo++                                                       MARKER NAME
GEODETIC                                                    MARKER TYPE
Geo++               Geo++                                   OBSERVER / AGENCY
unknown             HUAWEI              ELS-AN00            REC # / TYPE / VERS
unknown             ELS-AN00                                ANT # / TYPE
 -2417118.4222  5385886.7706  2406605.1688                  APPROX POSITION XYZ
        0.0000        0.0000        0.0000                  ANTENNA: DELTA H/E/N
G    8 C1C L1C D1C S1C C5Q L5Q D5Q S5Q                      SYS / # / OBS TYPES
R    4 C1C L1C D1C S1C                                      SYS / # / OBS TYPES
E   12 C1B L1B D1B S1B C1C L1C D1C S1C C5Q L5Q D5Q S5Q      SYS / # / OBS TYPES
C    4 C2I L2I D2I S2I                                      SYS / # / OBS TYPES
J    8 C1C L1C D1C S1C C5Q L5Q D5Q S5Q                      SYS / # / OBS TYPES
  2021     9    12    10    32   47.9998602     GPS         TIME OF FIRST OBS
 24 R01  1 R02 -4 R03  5 R04  6 R05  1 R06 -4 R07  5 R08  6 GLONASS SLOT / FRQ #
    R09 -2 R10 -5 R11  0 R12 -1 R13 -2 R14 -7 R15  0 R16 -1 GLONASS SLOT / FRQ #
    R17  4 R18 -3 R19  3 R20  2 R21  4 R22 -3 R23  3 R24  2 GLONASS SLOT / FRQ #
G L1C                                                       SYS / PHASE SHIFT
G L5Q -0.25000                                              SYS / PHASE SHIFT
R L1C                                                       SYS / PHASE SHIFT
E L1B                                                       SYS / PHASE SHIFT
E L1C +0.50000                                              SYS / PHASE SHIFT
E L5Q -0.25000                                              SYS / PHASE SHIFT
C L2I                                                       SYS / PHASE SHIFT
J L1C                                                       SYS / PHASE SHIFT
J L5Q -0.25000                                              SYS / PHASE SHIFT
 C1C    0.000 C1P    0.000 C2C    0.000 C2P    0.000        GLONASS COD/PHS/BIS
                                                            END OF HEADER
> 2021  9 12 10 32 47.9998602  3  1
Geo++                                                       MARKER NAME
> 2021  9 12 10 32 47.9998602  0 15
C06  36695192.247   191081494.6571       -391.758          36.000  
C08  37871668.989   197207718.1261      -2043.702          30.000  
C09  37683092.338   196225750.5531       -493.864          26.000  
C13  36958219.057   192451144.3641      -1812.047          31.000  
C16  37341481.530   194446892.7971       -366.211          19.000  
C23  23926732.568   124592774.4351       2018.016          33.000  
C25  21807294.924   113556307.0461       -495.476          24.000  
C33  22250473.318                        -577.240          31.000  
G10  20151131.662   105894911.2791       -184.133          41.000    20151136.159    79077386.2121       -137.117          23.000  
G12  22426072.853   117849807.3371      -1807.700          21.000  
G25  20787162.647   109237276.7621        -83.941          29.000  
G31  21807452.914   114598938.0311       1430.286          35.000  
G32                                                                  21817474.077    85616454.0231        682.533          24.000  
J01  38045300.686   199929403.5721        841.015          33.000  
R12  19086458.320   101956433.7371       -784.213          38.000  
> 2021  9 12 10 32 48.9998600  0 13
C06  36695206.937   191081573.375        -391.535          36.000  
C08  37872001.159   197209449.638       -2043.873          32.000  
C09  37683130.412   196225932.470        -494.106          26.000  
C13  36958509.556   192452644.803       -1813.709          32.000  
C23  23926287.376   124590444.845        2018.248          33.000  
C33  22250525.182   115864316.4951       -576.194          32.000  
G10  20151110.377   105894781.658        -185.968          40.000  
G12  22426356.157   117851299.096       -1806.389          21.000  
G23  21196731.308   111389574.4671      -2573.277          25.000  
G31  21807122.543   114597194.508        1426.981          35.000  
G32  21817218.054   114650254.3701        913.546          31.000    21817240.239    85615536.913         681.367          23.000  
J01  38045081.838   199928247.808         840.438          35.000  
R12  19086553.354   101956941.758        -785.565          37.000  
> 2021  9 12 10 32 49.9998597  0 16
C06  36695192.547   191081496.015        -391.710          35.000  
C08  37872303.050   197211025.101       -2042.996          33.000  
C09  37683137.906   196225958.218        -493.879          25.000  
C13  36958767.678   192453990.141       -1813.742          31.000  
C16  37341471.038   194446840.5811       -362.427          19.000  
C23  23925810.706   124587959.464        2016.977          33.000  
C24  24470178.348   127422639.5361      -2996.581          20.000  
C25  21807336.895   113556517.3651       -496.072          27.000  
C33  22250551.863   115864424.704        -577.446          34.000  
G10  20151054.016   105894495.241        -185.891          40.000  
G12  22426611.880   117852634.975       -1810.208          23.000  
G23  21197128.833   111391675.333       -2572.980          24.000  
G31  21806760.394   114595293.916        1427.559          35.000  
G32  21816953.937   114648870.777         910.692          33.000    21816976.721    85614502.792         681.219          26.000  
J01  38044827.314                         841.261          34.000  
R12  19086605.218   101957218.672        -785.911          36.000  
> 2021  9 12 10 32 50.9998597  0 14
C06  36695265.696   191081886.633        -390.054          35.000  
C08  37872697.277   197213069.416       -2045.317          32.000  
C13  36959116.336   192455803.212       -1812.634          30.000  
C16  37341544.487   194447203.298        -363.044          19.000  
C23  23925420.076   124585942.482        2019.018          36.000  
C24  24470752.750   127425635.907       -2996.292          21.000  
C25  21807434.327   113557013.934        -496.538          29.000  
C33  22250660.089   115865000.921        -576.542          34.000  
E21                                                                                                                                  24179645.280    94886121.5121       -587.471          32.000  
G10  20151087.892   105894681.643        -185.492          39.000  
G12  22426953.343   117854445.743       -1810.051          21.000  
G31  21806483.386   114593866.120        1430.372          33.000  
G32                                                                  21816803.741    85613821.572         679.895          25.000  
R12  19086752.716   101958006.176        -786.591          36.000  
> 2021  9 12 10 32 51.9998595  0 16
C06  36695281.585   191081964.616        -390.990          33.000  
C08  37873027.948   197214802.595       -2045.779          25.000  
C09  37683263.520   196226632.0901       -492.729          26.000  
C13  36959405.936   192457303.781       -1813.095          25.000  
C16  37341553.181   194447255.443        -365.589          24.000  
C23  23924971.587   124583613.328        2016.701          33.000  
C24  24471267.194   127428320.884       -2998.665          24.000  
C25  21807470.602   113557198.686        -497.632          34.000  
C33  22250712.852   115865265.711        -576.662          32.000  
E21                                                                                                                                  24179734.918    94886474.924        -589.595          34.000  
G10  20151062.710   105894553.599        -186.610          38.000  
G25  20787014.849   109236516.8171        -87.940          28.000  
G31  21806153.014   114592123.337        1425.932          30.000  
G32                                                                  21816571.102    85612905.694         679.356          28.000  
J01  38044450.475   199924919.2961        841.492          34.000  
R12  19086843.253   101958490.657        -787.493          37.000  
> 2021  9 12 10 32 52.9998595  0 17
C06  36695356.833   191082355.000        -389.019          34.000  
C08  37873419.777   197216847.120       -2043.248          31.000  
C09  37683357.954   196227124.362        -491.703          23.000  
C13  36959752.496   192459116.919       -1813.062          28.000  
C16  37341624.831   194447621.102        -365.913          24.000  
C23  23924582.456   124581597.011        2016.631          34.000  
C24  24471839.498   127431320.006       -3000.138          24.000  
C25  21807566.236   113557696.108        -498.057          34.000  
C33  22250820.777   115865843.024        -578.437          33.000  
E21                                                                                                                                  24179884.814    94887063.687        -589.846          33.000  
G10  20151092.389   105894741.377        -189.209          39.000  
G12  22427584.406   117857755.3321      -1812.990          22.000  
G25  20787032.537   109236606.201         -89.476          23.000  
G31  21805874.207   114590696.228        1427.798          31.000  
G32  21816382.832   114645821.3731        911.342          36.000    21816397.822    85612226.211         680.293          26.000  
J01  38044291.885   199924077.827         839.938          31.000  
R12  19086989.552   101959271.454        -788.185          37.000  
> 2021  9 12 10 32 53.9998592  0 18
C05  39289603.673   204591276.2801       -323.306          30.000  
C06  36695342.743   191082276.701        -391.137          33.000  
C08  37873722.268   197218422.121       -2042.975          26.000  
C09  37683360.952   196227148.044        -492.489          26.000  
C13  36960009.718   192460461.264       -1812.596          26.000  
C16  37341606.844   194447517.799        -364.394          24.000  
C23  23924103.388   124579112.631        2014.075          35.000  
C24  24472326.661   127433850.872       -2999.287          25.000  
C25  21807573.431   113557726.015        -497.366          34.000  
C33  22250842.362   115865951.770        -575.510          32.000  
E21                                                                                                                                  24179944.473    94887299.777        -589.141          34.000  
G10  20151042.024   105894456.797        -189.786          37.000  
G12  22427838.930   117859096.689       -1813.509          23.000  
G25  20786960.886   109236222.309         -88.514          27.000  
G31  21805509.960   114588797.290        1424.587          29.000  
G32  21816118.415   114644436.983         911.602          36.000    21816135.204    85611193.873         679.027          27.000  
J01  38044043.657   199922764.801         840.714          33.000  
R12  19087047.712   101959582.420        -788.687          38.000  
> 2021  9 12 10 32 54.9998592  0 17
C06  36695419.190   191082665.177        -389.900          32.000  
C08  37874112.597   197220465.573       -2044.049          28.000  
C09  37683453.588   196227641.024        -493.497          27.000  
C13  36960356.578   192462273.686       -1812.878          29.000  
C16  37341676.695   194447881.968        -364.174          26.000  
C23  23923714.857   124577096.952        2016.772          35.000  
C24  24472904.960   127436850.375       -2999.601          26.000  
C25  21807672.662   113558224.358        -498.886          32.000  
C33  22250956.883   115866529.712        -578.210          32.000  
E21                                                                                                                                  24180092.270    94887886.243        -588.759          32.000  
G10  20151079.198   105894645.695        -188.931          40.000  
G12  22428185.490   117860909.907       -1812.918          23.000  
G25  20786981.872   109236310.777         -89.431          31.000  
G31  21805241.645   114587371.140        1425.584          33.000  
G32  21815952.630   114643525.679         911.715          36.000    21815961.024    85610514.217         679.643          26.000  
J01  38043884.767   199921923.833         841.013          34.000  
R12  19087194.310   101960365.004        -790.880          39.000  
> 2021  9 12 10 33  0.9998579  0 14
C06  36695486.643   191083028.041        -391.683          29.000  
C08  37876081.934   197230705.204       -2045.352          31.000  
C09  37683630.465   196228573.851        -492.710          28.000  
C13  36962060.598   192471122.781       -1814.975          30.000  
C23  23921002.634   124562981.410        2012.590          32.000  
C24  24475978.133   127452815.373       -3001.954          22.000  
C25  21807858.833   113559243.180        -503.048          42.000  
C33  22251234.791   115867978.103        -584.285          31.000  
G10  20150908.616   105893746.444        -194.832          43.000    20150913.113                        -142.842          32.000  
G25  20786706.363   109234878.303         -96.542          31.000  
G31  21803221.644   114576776.311        1422.591          38.000  
G32  21814526.218   114636011.390         910.846          39.000    21814529.515    85604902.443         679.321          31.000  
J01  38042530.904   199914848.882         837.482          30.000    38042537.799   149287089.4511        627.488          30.000  
R12  19087694.964   101963039.440        -796.499          39.000  
> 2021  9 12 10 33  1.9998577  0 16
C06  36695503.432   191083106.771        -390.797          30.000  
C08  37876415.004   197232438.277       -2045.038          27.000  
C09  37683663.742   196228754.336        -493.419          28.000  
C13  36962350.497   192472625.976       -1815.506          30.000  
C23  23920555.944   124560657.004        2010.989          33.000  
C24  24476493.776   127455506.419       -3001.022          21.000  
C25  21807896.907   113559433.893        -502.769          42.000  
C33  22251292.651   115868248.114        -583.013          32.000  
G10  20150888.530   105893626.142        -195.036          40.000    20150890.629    79076421.2461       -145.166          34.000  
G23  21202433.361   111419437.8671      -2574.373          19.000  
G25  20786662.893   109234658.579         -94.829          29.000  
G31  21802892.771   114575039.189        1421.262          36.000  
G32  21814295.977   114634786.421         909.281          38.000    21814295.977    85603987.766         679.152          32.000  
J01  38042312.955   199913694.443         839.174          25.000    38042318.051   149286226.725         627.110          32.000  
J02  37896455.830   199147218.7731       -976.685          24.000  
R12  19087787.000   101963531.203        -797.599          39.000  
> 2021  9 12 10 33  2.9998574  0 12
C06  36695489.941   191083029.486        -390.122          28.000  
C13  36962611.616   192473973.165       -1815.179          30.000  
C23  23920078.974   124558176.650        2012.008          34.000  
C25  21807903.503   113559468.688        -503.429          41.000  
C33  22251313.336   115868362.020        -581.880          35.000  
G10  20150833.968   105893348.753        -195.729          40.000    20150838.465    79076214.143        -145.345          35.000  
G25  20786590.343   109234280.737         -95.016          28.000  
G31  21802531.821   114573144.810        1422.068          37.000  
G32  21814031.860   114633403.684         910.072          38.000    21814032.759                         680.710          31.000  
J01  38042065.326   199912382.532         838.677          23.000    38042068.624   149285247.086         626.589          32.000  
J02  37896549.365   199147723.393        -977.387          21.000  
R12  19087845.460   101963843.674        -798.313          40.000  
> 2021  9 12 10 33  3.9998572  0 14
C06  36695502.532   191083106.795        -390.161          26.000  
C08  37877055.060   197235750.3351      -2045.797          19.000  
C09  37683700.017   196228962.2311       -494.559          21.000  
C13  36962902.415   192475475.623       -1814.542          28.000  
C23  23919634.681   124555852.281        2011.703          35.000  
C25  21807942.176   113559659.596        -503.445          40.000  
C33  22251365.500   115868632.041        -582.637          35.000  
G10  20150807.286   105893229.077        -196.239          40.000    20150815.381    79076124.742        -147.136          35.000  
G23  21203264.386   111423802.4271      -2577.783          19.000  
G25  20786546.873   109234060.691         -95.202          30.000  
G31  21802202.349   114571408.036        1420.928          38.000  
G32  21813799.821   114632178.056         910.119          36.000    21813800.420    85602033.9371        679.878          32.000  
J01  38041847.977   199911228.306         839.792          27.000    38041848.876   149284384.815         627.130          31.000  
R12  19087932.399   101964308.472        -798.066          40.000  
> 2021  9 12 10 33  4.9998572  0 16
C06  36695575.382   191083496.640        -389.843          28.000  
C08  37877447.189   197237797.994       -2047.416          17.000  
C09  37683794.752   196229457.209        -495.235          21.000  
C13  36963250.174   192477289.903       -1814.347          27.000  
C16  37341766.333   194448431.6931       -366.171          25.000  
C23  23919246.750   124553840.610        2010.898          34.000  
C25  21808038.709   113560163.334        -504.303          38.000  
C33  22251477.023   115869214.735        -583.465          36.000  
G10  20150845.060   105893425.274        -196.877          39.000    20150852.855    79076271.284        -147.486          34.000  
G12  22431053.905   117875907.8241      -1818.541          22.000  
G25  20786563.961   109234156.007         -95.709          29.000  
G31  21801931.637   114569986.912        1420.132          37.000  
G32  21813628.939   114631267.694         909.909          36.000    21813627.740    85601354.151         679.510          31.000  
J01  38041689.686   199910388.383         839.742          28.000    38041689.087   149283758.114         626.266          30.000  
J02  37896851.256   199149367.0451       -980.206          17.000  
R12  19088085.593   101965126.098        -799.119          39.000  
> 2021  9 12 10 33  5.9998569  0 15
C06  36695558.294   191083417.745        -389.456          26.000  
C09  37683800.148   196229485.135        -496.492          21.000  
C13  36963508.595   192478636.037       -1814.332          29.000  
C16  37341746.247   194448328.747        -366.001          26.000  
C23  23918772.179   124551361.310        2011.627          34.000  
C25  21808045.005   113560199.519        -504.555          38.000  
C33  22251501.306   115869329.833        -583.613          36.000  
G10  20150792.597   105893149.772        -197.785          40.000    20150800.091    79076065.567        -146.968          35.000  
G12  22431310.227   117877254.028       -1818.868          21.000  
G23  21204150.872   111428487.2401      -2579.890          24.000  
G25  20786489.912   109233779.633         -96.743          29.000  
G31  21801569.488   114568093.964        1420.641          37.000  
G32  21813362.423   114629885.067         911.340          36.000    21813364.222    85600321.673         679.665          31.000  
J01  38041441.758   199909075.157         840.604          24.000    38041439.959   149282779.103         625.815          30.000  
R12  19088143.453   101965435.815        -801.246          39.000  
> 2021  9 12 10 33  6.9998566  0 15
C06  36695542.405   191083339.081        -389.653          29.000  
C08  37878054.568   197240956.9231      -2047.166          25.000  
C09  37683804.945   196229512.268        -494.648          24.000  
C13  36963768.516   192479982.258       -1814.679          29.000  
C16  37341726.461   194448227.138        -368.419          27.000  
C23  23918293.110   124548882.469        2010.572          35.000  
C25  21808051.600   113560236.297        -505.657          40.000  
C33  22251523.491   115869445.421        -583.387          36.000  
G10  20150741.632   105892875.036        -198.724          41.000    20150747.628    79075860.410        -147.740          35.000  
G23  21204550.795   111430594.856       -2580.895          24.000  
G25  20786418.862   109233404.678         -98.436          28.000  
G31  21801207.938   114566201.465        1419.142          37.000  
G32  21813097.407   114628502.593         909.862          38.000    21813100.405    85599289.266         678.582          31.000  
J01                                                                  38041190.232   149281799.538         626.960          32.000  
R12  19088200.114   101965738.689        -801.437          40.000  
> 2021  9 12 10 33  7.9998564  0 15
C06  36695556.795   191083416.891        -390.397          29.000  
C08  37878388.837   197242692.571       -2048.342          22.000  
C09  37683839.121   196229693.682        -493.859          26.000  
C13  36964059.014   192481486.602       -1817.774          28.000  
C16  37341738.153   194448282.100        -366.331          26.000  
C23  23917847.918   124546560.096        2009.525          34.000  
C25  21808086.976   113560429.713        -505.480          40.000  
C33  22251575.955   115869717.605        -583.746          36.000  
G10  20150719.447   105892758.602        -198.778          41.000    20150725.443    79075773.436        -147.883          35.000  
G23  21204982.796   111432860.800       -2581.407          26.000  
G25  20786377.790   109233188.359         -99.583          28.000  
G31  21800879.065   114564467.113        1419.587          37.000  
G32  21812867.166   114627277.704         910.162          37.000    21812867.466    85598374.592         679.977          32.000  
J01  38040977.679   199906612.9131        834.198          17.000    38040969.885   149280937.221         627.286          32.000  
R12  19088293.050   101966235.048        -801.990          40.000  
> 2021  9 12 10 33  8.9998561  0 15
C06  36695541.805   191083339.100        -391.277          30.000  
C09  37683844.517   196229719.281        -494.351          25.000  
C13  36964318.934   192482835.747       -1817.503          30.000  
C16  37341719.565   194448179.451        -365.721          26.000  
C23  23917371.848   124544082.654        2007.894          34.000  
C25  21808095.370   113560468.182        -506.781          41.000  
C33  22251598.739   115869834.791        -585.866          36.000  
G10  20150668.782   105892485.997        -200.596          41.000    20150673.579    79075569.862        -149.271          36.000  
G12  22432109.774   117881452.8821      -1821.658          21.000  
G23  21205387.516   111434969.796       -2582.167          24.000  
G25  20786306.439   109232815.652        -100.698          27.000  
G31  21800519.315   114562576.267        1417.916          37.000  
G32  21812603.349   114625896.040         908.956          37.000    21812604.548    85597342.874         676.767          33.000  
J01                                                                  38040721.057                         628.222          32.000  
R12  19088355.706   101966569.009        -804.986          40.000  
> 2021  9 12 10 33  9.9998561  0 14
C06  36695615.554   191083730.682        -392.296          29.000  
C09  37683939.252   196230213.626        -493.811          24.000  
C13  36964667.893   192484653.227       -1817.772          30.000  
C16  37341791.815   194448546.321        -367.717          24.000  
C23  23916986.615   124542074.198        2006.830          34.000  
C25  21808192.502   113560975.727        -508.553          40.000  
C33  22251710.561   115870421.010        -588.035          36.000  
G10  20150707.156   105892686.931        -201.929          41.000    20150712.252    79075719.903        -151.617          36.000  
G12  22432456.633   117883275.395       -1823.592          24.000  
G23  21205878.876   111437552.544       -2583.006          25.000  
G31  21800247.703   114561158.821        1417.729          36.000  
G32  21812430.369   114624987.304         908.168          37.000    21812431.268    85596664.252         677.885          32.000  
J01                                                                  38040560.968   149279333.6881        626.918          32.000  
R12  19088504.104   101967361.819        -805.221          40.000  
> 2021  9 12 10 33 10.9998559  0 17
C06  36695631.143   191083810.213        -391.123          29.000  
C08  37879420.723   197248060.9181      -2049.437          21.000  
C09  37683973.728   196230394.520        -492.565          26.000  
C13  36964956.293   192486159.031       -1818.051          30.000  
C16  37341802.008   194448601.256        -366.866          26.000  
C23  23916544.121   124539753.553        2009.300          34.000  
C25  21808231.775   113561171.200        -507.313          40.000  
C33  22251759.727   115870695.051        -584.557          36.000  
E01                                                                                                                                  24343683.918                        1277.847          28.000  
G10  20150685.271   105892573.102        -200.401          41.000    20150690.667    79075634.891        -150.582          36.000  
G12  22432744.734   117884784.061       -1823.781          23.000  
G23  21206308.478   111439820.575       -2583.115          26.000  
G25  20786292.649   109232703.9351       -102.031          24.000  
G31  21799919.730   114559426.397        1417.271          36.000  
G32  21812200.128   114623763.182         909.697          38.000    21812198.629    85595750.105         678.544          31.000  
J01                                                                  38040341.220   149278471.852         627.298          32.000  
R12  19088595.240   101967848.834        -805.419          40.000  
> 2021  9 12 10 33 11.9998559  0 16
C06  36695706.391   191084200.849        -390.606          30.000  
C08  37879815.549   197250110.508       -2051.111          24.000  
C09  37684067.863   196230886.884        -492.872          25.000  
C13  36965305.851   192487976.981       -1818.151          29.000  
C16  37341871.260   194448967.384        -365.345          26.000  
C23  23916156.190   124537745.273        2007.240          34.000  
C25  21808328.308   113561679.220        -508.631          39.000  
C33  22251874.248   115871281.578        -586.895          35.000  
E01                                                                                                                                  24343358.344                        1277.357          25.000  
G10  20150723.644   105892774.871        -202.709          41.000    20150728.741    79075785.582        -151.326          36.000  
G12  22433090.395   117886608.175       -1824.714          21.000  
G25  20786310.337   109232806.444        -103.255          22.000  
G31  21799646.918   114558009.355        1415.573          36.000  
G32  21812028.047   114622854.105         908.140          39.000    21812025.349    85595071.289         677.560          31.000  
J01                                                                  38040181.730   149277845.291         626.902          32.000  
R12  19088747.235   101968660.658        -806.604          40.000  
> 2021  9 12 10 33 12.9998556  0 16
C06  36695691.102   191084123.231        -390.448          30.000  
C09  37684071.760   196230912.549        -494.481          25.000  
C13  36965565.771   192489326.726       -1818.321          31.000  
C16  37341852.673   194448863.068        -363.561          23.000  
C23  23915680.719   124535269.150        2007.701          35.000  
C25  21808333.405   113561719.565        -508.661          40.000  
C33  22251900.030   115871400.374        -587.074          36.000  
E01                                                                                                                                  24342942.232    95526935.3881       1276.676          27.000  
G10  20150670.881   105892504.840        -203.788          41.000    20150677.776    79075583.904        -150.407          36.000  
G12  22433345.818   117887960.355       -1825.168          21.000  
G23  21207201.860   111444515.0501      -2583.631          23.000  
G25  20786238.087   109232437.316        -103.724          23.000  
G31  21799289.566   114556120.204        1415.403          36.000  
G32  21811768.427   114621472.467         908.403          39.000    21811762.131    85594039.563         680.943          32.000  
J01  38039949.091   199901167.0991        838.385          26.000    38039932.902   149276865.798         627.418          32.000  
R12  19088808.993   101968991.260        -808.328          40.000  
> 2021  9 12 10 33 13.9998554  0 13
C06  36695706.991   191084201.435        -390.329          30.000  
C09  37684107.135   196231094.591        -493.982          21.000  
C13  36965855.970   192490832.403       -1818.220          29.000  
C16  37341863.766   194448915.729        -366.435          25.000  
C23  23915237.326   124532949.643        2006.321          35.000  
C25  21808369.080   113561916.550        -510.765          37.000  
C33  22251951.894   115871675.773        -588.074          35.000  
E01                                                                                                                                  24342556.998    95525422.948        1276.143          26.000  
G10  20150649.296   105892393.049        -204.169          40.000    20150656.791    79075500.468        -152.621          36.000  
G12  22433636.617   117889470.576       -1825.766          24.000  
G32  21811536.088   114620248.522         907.510          38.000    21811528.293    85593125.617         678.362          30.000  
J01                                                                  38039713.454   149276004.233         627.560          31.000  
R12  19088904.626   101969501.240        -808.957          39.000  
> 2021  9 12 10 33 14.9998554  0 14
C06  36695782.838   191084591.542        -390.060          29.000  
C08  37880845.636   197255478.5091      -2048.015          18.000  
C13  36966205.528   192492650.095       -1817.725          28.000  
C16  37341935.116   194449281.585        -366.046          25.000  
C23  23914853.591   124530942.803        2008.900          34.000  
C25  21808466.513   113562426.351        -509.502          36.000  
C33  22252067.314   115872263.837        -589.290          35.000  
E01                                                                                                                                  24342230.824    95524146.213        1277.586          27.000  
G10  20150688.868   105892597.188        -204.789          39.000    20150695.464    79075652.884        -152.612          37.000  
G12  22433984.376   117891296.870       -1826.722          24.000  
G31  21798694.178   114552973.7731       1415.372          33.000  
G32  21811359.810   114619339.853         907.012          37.000    21811355.913    85592446.980         680.614          29.000  
J01  38039570.154   199899173.5271        839.329          29.000    38039554.864   149275377.894         625.484          31.000  
R12  19089051.824   101970288.134        -809.432          38.000  
> 2021  9 12 10 33 15.9998551  0 13
C06  36695768.148   191084514.224        -390.830          27.000  
C13  36966465.748   192493999.811       -1817.506          30.000  
C16  37341918.628   194449180.039        -367.559          27.000  
C23  23914376.622   124528468.090        2006.150          34.000  
C25  21808472.808   113562468.406        -512.246          36.000  
C33  22252089.499   115872384.163        -589.919          35.000  
E01                                                                                                                                  24341815.312    95522515.676        1278.403          25.000  
G10  20150639.702   105892329.444        -206.531          39.000    20150643.900    79075452.954        -153.988          37.000  
G12  22434242.197   117892651.351       -1827.435          25.000  
G31  21798330.230   114551086.375        1412.964          33.000  
G32  21811098.391   114617958.762         908.067          37.000    21811093.294    85591415.691         679.073          30.000  
J01  38039321.026   199897861.574         838.627          29.000    38039305.737   149274398.752         625.861          30.000  
R12  19089109.385   101970595.621        -810.215          38.000  
> 2021  9 12 10 33 16.9998548  0 15
C06  36695753.758   191084436.522        -390.873          28.000  
C09  37684216.560   196231644.5351       -496.008          20.000  
C13  36966725.069   192495349.482       -1818.728          29.000  
C16  37341899.741   194449079.284        -368.473          28.000  
C23  23913903.549   124525993.930        2006.212          35.000  
C25  21808481.802   113562511.121        -509.814          35.000  
C33  22252114.682   115872505.095        -589.015          35.000  
E01                                                                                                                                  24341398.900    95520885.069        1277.347          25.000  
G10  20150589.037   105892062.542        -205.858          40.000    20150593.834    79075253.692        -154.325          37.000  
G12  22434503.616   117894006.755       -1828.302          24.000  
G23  21208926.266   111453602.5311      -2588.387          16.000  
G31  21797971.978   114549199.693        1412.972          33.000  
G32  21810835.473   114616577.852         908.143          36.000    21810831.875    85590384.398         679.016          29.000  
J01  38039071.299   199896550.267         838.845          31.000    38039056.009   149273419.775         627.820          30.000  
R12  19089170.242   101970920.189        -812.074          37.000  
> 2021  9 12 10 33 17.9998546  0 17
C05  39289704.104   204591875.6201       -325.437          28.000  
C06  36695769.048   191084514.973        -390.432          28.000  
C09  37684254.034   196231828.605        -495.905          22.000  
C13  36967014.968   192496855.696       -1818.901          30.000  
C16  37341911.433   194449134.944        -367.985          26.000  
C23  23913458.357   124523676.197        2006.580          35.000  
C25  21808519.576   113562710.506        -512.469          34.000  
C33  22252166.246   115872782.582        -589.454          35.000  
E01                                                                                                                                  24341013.967    95519373.187        1276.602          25.000  
G10  20150566.253   105891953.875        -206.350          39.000    20150573.148    79075172.515        -155.234          37.000  
G12  22434792.316   117895519.832       -1828.370          24.000  
G23  21209359.766   111455875.248       -2587.444          17.000  
G25  20786055.813   109231392.9441       -107.421          16.000  
G31  21797645.204   114547470.805        1413.756          35.000  
G32  21810603.134   114615354.555         906.995          35.000    21810600.735    85589470.837         677.375          31.000  
J01  38038851.851   199895396.599         838.544          30.000    38038835.962   149272558.590         626.190          30.000  
R12  19089267.675   101971440.896        -813.202          37.000  
> 2021  9 12 10 33 18.9998543  0 17
C06  36695754.058   191084437.329        -392.549          26.000  
C08  37882078.383   197261957.1171      -2048.880          23.000  
C09  37684263.927   196231856.131        -495.614          24.000  
C13  36967275.488   192498206.654       -1819.807          30.000  
C16  37341893.445   194449034.338        -368.550          26.000  
C23  23912978.989   124521203.372        2002.793          33.000  
C25  21808528.870   113562754.937        -513.266          35.000  
C33  22252185.732   115872905.101        -591.206          34.000  
E01                                                                                                                                  24340599.354    95517743.930        1276.084          23.000  
G10  20150515.289   105891689.086        -207.065          38.000    20150522.484    79074974.819        -154.500          36.000  
G12  22435049.538   117896876.177       -1830.228          25.000  
G23  21209764.186   111457990.313       -2588.226          24.000  
G25  20785989.559   109231027.596        -107.648          17.000  
G31  21797286.353   114545585.631        1412.466          35.000  
G32  21810342.014   114613974.488         907.391          36.000    21810339.616    85588440.359         676.067          29.000  
J01                                                                  38038585.635   149271580.179         625.184          29.000  
R12  19089337.527   101971814.108        -814.116          37.000  
> 2021  9 12 10 33 19.9998543  0 15
C06  36695828.407   191084829.368        -392.363          27.000  
C08  37882471.711   197264006.086       -2049.680          29.000  
C09  37684361.659   196232351.907        -495.783          23.000  
C13  36967624.146   192500026.550       -1820.066          32.000  
C16  37341965.695   194449402.845        -367.983          25.000  
C23  23912596.454   124519199.757        2004.349          30.000  
C25  21808626.902   113563268.546        -511.685          34.000  
C33  22252295.756   115873496.635        -590.892          33.000  
E01                                                                                                                                  24340274.978    95516466.869        1277.909          25.000  
G10  20150556.660   105891897.908        -209.178          39.000    20150562.056    79075130.742        -156.025          36.000  
G25  20786008.746   109231135.841        -109.089          23.000  
G31  21797014.741   114544173.935        1411.404          35.000  
G32  21810169.034   114613067.474         906.812          37.000    21810167.535    85587763.049         677.575          29.000  
J01                                                                  38038425.846   149270954.951         626.767          28.000  
R12  19089491.020   101972633.755        -815.575          37.000  
> 2021  9 12 10 33 20.9998541  0 15
C06  36695844.895   191084909.193        -391.657          27.000  
C08  37882804.780   197265744.042       -2050.388          27.000  
C09  37684396.135   196232535.803        -495.108          21.000  
C13  36967911.348   192501534.652       -1819.623          32.000  
C16  37341977.987   194449458.768        -368.043          26.000  
C23  23912153.361   124516884.056        2005.254          31.000  
C25  21808663.776   113563470.065        -512.402          33.000  
C33  22252347.920   115873776.030        -589.383          34.000  
E01                                                                                                                                  24339891.544    95514955.570        1274.474          24.000  
G10  20150536.274   105891791.971        -209.033          38.000    20150542.570    79075051.648        -154.988          36.000  
G25  20785972.171   109230932.606        -114.249          20.000  
G31  21796686.468   114542447.490        1412.205          35.000  
G32  21809932.198   114611845.078         910.537          36.000    21809933.397    85586850.236         679.147          30.000  
J01  38038212.993   199892093.6401        838.252          30.000    38038208.196   149270094.157         626.342          28.000  
R12  19089577.361   101973095.036        -816.023          36.000  
> 2021  9 12 10 33 21.9998538  0 16
C06  36695830.505   191084831.872        -391.162          30.000  
C08  37883109.369   197267326.270       -2051.264          26.000  
C09  37684401.831   196232562.615        -494.613          26.000  
C13  36968169.769   192502886.411       -1819.654          30.000  
C16  37341958.800   194449357.125        -365.504          26.000  
C23  23911679.988   124514412.024        2005.213          34.000  
C25  21808673.969   113563515.663        -512.883          35.000  
C33  22252374.901   115873899.460        -590.834          32.000  
E01                                                                                                                                  24339477.830    95513328.711        1272.627          24.000  
G10  20150486.808   105891528.844        -209.486          36.000    20150492.205    79074855.172        -156.304          37.000  
G12  22435954.012   117901583.5641      -1834.422          22.000  
G23  21211085.671   111464967.6581      -2587.279          18.000  
G31  21796324.918   114540563.284        1411.558          33.000  
G32  21809667.481   114610464.795         908.197          32.000    21809670.479    85585819.516         677.023          31.000  
J01  38037961.167   199890783.062         837.459          31.000    38037959.069   149269115.584         627.059          30.000  
R12  19089636.719   101973412.490        -815.698          36.000  
> 2021  9 12 10 33 22.9998536  0 17
C05  39289719.093   204591940.3081       -324.098          31.000  
C06  36695843.696   191084910.407        -390.398          26.000  
C08  37883444.237   197269064.603       -2049.906          28.000  
C09  37684435.108   196232745.140        -494.596          24.000  
C13  36968458.769   192504393.778       -1819.881          30.000  
C16  37341969.293   194449410.167        -365.963          27.000  
C23  23911233.897   124512096.722        2002.675          32.000  
C25  21808710.844   113563718.000        -514.624          36.000  
C33  22252429.164   115874179.651        -591.754          32.000  
E01                                                                                                                                  24339093.796    95511820.783        1274.368          23.000  
G10  20150468.821   105891424.118        -210.188          38.000    20150472.718    79074776.984        -156.491          38.000  
G12  22436249.608   117903103.110       -1834.714          22.000  
G23  21211514.674   111467240.032       -2587.973          23.000  
G31  21795997.245   114538837.289        1409.320          31.000  
G32  21809437.840   114609242.346         907.910          35.000    21809438.440    85584906.632         675.800          30.000  
J01  38037739.921   199889630.686         837.522          29.000    38037740.220   149268254.806         626.934          29.000  
R12  19089731.754   101973919.556        -817.456          36.000  
> 2021  9 12 10 33 23.9998533  0 14
C06  36695827.807   191084832.785        -392.552          25.000  
C08  37883749.426   197270646.066       -2049.453          30.000  
C13  36968718.089   192505745.763       -1820.569          32.000  
C16  37341952.204   194449308.051        -367.778          27.000  
C23  23910758.726   124509625.625        2000.041          32.000  
C25  21808719.837   113563764.795        -516.617          35.000  
C33  22252451.948   115874304.117        -591.844          33.000  
E01                                                                                                                                  24338681.282    95510195.361        1270.214          24.000  
G10  20150416.957   105891162.597        -211.391          39.000    20150422.952    79074581.669        -157.294          38.000  
G23  21211915.197   111469356.621       -2590.655          24.000  
G31  21795639.293   114536954.327        1409.482          33.000  
G32  21809175.822   114607862.418         905.740          36.000    21809176.421    85583876.107         678.075          30.000  
J01  38037483.598   199888320.595         837.583          29.000    38037490.793   149267276.441         624.766          29.000  
R12  19089799.507   101974282.206        -817.725          37.000  
> 2021  9 12 10 33 24.9998533  0 14
C06  36695902.156   191085225.148        -392.547          26.000  
C08  37884142.754   197272695.838       -2050.321          30.000  
C09  37684530.442   196233262.5971       -492.880          21.000  
C13  36969069.446   192507566.100       -1819.730          31.000  
C16  37342025.654   194449676.206        -368.019          26.000  
C23  23910379.789   124507623.484        2002.794          32.000  
C25  21808819.369   113564280.532        -514.622          34.000  
C33  22252570.366   115874897.452        -593.460          33.000  
E01                                                                                                                                  24338356.906    95508924.375        1270.452          23.000  
G10  20150455.930   105891374.484        -211.808          39.000    20150463.125    79074739.899        -158.415          38.000  
G23  21212408.655   111471947.035       -2589.781          23.000  
G31  21795376.075   114535544.613        1410.218          32.000  
G32  21809005.839   114606955.314         907.715          36.000    21809004.041    85583198.811         675.510          30.000  
J01  38037319.911   199887482.933         837.445          30.000    38037331.903   149266651.089         626.348          27.000  
> 2021  9 12 10 33 25.9998531  0 15
C06  36695917.145   191085305.094        -391.178          29.000  
C08  37884477.622   197274434.257       -2050.187          31.000  
C09  37684565.818   196233442.586        -492.212          20.000  
C13  36969358.446   192509074.095       -1820.712          30.000  
C16  37342036.746   194449732.350        -368.442          23.000  
C23  23909937.295   124505309.399        2001.790          30.000  
C25  21808856.843   113564484.464        -516.117          33.000  
C33  22252627.926   115875178.919        -594.267          34.000  
E01                                                                                                                                  24337971.973    95507417.612        1272.275          24.000  
G10  20150438.242   105891271.827        -212.729          40.000    20150443.938    79074663.280        -158.545          38.000  
G12  22437148.385   117907816.4801      -1832.082          21.000  
G31  21795044.505   114533820.193        1406.410          32.000  
G32  21808773.200   114605733.155         907.332          36.000    21808771.702    85582286.062         676.842          29.000  
J01  38037098.964   199886330.311         837.837          30.000    38037111.855   149265790.369         623.390          27.000  
R12  19090049.534   101975617.5121       -818.902          34.000  
> 2021  9 12 10 33 26.9998528  0 14
C06  36695901.856   191085227.451        -390.514          29.000  
C08  37884782.211   197276016.310       -2050.419          30.000  
C09  37684570.315   196233468.103        -494.213          21.000  
C13  36969617.167   192510426.951       -1821.776          30.000  
C16  37342017.259   194449631.299        -367.194          24.000  
C25  21808868.534   113564532.691        -516.854          34.000  
C33  22252648.312   115875304.640        -592.714          34.000  
E01                                                                                                                                  24337556.460    95505792.240        1272.347          25.000  
G10  20150385.179   105891012.282        -214.802          40.000    20150394.772    79074469.422        -161.045          38.000  
G12  22437409.804   117909176.987       -1832.177          20.000  
G31  21794685.653   114531939.680        1407.246          31.000  
G32  21808514.180   114604353.327         906.815          35.000    21808508.184    85581257.003         672.233          31.000  
J01                                                                  38036862.428   149264812.025         625.239          28.000  
R12  19090110.092   101975941.294        -819.782          35.000  
> 2021  9 12 10 33 27.9998525  0 16
C06  36695885.367   191085148.829        -389.720          29.000  
C08  37885087.100   197277599.045       -2051.522          31.000  
C09  37684573.912   196233493.666        -494.027          23.000  
C13  36969875.887   192511779.937       -1821.405          28.000  
C16  37341998.672   194449529.448        -367.044          22.000  
C23  23908988.752   124500367.0441       2005.167          25.000  
C24  24489938.568   127525466.2051      -3006.434          25.000  
C25  21808879.927   113564581.500        -516.562          36.000  
C33  22252669.298   115875430.924        -594.597          34.000  
E01                                                                                                                                  24337140.648    95504167.657        1272.311          24.000  
G10  20150335.713   105890753.565        -214.079          40.000    20150345.306    79074276.209        -159.905          38.000  
G25  20785663.684   109229208.3341       -113.763          18.000  
G31  21794327.401   114530058.900        1407.853          23.000  
G32  21808246.765   114602973.838         909.092          35.000    21808244.367    85580225.162         677.030          27.000  
J01  38036598.311   199883709.8671        837.646          31.000    38036613.001   149263834.145         624.281          27.000  
R12  19090169.750   101976260.052        -820.943          32.000  
> 2021  9 12 10 33 28.9998525  0 14
C06  36695960.016   191085539.023        -390.809          29.000  
C08  37885482.826   197279650.498       -2051.407          31.000  
C09  37684668.947   196233988.058        -495.062          22.000  
C13  36970225.146   192513601.050       -1821.404          30.000  
C23  23908604.118   124498362.410        2003.770          17.000  
C24  24490515.369   127528472.669       -3007.553          25.000  
C25  21808977.059   113565099.126        -516.504          37.000  
C33  22252783.818   115876025.939        -594.489          35.000  
E01                                                                                                                                  24336816.273    95502896.613        1270.411          23.000  
G10  20150377.084   105890968.094        -214.097          41.000    20150386.078    79074436.383        -160.697          37.000  
G31  21794059.986   114528651.201        1407.274          27.000  
G32  21808066.590   114602066.774         909.432          34.000    21808071.087    85579547.706         677.850          29.000  
J01  38036439.421   199882872.615         837.391          29.000    38036453.811   149263209.180         626.248          28.000  
R12  19090319.347   101977058.611        -822.069          29.000  
> 2021  9 12 10 33 29.9998525  0 16
C05  39289824.321   204592490.9461       -323.891          28.000  
C06  36696034.964   191085929.497        -390.284          29.000  
C08  37885879.451   197281701.986       -2051.551          31.000  
C09  37684762.482   196234483.265        -494.666          23.000  
C13  36970574.404   192515422.403       -1821.741          32.000  
C23  23908220.383   124496359.493        2001.795          26.000  
C24  24491090.971   127531480.416       -3008.053          25.000  
C25  21809079.289   113565617.075        -519.686          36.000  
C33  22252900.138   115876621.237        -596.185          35.000  
E01                                                                                                                                  24336491.597    95501625.271        1271.035          22.000  
G10  20150419.955   105891183.094        -215.338          42.000    20150427.150    79074596.952        -161.301          37.000  
G23  21214631.616   111483651.2951      -2597.461          19.000  
G31  21793793.471   114527243.736        1406.953          25.000  
G32  21807891.211   114601159.731         904.144          34.000    21807898.706    85578871.452         675.863          28.000  
J01                                                                  38036294.022   149262583.056         626.944          28.000  
R12  19090472.241   101977875.508        -823.598          30.000  
> 2021  9 12 10 33 30.9998523  0 15
C06  36696050.253   191086007.517        -390.141          31.000  
C08  37886214.619   197283441.402       -2051.966          31.000  
C13  36970864.603   192516931.926       -1822.303          31.000  
C16  37342161.759   194450312.6411       -367.419          19.000  
C24  24491607.213   127534176.203       -3006.970          24.000  
C25  21809114.664   113565823.302        -517.252          36.000  
C33  22252954.700   115876904.627        -597.061          36.000  
E21                                                                                                                                  24183507.506    94901277.3301       -605.243          38.000  
G10  20150399.868   105891083.768        -215.473          41.000    20150408.263    79074522.761        -162.031          36.000  
G12  22438644.350   117915717.3421      -1837.111          23.000  
G25  20785657.689   109229240.2491       -118.622          26.000  
G31  21793468.196   114525521.863        1406.544          24.000  
G32                                                                  21807667.566    85577959.512         677.463          28.000  
J01  38036059.284   199880882.0341        838.151          29.000    38036073.674   149261720.965         625.561          26.000  
R12  19090565.776   101978374.943        -824.359          27.000  
> 2021  9 12 10 33 31.9998520  0 15
C06  36696037.062   191085929.480        -390.062          28.000  
C08  37886518.009   197285024.932       -2051.973          33.000  
C13  36971125.123   192518285.668       -1822.260          29.000  
C23  23907310.813   124491578.7031       1999.672          24.000  
C24  24492094.975   127536715.105       -3007.442          20.000  
C25  21809125.157   113565873.926        -519.578          36.000  
C33  22252979.883   115877031.136        -598.716          33.000  
E21                                                                                                                                  24183571.062    94901529.202        -605.255          38.000  
G10  20150354.600   105890827.490        -216.639          41.000    20150359.396    79074331.381        -163.780          36.000  
G23  21215471.335   111488058.7041      -2597.406          25.000  
G25  20785589.636   109228886.202        -118.928          27.000  
G31  21793112.942   114523642.618        1406.174          28.000  
G32                                                                  21807405.247    85576929.277         676.856          30.000  
J01  38035811.056   199879571.294         837.364          29.000    38035824.247   149260742.190         625.433          27.000  
R12  19090627.534   101978704.878        -825.077          29.000  
> 2021  9 12 10 33 32.9998518  0 16
C06  36696054.750   191086007.619        -390.685          29.000  
C08  37886851.079   197286764.893       -2052.183          29.000  
C09  37684841.927   196234867.2701       -490.742          18.000  
C13  36971417.720   192519795.711       -1821.606          27.000  
C16  37342149.168   194450265.9041       -367.154          27.000  
C23  23906864.722   124489266.780        1999.044          24.000  
C24  24492613.317   127539411.095       -3008.985          22.000  
C25  21809171.325   113566081.162        -518.932          36.000  
E21                                                                                                                                  24183665.197    94901899.336        -605.718          36.000  
G10  20150336.912   105890729.526        -216.915          42.000    20150340.210    79074258.288        -159.992          35.000  
G12  22439192.370   117918606.6201      -1838.288          14.000  
G23  21215902.137   111490335.187       -2584.700          18.000  
G25  20785550.063   109228690.119        -119.270          33.000  
G32                                                                  21807172.009    85576017.156         676.531          33.000  
J01  38035593.407   199878418.987         837.108          31.000    38035605.099   149259882.619         624.014          28.000  
R12  19090719.570   101979196.897        -825.919          31.000  
> 2021  9 12 10 33 33.9998515  0 15
C06  36696041.259   191085929.840        -390.860          26.000  
C08  37887156.268   197288348.764       -2052.263          32.000  
C09  37684846.424   196234891.073        -493.762          19.000  
C13  36971679.139   192521150.391       -1823.285          21.000  
C23  23906390.150   124486799.889        1998.553          27.000  
C24  24493100.779   127541951.343       -3007.886          19.000  
C25  21809180.618   113566132.755        -520.971          37.000  
E21                                                                                                                                  24183729.652    94902152.187        -606.407          38.000  
G10  20150290.744   105890474.736        -218.511          43.000    20150292.543    79074068.013        -163.201          31.000  
G23  21216299.661   111492450.832       -2593.222          17.000  
G25  20785482.010   109228336.895        -119.938          32.000  
G31  21792428.516   114520043.5571       1404.854          28.000  
G32                                                                  21806909.691    85574988.031         676.054          31.000  
J01  38035345.478   199877109.014         837.711          31.000    38035355.671   149258904.122         626.264          26.000  
R12  19090783.126   101979536.683        -826.853          31.000  
> 2021  9 12 10 33 34.9998515  0 16
C06  36696117.107   191086320.780        -391.451          31.000  
C08  37887549.895   197290400.968       -2051.812          30.000  
C09  37684941.758   196235385.965        -495.420          25.000  
C13  36972027.498   192522972.847       -1822.021          24.000  
C23  23906004.318   124484800.699        1998.430          30.000  
C24  24493677.880   127544959.199       -3007.833          20.000  
C25  21809272.655   113566653.344        -523.819          37.000  
C33  22253177.146   115878049.7831       -598.780          24.000  
E21                                                                                                                                  24183884.345    94902758.442        -606.247          38.000  
G10  20150327.918   105890693.344        -219.545          41.000    20150334.214    79074231.261        -163.451          33.000  
G12  22439792.555   117921812.3521      -1839.996          19.000  
G25  20785505.694   109228458.331        -121.616          31.000  
G31  21792164.099   114518638.113        1405.406          30.000  
G32  21806733.113   114595046.7111        906.667          28.000    21806737.010    85574311.923         675.870          31.000  
J01  38035185.089   199876271.323         837.238          29.000    38035195.882   149258278.579         624.970          29.000  
R12  19090936.020   101980352.864        -827.801          32.000  
> 2021  9 12 10 33 35.9998513  0 15
C06  36696132.996   191086399.252        -390.421          31.000  
