     3.03           OBSERVATION DATA    M: Mixed            RINEX VERSION / TYPE
RTKCONV 2.4.3 b34                       20211028 102533 UTC PGM / RUN BY / DATE 
format: RINEX                                               COMMENT             
log: E:\Dropbox\210912_wj_gdd\bag_hw\0geo++\best\2021-09-12,COMMENT             
                                                            MARKER NAME         
                                                            MARKER NUMBER       
                                                            MARKER TYPE         
                                                            OBSERVER / AGENCY   
                                                            REC # / TYPE / VERS 
                                                            ANT # / TYPE        
        0.0000        0.0000        0.0000                  APPROX POSITION XYZ 
        0.0000        0.0000        0.0000                  ANTENNA: DELTA H/E/N
G    8 C1C L1C D1C S1C C5Q L5Q D5Q S5Q                      SYS / # / OBS TYPES 
C    4 C2I L2I D2I S2I                                      SYS / # / OBS TYPES 
  2021    09    12    11    00   00.9998021     GPS         TIME OF FIRST OBS   
  2021    09    12    11    22   30.9995197     GPS         TIME OF LAST OBS    
G L1C                                                       SYS / PHASE SHIFT   
G L5Q  0.00000                                              SYS / PHASE SHIFT   
C L2I                                                       SYS / PHASE SHIFT   
  0                                                         GLONASS SLOT / FRQ #
                                                            GLONASS COD/PHS/BIS 
                                                            END OF HEADER       
> 2021 09 12 11 00 00.9998021  0 10                     
C03  36476256.513   189941201.7541       -366.906          42.000  
C06  36702134.541   191117632.5341       -280.004          28.000  
C08  38440404.961   200169263.0631      -2196.866          26.000  
C09  37723633.272   196436865.8331       -388.640          34.000  
C23  23290074.117   121277549.0961       1402.467          29.000  
C25  21980480.530   114458105.2111      -1215.310          32.000  
C33  22441487.282   116858690.9181      -1280.648          36.000  
G10  20280473.820   106574588.1471      -1283.943          44.000    20280478.917    79584954.7701       -959.814          29.000  
G25  20895444.085   109806252.6071      -1243.708          27.000    20895436.290    81998196.7601       -931.582          30.000  
G32                                                                  21450095.508    84174805.4351        600.262          26.000  
> 2021 09 12 11 00 01.9998019  0 11                     
C03  36476266.706   189941256.506        -367.418          42.000  
C06  36702127.946   191117600.282        -279.688          27.000  
C08  38440767.111   200171148.632       -2199.441          26.000  
C09  37723651.859   196436941.774        -388.864          34.000  
C23  23289743.446   121275833.878        1402.768          28.000  
C25  21980654.410   114459007.469       -1214.389          32.000  
C33  22441671.654   116859659.585       -1280.643          36.000  
G10  20280658.192   106575557.395       -1284.620          45.000    20280663.889    79585679.650        -960.446          29.000  
G23  22018368.301   115707274.1371      -3313.686          19.000                                                                  
G25  20895620.663   109807181.508       -1244.124          26.000    20895614.067    81998890.829        -929.361          30.000  
G32                                                                  21449881.756    84173971.389         598.277          26.000  
> 2021 09 12 11 00 02.9998016  0 11                     
C03  36476247.819   189941155.282        -367.175          42.000  
C06  36702093.469   191117411.045        -278.901          27.000  
C08  38441098.981   200172879.626       -2199.212          26.000  
C09  37723633.872   196436861.479        -387.914          34.000  
C23  23289383.096   121273963.227        1402.276          29.000  
C25  21980797.111   114459754.021       -1213.380          32.000  
C33  22441827.546   116860472.645       -1279.931          36.000  
G10  20280813.785   106576369.786       -1285.107          45.000    20280818.581    79586286.686        -958.758          29.000  
G25  20895768.461   109807953.896       -1245.625          26.000    20895760.966    81999467.750        -929.181          30.000  
G31  21376928.460                         712.884          34.000                                                                  
G32                                                                  21449639.224    84173019.721         599.924          27.000  
> 2021 09 12 11 00 03.9998013  0 12                     
C03  36476228.932   189941053.717        -366.832          42.000  
C06  36702055.995   191117221.530        -279.330          29.000  
C08  38441432.350   200174609.595       -2197.537          26.000  
C09  37723616.784   196436781.089        -387.932          35.000  
C16  37338700.356   194432311.0611       -241.235          21.000  
C23  23289021.846   121272093.730        1400.205          24.000  
C25  21980938.313   114460500.845       -1214.209          31.000  
C33  22441984.937   116861286.010       -1281.706          36.000  
G10  20280968.178   106577182.740       -1286.388          45.000    20280973.574    79586893.435        -960.062          29.000  
G25  20895915.059   109808727.088       -1246.071          25.000    20895907.264    82000045.186        -931.985          29.000  
G31  21376701.517   112335333.4511        712.820          35.000                                                                  
G32  21449429.069   112717420.7861        802.692          23.000    21449397.591    84172067.089         599.421          27.000  
> 2021 09 12 11 00 04.9998011  0 11                     
C03  36476238.526   189941108.460        -367.449          42.000  
C06  36702048.501   191117189.057        -279.901          29.000  
C08  38441796.898   200176495.336       -2197.889          26.000  
C09  37723631.773   196436856.625        -386.311          34.000  
C23  23288692.674   121270381.547        1399.473          26.000  
C25  21981113.991   114461404.151       -1213.096          31.000  
C33  22442172.307   116862255.882       -1281.371          36.000  
G10  20281152.850   106578153.879       -1285.465          45.000    20281158.546    79587618.770        -961.268          29.000  
G25  20896092.236   109809658.458       -1247.318          27.000    20896085.041    82000740.800        -930.193          29.000  
G31  21376503.355   112334307.131         710.801          36.000                                                                  
G32  21449217.416   112716303.000         802.662          27.000    21449183.539    84171229.597         601.220          27.000  
> 2021 09 12 11 00 05.9998011  0 12                     
C03  36476308.677   189941475.562        -366.984          42.000  
C06  36702101.864   191117468.664        -279.133          28.000  
C08  38442219.305   200178694.162       -2199.451          28.000  
C09  37723707.321   196437244.376        -387.806          34.000  
C16  37338728.236   194432483.2171       -240.391          21.000  
C25  21981346.930   114462619.991       -1214.582          32.000  
C33  22442417.538   116863538.377       -1282.643          36.000  
G10  20281397.780   106579440.736       -1286.518          45.000    20281402.877    79588579.608        -961.049          29.000  
G23  22020644.025   115719274.3781      -3305.785          18.000                                                                  
G25  20896329.072   109810906.021       -1247.576          25.000    20896322.177    82001672.122        -932.233          29.000  
G31  21376368.448   112333596.259         710.241          36.000                                                                  
G32  21449065.421   112715500.587         802.445          26.000    21449030.945    84170628.658         599.937          28.000  
> 2021 09 12 11 00 06.9998008  0 13                     
C03  36476290.390   189941373.678        -366.404          42.000  
C06  36702064.390   191117278.748        -277.945          28.000  
C08  38442551.176   200180425.933       -2199.697          28.000  
C09  37723691.132   196437163.446        -386.824          35.000  
C16  37338683.567   194432255.900        -240.848          22.000  
C23  23288067.606   121267112.6341       1401.355          26.000  
C25  21981483.935   114463367.803       -1217.726          30.000  
C33  22442573.130   116864352.877       -1283.184          37.000  
G10  20281553.373   106580255.475       -1287.691          45.000    20281558.169    79589187.651        -961.756          30.000  
G23  22021176.457   115722105.985       -3300.614          18.000                                                                  
G25  20896475.371   109811681.280       -1247.976          27.000    20896469.675    82002250.997        -933.284          30.000  
G31  21376144.803   112332413.019         710.323          37.000                                                                  
G32  21448823.189   112714225.472         802.465          26.000    21448788.413    84169675.224         599.892          27.000  
> 2021 09 12 11 00 07.9998006  0 12                     
C03  36476300.283   189941427.922        -366.978          42.000  
C06  36702056.895   191117244.371        -279.026          28.000  
C08  38442912.725   200182313.027       -2199.114          28.000  
C09  37723707.321   196437239.400        -388.161          34.000  
C23  23287740.233   121265398.995        1400.514          27.000  
C25  21981663.211   114464272.898       -1218.034          29.000  
C33  22442758.402   116865324.683       -1284.059          36.000  
G10  20281738.645   106581229.188       -1289.179          44.000    20281743.141    79589915.067        -964.108          30.000  
G23  22021739.167   115725085.032       -3290.210          18.000                                                                  
G25  20896651.649   109812614.722       -1249.300          26.000    20896648.052    82002948.502        -930.802          29.000  
G31  21375949.038   112331388.537         709.122          37.000                                                                  
G32                                                                  21448576.160    84168842.164         595.915          27.000  
> 2021 09 12 11 00 08.9998003  0 12                     
C03  36476280.496   189941326.922        -367.939          42.000  
C06  36702020.320   191117056.189        -281.213          29.000  
C08  38443244.296   200184043.411       -2199.083          27.000  
C09  37723693.231   196437159.102        -388.381          34.000  
C16  37338626.307   194431958.1821       -242.599          22.000  
C23  23287382.880   121263530.486        1399.309          28.000  
C25  21981802.915   114465022.270       -1213.262          30.000  
C33  22442915.493   116866140.797       -1284.388          36.000  
G10  20281893.038   106582046.052       -1289.210          45.000    20281899.033    79590526.024        -964.098          29.000  
G25  20896802.445   109813391.645       -1250.125          27.000    20896796.149    82003529.034        -932.553          30.000  
G31  21375722.395   112330206.968         709.125          37.000                                                                  
G32  21448370.802   112711834.7181        801.016          26.000    21448333.927    84167892.433         598.704          28.000  
> 2021 09 12 11 00 09.9998003  0 13                     
C03  36476351.247   189941694.454        -367.407          42.000  
C06  36702075.182   191117337.267        -280.917          27.000  
C08  38443667.303   200186241.991       -2198.136          28.000  
C09  37723767.579   196437546.379        -386.730          34.000  
C13  37466813.964   195099532.5521      -2029.138          21.000  
C23  23287115.166   121262130.932        1399.344          29.000  
C25  21982039.751   114466238.557       -1217.026          30.000  
C33  22443163.121   116867425.016       -1285.544          36.000  
G10  20282138.268   106583335.475       -1289.664          45.000    20282144.264    79591489.751        -963.803          30.000  
G23  22022891.569   115731198.3041      -3308.867          18.000                                                                  
G25  20897041.079   109814641.654       -1250.012          27.000    20897033.585    82004462.382        -932.581          29.000  
G31  21375585.990   112329497.714         708.725          37.000                                                                  
G32  21448218.507   112711033.279         801.938          30.000    21448180.134    84167292.362         600.826          28.000  
> 2021 09 12 11 00 10.9998001  0 12                     
C03  36476362.040   189941749.199        -366.349          42.000  
C06  36702068.886   191117305.333        -279.970          29.000  
C08  38444028.553   200188127.939       -2197.923          27.000  
C09  37723781.070   196437621.424        -386.520          35.000  
C13  37467144.036   195101249.956       -2029.919          23.000  
C23  23286787.193   121260419.724        1398.385          27.000  
C25  21982213.031   114467143.422       -1217.469          29.000  
C33  22443348.393   116868397.509       -1285.425          36.000  
G10  20282325.039   106584310.538       -1290.171          44.000    20282329.236    79592218.066        -964.464          30.000  
G25  20897219.156   109815576.876       -1250.501          26.000    20897211.362    82005160.989        -935.034          29.000  
G31  21375395.022   112328473.799         708.560          36.000                                                                  
G32  21448005.355   112709915.950         802.521          28.000    21447967.581    84166458.109         598.383          27.000  
> 2021 09 12 11 00 11.9997998  0 11                     
C03  36476342.853   189941646.872        -366.055          42.000  
C06  36702033.811   191117116.052        -278.140          27.000  
C08  38444361.622   200189857.880       -2197.540          28.000  
C09  37723760.684   196437540.179        -384.971          35.000  
C23  23286428.641   121258552.178        1399.485          27.000  
C25  21982355.432   114467892.236       -1217.632          28.000  
C33  22443506.983   116869214.286       -1284.100          36.000  
G10  20282479.432   106585128.577       -1291.879          45.000    20282484.528    79592829.572        -964.922          30.000  
G25  20897369.652   109816354.860       -1251.005          26.000    20897359.159    82005742.768        -935.777          28.000  
G31  21375166.880   112327292.621         708.211          36.000                                                                  
G32  21447762.223   112708640.505         803.278          26.000    21447724.150    84165506.242         598.153          28.000  
> 2021 09 12 11 00 12.9997996  0 14                     
C03  36476353.646   189941701.473        -367.745          40.000  
C06  36702029.014   191117082.636        -279.104          27.000  
C08  38444725.570   200191743.763       -2198.900          26.000  
C09  37723781.969   196437615.340        -385.689          34.000  
C13  37467777.497   195104531.7201      -2032.360          22.000  
C16  37338604.722   194431836.2921       -243.793          21.000  
C23  23286099.769   121256840.428        1398.161          26.000  
C25  21982529.611   114468797.807       -1218.757          28.000  
C33  22443693.155   116870187.751       -1285.004          34.000  
G10  20282665.303   106586105.194       -1291.216          43.000    20282670.399    79593559.517        -965.262          27.000  
G23  22024591.093   115740057.3071      -3325.677          17.000                                                                  
G25  20897545.031   109817291.351       -1252.264          27.000    20897537.836    82006442.215        -934.912          28.000  
G31  21374971.415   112326269.838         709.032          35.000                                                                  
G32  21447546.972   112707522.382         802.422          23.000    21447511.297    84164674.000         596.034          25.000  
> 2021 09 12 11 00 13.9997993  0 12                     
C03  36476333.860   189941600.910        -367.709          42.000  
C06  36701994.838   191116892.199        -278.133          27.000  
C08  38445057.141   200193474.915       -2199.827          23.000  
C09  37723766.680   196437534.170        -387.051          31.000  
C13  37468077.590   195106096.075       -2034.107          18.000  
C23  23285742.116   121254974.178        1396.688          26.000  
C25  21982674.711   114469547.919       -1218.748          27.000  
C33  22443849.047   116871005.549       -1286.011          35.000  
G10  20282820.595   106586924.818       -1292.699          43.000    20282826.591    79594171.529        -965.057          28.000  
G25  20897694.327   109818071.440       -1253.524          27.000    20897686.832    82007024.981        -936.562          30.000  
G31  21374747.470   112325089.679         706.242          35.000                                                                  
G32  21447305.639   112706247.249         802.397          27.000    21447269.364    84163723.358         599.441          27.000  
> 2021 09 12 11 00 14.9997990  0 11                     
C03  36476314.973   189941499.912        -367.229          41.000  
C06  36701960.062   191116701.731        -277.362          28.000  
C08  38445389.910   200195206.240       -2199.494          28.000  
C09  37723761.883   196437452.979        -387.650          32.000  
C13  37468379.780   195107661.665       -2034.274          19.000  
C25  21982819.811   114470298.330       -1219.481          27.000  
C33  22444001.641   116871823.744       -1284.598          35.000  
G10  20282976.488   106587745.030       -1292.848          42.000    20282983.683    79594784.319        -967.080          30.000  
G23  22025673.643   115745760.7111      -3320.480          18.000                                                                  
G25  20897841.525   109818852.649       -1254.033          26.000    20897835.829    82007608.716        -937.827          29.000  
G32  21447060.409   112704972.404         802.132          28.000    21447028.331    84162771.230         599.457          29.000  
> 2021 09 12 11 00 15.9997990  0 12                     
C03  36476384.524   189941866.794        -366.705          41.000  
C06  36702014.624   191116979.583        -278.817          25.000  
C08  38445812.318   200197405.555       -2199.264          28.000  
C09  37723837.731   196437840.862        -386.920          29.000  
C16  37338574.743   194431619.8611       -237.443          20.000  
C23  23285119.747   121251712.8451       1397.567          22.000  
C25  21983053.649   114471518.629       -1220.440          28.000  
C33  22444248.970   116873110.247       -1284.803          31.000  
G10  20283224.116   106589038.403       -1295.173          43.000    20283230.412    79595750.596        -965.954          27.000  
G25  20898078.661   109820107.714       -1255.563          22.000    20898075.064    82008546.397        -937.034          27.000  
G31  21374390.118   112323203.9021        706.620          30.000                                                                  
G32  21446904.217   112704170.193         802.179          30.000    21446876.037    84162172.412         597.758          30.000  
> 2021 09 12 11 00 16.9997988  0 12                     
C03  36476395.617   189941921.511        -367.450          40.000  
C06  36702005.930   191116947.860        -280.593          22.000  
C08  38446173.868   200199292.026       -2198.732          29.000  
C09  37723848.823   196437914.948        -386.046          25.000  
C23  23284792.673   121250003.671        1396.200          22.000  
C25  21983230.826   114472426.430       -1220.812          27.000  
C33  22444433.042   116874085.362       -1287.854          29.000  
G10  20283410.587   106590017.502       -1295.879          42.000    20283415.684    79596483.086        -967.678          28.000  
G23  22026884.805   115752090.5811      -3323.835          19.000                                                                  
G25                                                                  20898254.340    82009248.536        -936.731          27.000  
G31  21374195.552   112322182.365         706.316          32.000                                                                  
G32  21446687.767   112703053.121         801.443          27.000    21446663.184    84161339.518         597.887          28.000  
> 2021 09 12 11 00 17.9997985  0 12                     
C03  36476375.830   189941820.204        -367.001          41.000  
C06  36701969.955   191116759.735        -281.017          24.000  
C08  38446507.836   200201022.998       -2200.239          24.000  
C09  37723831.435   196437833.296        -385.740          26.000  
C23  23284433.822   121248139.815        1394.800          26.000  
C25  21983375.326   114473178.471       -1220.310          30.000  
C33  22444589.234   116874905.087       -1288.236          31.000  
G10  20283567.079   106590839.636       -1295.602          43.000    20283571.276    79597097.302        -967.221          27.000  
G23  22027425.331   115754941.416       -3323.376          20.000                                                                  
G25                                                                  20898403.336    82009833.048        -938.170          27.000  
G31  21373969.209   112321003.373         706.708          31.000                                                                  
G32  21446446.434   112701778.844         801.752          27.000    21446420.352    84160387.582         598.843          25.000  
> 2021 09 12 11 00 18.9997983  0 12                     
C03  36476385.724   189941874.882        -366.955          42.000  
C06  36701965.158   191116728.656        -281.824          18.000  
C08  38446869.386   200202911.246       -2200.886          29.000  
C09  37723841.328   196437906.372        -384.953          23.000  
C16  37338515.384   194431241.7721       -240.805          26.000  
C23  23284105.849   121246433.002        1395.509          27.000  
C25  21983550.705   114474086.413       -1220.210          27.000  
C33  22444777.804   116875881.089       -1288.102          32.000  
G10  20283754.149   106591820.080       -1295.521          44.000    20283758.047    79597829.559        -968.194          28.000  
G25  20898579.614   109822767.4801      -1255.340          22.000    20898581.413    82010536.767        -939.424          25.000  
G31  21373766.849   112319982.992         705.058          32.000                                                                  
G32  21446230.284   112700661.711         801.472          23.000    21446207.499    84159553.465         597.990          27.000  
> 2021 09 12 11 00 19.9997980  0 12                     
C03  36476366.537   189941772.876        -366.351          43.000  
C06  36701928.284   191116541.998        -281.843          21.000  
C08  38447203.355   200204643.412       -2200.419          27.000  
C09  37723819.743   196437823.687        -385.466          26.000  
C16  37338473.113   194431014.105        -241.293          26.000  
C23  23283750.595   121244569.110        1395.955          24.000  
C25  21983694.905   114474837.906       -1220.853          23.000  
C33  22444936.694   116876701.001       -1287.666          33.000  
G10  20283911.240   106592643.237       -1296.366          42.000    20283914.538    79598443.889        -967.112          30.000  
G25  20898728.311   109823550.882       -1257.630          18.000    20898729.211    82011121.870        -937.618          26.000  
G31  21373546.202                         705.776          34.000                                                                  
G32  21445985.653   112699387.827         800.782          30.000    21445965.567    84158602.140         600.377          27.000  
> 2021 09 12 11 00 20.9997978  0 11                     
C03  36476377.030   189941826.935        -366.766          42.000  
C06  36701922.288   191116510.668        -281.152          21.000  
C08  38447566.703   200206530.927       -2199.479          30.000  
C09  37723828.137   196437897.262        -385.952          30.000  
C16  37338459.922   194430942.265        -240.400          25.000  
C33  22445123.764   116877676.152       -1288.033          31.000  
G10  20284096.212   106593624.770       -1296.971          43.000    20284101.908    79599176.003        -968.056          32.000  
G23  22029103.569   115763804.0701      -3319.942          21.000                                                                  
G25  20898906.088   109824493.835       -1258.811          25.000    20898909.086    82011824.566        -938.879          24.000  
G31  21373350.737   112317723.8371        703.572          34.000                                                                  
G32  21445771.601   112698271.304         801.434          26.000    21445752.714    84157766.632         600.335          28.000  
> 2021 09 12 11 00 21.9997975  0 11                     
C03  36476357.843   189941725.675        -367.285          41.000  
C06  36701885.413   191116322.351        -278.678          21.000  
C08  38447899.473   200208261.987       -2199.259          29.000  
C09  37723807.152   196437814.945        -385.894          32.000  
C13  37470652.207   195119546.1961      -2027.662          17.000  
C16  37338414.054   194430714.768        -242.013          23.000  
C33  22445280.556   116878496.810       -1289.412          29.000  
G10  20284251.505   106594449.292       -1296.842          42.000    20284258.400    79599791.104        -967.998          33.000  
G25  20899055.685   109825280.243       -1258.770          28.000    20899060.182    82012410.687        -940.489          23.000  
G31  21373132.188   112316546.698         705.519          31.000                                                                  
G32  21445525.172   112696998.224         800.957          25.000    21445510.182    84156814.268         598.040          30.000  
> 2021 09 12 11 00 22.9997972  0 11                     
C03  36476338.356   189941624.279        -367.017          40.000  
C06  36701849.438   191116131.509        -277.334          20.000  
C08  38448231.343   200209992.850       -2198.936          30.000  
C09  37723787.665   196437732.434        -385.213          31.000  
C23  23282715.412   121239135.3461       1395.408          24.000  
C25  21984158.684   114477253.7761      -1221.100          27.000  
C33  22445437.047   116879317.836       -1290.057          27.000  
G10  20284410.095   106595274.371       -1297.553          44.000    20284414.592    79600405.091        -968.667          33.000  
G25  20899204.082   109826066.983       -1259.457          29.000    20899210.078    82012998.374        -940.733          23.000  
G31  21372908.543   112315369.731         706.980          33.000                                                                  
G32  21445279.942   112695723.955         802.605          27.000    21445265.851    84155864.059         597.659          27.000  
> 2021 09 12 11 00 23.9997970  0 12                     
C03  36476348.549   189941678.893        -367.322          39.000  
C08  38448593.493   200211880.161       -2200.080          28.000  
C09  37723800.556   196437805.897        -386.986          29.000  
C13  37471279.373   195122817.7541      -2023.113          18.000  
C16  37338351.397   194430417.5931       -241.409          25.000  
C23  23282384.441   121237428.793        1393.934          19.000  
C25  21984331.664   114478162.950       -1221.593          25.000  
C33  22445625.017   116880295.739       -1290.037          31.000  
G10  20284598.065   106596257.641       -1298.748          45.000    20284602.262    79601138.518        -968.900          31.000  
G25  20899383.658   109827011.253       -1259.731          29.000    20899390.253    82013702.484        -939.077          19.000  
G31  21372716.676   112314350.901         702.942          33.000                                                                  
G32  21445064.691   112694607.052         801.428          29.000    21445053.598    84155030.933         598.213          22.000  
> 2021 09 12 11 00 24.9997970  0 12                     
C03  36476419.300   189942046.259        -367.820          41.000  
C06  36701897.705   191116367.9651       -273.306          19.000  
C08  38449015.301   200214079.863       -2199.648          25.000  
C09  37723874.005   196438192.925        -387.165          29.000  
C16  37338397.865   194430658.885        -241.552          24.000  
C25  21984569.399   114479387.112       -1224.366          22.000  
C33  22445873.545   116881585.779       -1290.280          29.000  
G10  20284844.494   106597556.609       -1298.875          43.000    20284849.591    79602108.442        -970.572          33.000  
G23  22031383.790   115775821.3381      -3320.372          17.000                                                                  
G25  20899623.492   109828271.380       -1260.535          30.000    20899630.687    82014641.734        -938.871          21.000  
G31  21372580.570   112313647.456         701.977          34.000                                                                  
G32                                                                  21444902.203    84154431.616         598.828          27.000  
> 2021 09 12 11 00 25.9997970  0 13                     
C03  36476489.752   189942413.438        -366.886          41.000  
C06  36701949.569   191116641.604        -273.854          23.000  
C08  38449438.308   200216279.365       -2199.090          29.000  
C09  37723948.354   196438579.525        -386.574          30.000  
C16  37338446.731   194430900.428        -241.718          26.000  
C23  23281855.607   121234639.9911       1394.652          26.000  
C25  21984805.336   114480611.623       -1224.626          24.000  
C33  22446121.473   116882876.244       -1290.063          27.000  
G10  20285092.423   106598856.170       -1300.340          42.000    20285096.920                        -972.459          32.000  
G23  22032019.051   115779143.059       -3323.626          18.000                                                                  
G25  20899862.426   109829532.013       -1261.126          30.000    20899872.319    82015588.734        -941.183          10.000  
G31  21372447.762   112312944.259         702.609          34.000                                                                  
G32  21444759.202   112693003.0291        801.397          26.000    21444751.108    84153832.330         599.314          28.000  
> 2021 09 12 11 00 26.9997967  0 11                     
C03  36476469.965   189942311.544        -366.389          41.000  
C08  38449770.478   200218009.557       -2197.697          29.000  
C09  37723932.165   196438497.884        -386.748          29.000  
C16  37338402.962   194430673.610        -241.278          28.000  
C23  23281498.254   121232777.439        1393.633          26.000  
C25  21984952.234   114481368.878       -1225.821          21.000  
C33  22446279.464   116883697.601       -1289.568          26.000  
G10  20285248.914   106599683.719       -1300.360          42.000    20285254.311    79603696.2271       -971.463          32.000  
G25  20900012.622   109830321.572       -1263.130          31.000    20900022.815    82016178.799        -938.925          11.000  
G31  21372220.520   112311768.917         702.012          32.000                                                                  
G32  21444517.569   112691728.153         802.348          23.000    21444508.576    84152880.375         597.880          27.000  
> 2021 09 12 11 00 27.9997965  0 11                     
C03  36476481.357   189942365.409        -366.069          42.000  
C08  38450132.027   200219895.671       -2199.538          28.000  
C09  37723945.956   196438571.454        -385.673          27.000  
C16  37338388.571   194430601.823        -240.237          29.000  
C23  23281169.682   121231071.935        1393.129          25.000  
C25  21985129.412   114482281.483       -1224.844          21.000  
G10  20285437.184   106600669.514       -1301.473          43.000    20285441.981    79604432.403        -972.330          33.000  
G23  22033141.174   115785006.4051      -3327.193          18.000                                                                  
G25  20900193.397   109831269.183       -1262.180          28.000    20900202.991    82016886.509        -937.680          11.000  
G31  21372025.655   112310751.487         701.698          32.000                                                                  
G32  21444304.117   112690610.072         804.165          23.000    21444296.622    84152046.483         599.655          29.000  
> 2021 09 12 11 00 28.9997962  0 11                     
C03  36476460.072   189942262.832        -365.809          42.000  
C06  36701869.225   191116215.3301       -276.059          19.000  
C08  38450464.497   200221627.664       -2200.227          29.000  
C09  37723928.268   196438488.995        -385.207          29.000  
C16  37338344.202   194430373.669        -240.564          28.000  
C23  23280812.029   121229210.403        1392.875          29.000  
C25  21985276.310   114483037.280       -1223.902          25.000  
G10  20285596.374   106601498.080       -1301.712          43.000    20285599.971    79605051.175        -973.069          33.000  
G25  20900342.394   109832058.897       -1262.624          29.000    20900352.587    82017473.574        -937.606          10.000  
G31  21371800.510   112309576.708         701.994          33.000                                                                  
G32  21444061.285   112689333.847         803.021          26.000    21444053.790    84151094.370         598.737          29.000  
> 2021 09 12 11 00 29.9997960  0 12                     
C03  36476470.565   189942316.925        -366.744          42.000  
C06  36701862.629   191116180.335        -277.476          23.000  
C08  38450825.148   200223515.000       -2199.034          23.000  
C09  37723943.557   196438561.660        -384.788          30.000  
C16  37338331.311   194430301.957        -240.675          24.000  
C23  23280482.258   121227505.154        1392.895          28.000  
C25  21985451.089   114483948.590       -1223.374          25.000  
C33  22446807.698   116886476.8581      -1294.121          25.000  
G10  20285782.845   106602484.817       -1302.508          43.000    20285787.641    79605787.963        -972.216          32.000  
G25  20900524.068   109833006.769       -1263.569          31.000    20900531.863    82018176.284        -941.492          11.000  
G31  21371601.448   112308559.768         701.950          33.000                                                                  
G32  21443848.732   112688216.458         801.856          24.000    21443841.238    84150260.354         598.337          29.000  
> 2021 09 12 11 00 30.9997957  0 13                     
C03  36476451.978   189942215.257        -366.956          42.000  
C06  36701824.855   191115988.486        -276.691          22.000  
C08  38451157.617   200225245.375       -2198.779          23.000  
C09  37723927.069   196438477.814        -383.997          30.000  
C16  37338289.340   194430073.995        -240.609          23.000  
C23  23280121.907   121225644.287        1393.000          28.000  
C25  21985595.889   114484704.709       -1224.613          26.000  
C33  22446964.190   116887302.182       -1294.531          24.000  
G10  20285941.135   106603314.651       -1301.596          42.000    20285944.433    79606407.692        -972.928          32.000  
G23  22034811.018   115793732.6031      -3331.981          19.000                                                                  
G25  20900673.964   109833797.927       -1264.184          31.000    20900680.860                        -943.153          13.000  
G31  21371372.707   112307385.641         700.152          31.000                                                                  
G32  21443602.903   112686941.809         802.297          24.000    21443598.706    84149309.076         599.206          29.000  
> 2021 09 12 11 00 31.9997955  0 12                     
C03  36476462.770   189942269.340        -365.674          42.000  
C06  36701817.061   191115952.375        -276.118          23.000  
C08  38451519.767   200227130.960       -2197.894          25.000  
C09  37723942.958   196438549.440        -384.100          28.000  
C16  37338277.648   194430001.778        -240.070          23.000  
C23  23279792.735   121223939.671        1391.986          26.000  
C25  21985770.668   114485618.288       -1226.044          26.000  
C33  22447153.659   116888283.667       -1293.143          27.000  
G10  20286128.206   106604302.476       -1302.837          43.000    20286132.403    79607145.292        -973.620          31.000  
G25  20900857.138   109834747.230       -1264.610          33.000    20900859.236                        -944.360          16.000  
G31  21371189.533   112306369.313         702.681          30.000                                                                  
G32  21443391.249   112685824.842         801.472          26.000    21443386.752    84148475.112         599.353          29.000  
> 2021 09 12 11 00 32.9997952  0 12                     
C03  36476442.984   189942165.979        -364.668          42.000  
C06  36701780.186   191115760.313        -275.604          22.000  
C08  38451851.637   200228861.730       -2199.924          26.000  
C09  37723926.469   196438464.527        -382.831          29.000  
C16  37338235.977   194429774.312        -240.433          24.000  
C23  23279434.483   121222079.235        1391.840          29.000  
C25  21985913.669   114486375.313       -1224.515          25.000  
C33  22447314.947   116889108.349       -1293.040          26.000  
G10  20286286.196   106605133.139       -1304.669          43.000    20286290.993    79607765.707        -974.217          32.000  
G25  20901008.533   109835539.759       -1264.825          32.000    20901007.933    82020052.7051       -945.234          17.000  
G31  21370962.890   112305195.558         699.243          32.000                                                                  
G32  21443148.417   112684550.570         801.551          28.000    21443144.520    84147522.528         600.364          29.000  
> 2021 09 12 11 00 33.9997949  0 12                     
C03  36476422.598   189942062.425        -365.152          42.000  
C06  36701743.612   191115568.589        -276.194          23.000  
C08  38452184.107   200230591.841       -2197.688          27.000  
C09  37723910.880   196438379.205        -383.493          29.000  
C16  37338191.608   194429546.538        -241.078          22.000  
C23  23279076.531   121220218.631        1391.696          28.000  
C25  21986055.171   114487131.217       -1223.872          25.000  
C33  22447475.036   116889932.822       -1293.118          28.000  
G10  20286444.487   106605964.484       -1303.557          44.000    20286448.384    79608386.382        -975.039          31.000  
G25  20901159.928                       -1265.449          32.000    20901157.230    82020645.140        -945.921          18.000  
G31  21370738.645   112304022.255         701.719          31.000                                                                  
G32  21442900.789   112683276.528         801.311          26.000    21442901.388    84146570.496         598.822          28.000  
> 2021 09 12 11 00 34.9997949  0 12                     
C03  36476492.750   189942427.808        -365.898          42.000  
C06  36701796.975   191115844.596        -276.965          22.000  
C08  38452607.714   200232789.490       -2198.562          28.000  
C09  37723984.929   196438762.382        -383.280          30.000  
C16  37338235.378   194429786.019        -238.870          22.000  
C23  23278808.516   121218827.226        1390.921          28.000  
C25  21986288.409   114488355.182       -1223.579          24.000  
C33  22447725.063   116891225.727       -1293.752          28.000  
G10  20286692.715   106607269.232       -1304.802          44.000    20286697.212    79609360.821        -974.812          31.000  
G25  20901402.160   109837603.0901      -1266.448          31.000    20901396.764    82021591.468        -946.740          20.000  
G31  21370602.240   112303322.071         701.144          30.000                                                                  
G32  21442744.297   112682475.168         801.334          25.000    21442749.094    84145972.232         598.031          28.000  
> 2021 09 12 11 00 35.9997947  0 13                     
C03  36476502.942   189942481.500        -366.158          42.000  
C06  36701788.281   191115809.163        -276.712          24.000  
C08  38452969.863   200234675.825       -2199.584          27.000  
C09  37723998.419   196438833.888        -384.004          30.000  
C16  37338217.690   194429712.635        -239.266          25.000  
C23  23278481.143   121217124.840        1388.481          26.000  
C25  21986463.188   114489267.349       -1225.088          29.000  
C33  22447916.031   116892208.276       -1296.375          28.000  
G10  20286881.884   106608259.335       -1305.220          44.000    20286886.081    79610100.199        -974.595          31.000  
G23  22037717.805   115808798.6991      -3327.713          18.000                                                                  
G25  20901582.336   109838554.450       -1266.860          32.000    20901576.340    82022303.025        -946.962          21.000  
G31  21370413.071   112302307.037         699.364          31.000                                                                  
G32  21442531.744   112681358.563         801.555          29.000    21442536.541    84145137.600         599.517          28.000  
> 2021 09 12 11 00 36.9997944  0 12                     
C03  36476482.856   189942379.067        -366.036          42.000  
C06  36701750.207   191115617.049        -275.570          23.000  
C08  38453302.932   200236406.814       -2199.470          26.000  
C09  37723984.029   196438749.750        -384.157          30.000  
C23  23278122.291   121215267.843        1388.958          26.000  
C25  21986607.388   114490024.334       -1225.945          26.000  
C33  22448075.221   116893036.148       -1296.812          25.000  
G10  20287039.875   106609092.452       -1306.460          44.000    20287044.971    79610722.313        -975.887          32.000  
G23  22038263.727   115811654.297       -3328.708          18.000                                                                  
G25  20901735.230   109839348.729       -1268.198          32.000    20901727.135    82022896.472        -946.382          21.000  
G31  21370187.327   112301134.798         698.578          31.000                                                                  
G32  21442289.812   112680084.310         801.517          28.000    21442294.908    84144185.061         598.448          29.000  
> 2021 09 12 11 00 37.9997942  0 12                     
C03  36476494.248   189942432.030        -365.305          42.000  
C06  36701742.113   191115578.873        -273.119          21.000  
C08  38453668.080   200238294.189       -2199.993          27.000  
C09  37723999.918   196438821.595        -384.117          32.000  
C23  23277795.218   121213566.432        1388.402          29.000  
C25  21986782.767   114490939.213       -1227.958          25.000  
C33  22448263.491   116894020.733       -1296.535          27.000  
G10  20287228.744   106610083.936       -1306.577          43.000    20287233.540    79611462.720        -975.945          34.000  
G23  22038843.226   115814668.792       -3330.783          19.000                                                                  
G25  20901917.204   109840301.430       -1267.496          33.000    20901907.610    82023607.318        -946.623          21.000  
G31  21369995.460   112300120.625         697.758          31.000                                                                  
G32  21442075.160   112678967.765         800.930          27.000    21442083.554    84143351.796         597.050          31.000  
> 2021 09 12 11 00 38.9997939  0 12                     
C03  36476475.062   189942328.900        -365.445          42.000  
C06  36701701.341   191115384.005        -273.918          23.000  
C08  38454000.849   200240025.138       -2198.699          28.000  
C09  37723984.929   196438736.393        -382.153          35.000  
C23  23277438.165   121211708.960        1389.143          26.000  
C25  21986928.466   114491698.849       -1228.547          21.000  
C33  22448423.280   116894847.769       -1295.263          31.000  
G10  20287386.734   106610918.238       -1306.425          43.000    20287391.831    79612085.732        -975.171          32.000  
G23  22039383.153   115817526.137       -3329.815          19.000                                                                  
G25  20902065.301   109841097.035       -1267.488          33.000    20902057.806    82024201.046        -947.126          24.000  
G31  21369782.008   112298948.968         697.997          30.000                                                                  
G32  21441834.127   112677694.041         801.113          24.000    21441841.022    84142401.676         598.797          31.000  
> 2021 09 12 11 00 39.9997937  0 11                     
C03  36476485.854   189942381.938        -365.419          42.000  
C06  36701691.448   191115345.746        -273.886          19.000  
C08  38454363.298   200241911.917       -2198.793          28.000  
C09  37723998.419                        -383.679          35.000  
C23  23277111.391   121210008.407        1387.107          20.000  
C25  21987104.444   114492615.045       -1228.061          29.000  
C33  22448613.049   116895830.431       -1294.995          31.000  
G10  20287575.004   106611910.609       -1306.751          42.000    20287580.400    79612826.772        -975.213          33.000  
G25  20902239.481   109842050.628       -1270.308          32.000    20902238.581    82024913.069        -947.744          24.000  
G31  21369589.241   112297935.174         696.400          30.000                                                                  
G32                                                                  21441627.570    84141568.009         598.294          27.000  
> 2021 09 12 11 00 40.9997934  0 12                     
C03  36476464.269   189942279.163        -365.903          43.000  
C06  36701653.074   191115151.136        -274.312          19.000  
C08  38454696.368   200243642.011       -2198.042          27.000  
C09  37723983.729   196438674.2731       -383.733          35.000  
C23  23276755.238   121208152.397        1387.804          25.000  
C25  21987249.844   114493374.964       -1228.281          29.000  
C33  22448772.538   116896657.309       -1295.745          31.000  
G10  20287733.894   106612746.127       -1309.466          43.000    20287739.590    79613450.736        -978.497          33.000  
G23  22040497.781   115823398.9861      -3330.948          23.000                                                                  
G25  20902394.473   109842847.489       -1270.983          30.000    20902389.677    82025507.907        -947.690          23.000  
G31  21369369.194   112296764.232         698.567          32.000                                                                  
G32  21441380.241   112675303.2291        801.779          23.000    21441385.338    84140617.575         598.447          27.000  
> 2021 09 12 11 00 41.9997934  0 11                     
C03  36476535.020   189942644.650        -365.250          43.000  
C06  36701701.641   191115425.366        -275.013          20.000  
C08  38455119.075   200245840.845       -2198.747          24.000  
C09  37724057.179   196439057.158        -383.022          35.000  
C23  23276487.223   121206763.972        1388.736          25.000  
C25  21987485.181   114494603.024       -1227.886          29.000  
C33  22449022.565   116897953.000       -1296.017          31.000  
G10  20287983.621   106614054.825       -1309.160          43.000    20287989.017    79614427.994        -980.273          32.000  
G25  20902640.003   109844117.607       -1272.170          33.000    20902628.312    82026455.756        -948.902          20.000  
G31  21369230.090   112296066.421         696.308          29.000                                                                  
G32  21441230.045   112674501.375         801.853          25.000    21441232.444    84140018.786         599.899          28.000  
> 2021 09 12 11 00 42.9997932  0 12                     
C03  36476544.913   189942697.225        -364.848          42.000  
C08  38455480.025   200247727.137       -2198.389          25.000  
C09  37724070.969   196439127.836        -382.716          35.000  
C16  37338079.485   194429041.4671       -239.868          18.000  
C23  23276158.950   121205062.961        1388.257          29.000  
C25  21987660.859   114495518.712       -1228.172          29.000  
C33  22449214.132   116898937.458       -1297.706          33.000  
G10  20288173.090   106615049.210       -1308.224          44.000    20288177.887    79615170.564        -975.058          32.000  
G23  22041702.047   115829745.7051      -3331.179          23.000                                                                  
G25  20902823.776   109845073.375       -1269.595          33.000    20902810.585    82027171.085        -952.884          20.000  
G31  21369037.024   112295052.895         697.965          27.000                                                                  
G32  21441018.692   112673384.343         801.677          29.000    21441020.191    84139184.544         598.914          28.000  
> 2021 09 12 11 00 43.9997932  0 12                     
C03  36476615.065   189943062.043        -365.302          42.000  
C06  36701742.412   191115660.8631       -272.562          20.000  
C08  38455903.032   200249925.994       -2199.468          25.000  
C09  37724144.718   196439510.298        -380.800          35.000  
C23  23275891.236   121203674.199        1388.246          30.000  
C25  21987894.997   114496746.854       -1228.658          29.000  
C33  22449464.759   116900235.212       -1296.921          32.000  
G10  20288421.618   106616359.085       -1310.755          43.000    20288427.314    79616148.699        -977.518          32.000  
G23  22042335.808   115833076.841       -3331.168          23.000                                                                  
G25  20903061.512   109846344.591       -1271.333          33.000                                                                  
G31  21368904.815   112294355.094         697.540          26.000                                                                  
G32  21440866.697   112672582.751         801.618          29.000    21440867.296    84138584.970         599.670          28.000  
> 2021 09 12 11 00 44.9997929  0 11                     
C03  36476595.878   189942959.003        -365.298          43.000  
C06  36701702.840   191115465.647        -273.559          20.000  
C08  38456233.703   200251656.812       -2198.709          25.000  
C09  37724130.628   196439424.396        -382.766          34.000  
C23  23275533.583   121201817.889        1388.168          28.000  
C25  21988041.596   114497506.906       -1228.753          29.000  
C33  22449622.750   116901063.114       -1295.960          32.000  
G10  20288582.607   106617196.872       -1311.780          42.000    20288586.804    79616774.335        -979.371          33.000  
G25  20903212.907   109847143.856       -1273.068          32.000                                                                  
G31  21368682.369   112293185.078         696.815          27.000                                                                  
G32                                                                  21440625.364    84137632.365         600.060          29.000  
> 2021 09 12 11 00 45.9997926  0 10                     
C03  36476576.991   189942855.861        -365.387          43.000  
C08  38456565.274   200253386.310       -2197.604          27.000  
C09  37724112.340   196439338.583        -381.665          35.000  
C23  23275177.730   121199961.600        1388.333          27.000  
C25  21988187.894   114498266.832       -1228.330          31.000  
C33  22449781.939   116901891.452       -1297.684          31.000  
G10  20288742.696   106618035.678       -1311.496          43.000    20288746.293    79617400.754        -978.573          33.000  
G23  22043416.560   115838794.3601      -3332.130          25.000                                                                  
G25  20903362.803   109847944.094       -1273.418          34.000                                                                  
G32  21440382.532   112670034.3581        801.089          26.000    21440383.731    84136680.567         598.162          30.000  
> 2021 09 12 11 00 46.9997924  0 11                     
C03  36476586.884   189942908.705        -364.774          42.000  
C06  36701651.276   191115228.0031       -272.042          20.000  
C08  38456927.423   200255272.930       -2198.986          27.000  
C09  37724127.630   196439408.549        -382.467          34.000  
C23  23274850.656   121198261.499        1387.504          27.000  
C25  21988363.872   114499183.639       -1229.735          29.000  
C33  22449969.909   116902877.430       -1298.195          30.000  
G10  20288930.965   106619032.340       -1311.735          42.000    20288936.362    79618145.012        -979.206          32.000  
G23  22043988.564   115841811.383       -3332.324          27.000                                                                  
G25  20903550.473   109848902.161       -1272.897          34.000                                                                  
G32  21440170.879   112668918.018         801.119          26.000    21440171.778    84135846.625         598.705          30.000  
> 2021 09 12 11 00 47.9997921  0 12                     
C03  36476565.599   189942804.903        -364.916          42.000  
C06  36701610.804   191115032.087        -272.678          20.000  
C08  38457258.994   200257002.943       -2197.937          28.000  
C09  37724114.139   196439322.499        -381.363          36.000  
C23  23274492.704   121196405.717        1386.981          29.000  
C25  21988509.871   114499946.238       -1230.825          28.000  
C33  22450129.099   116903708.391       -1299.948          31.000  
G10  20289091.654   106619872.052       -1311.434          42.000    20289096.151    79618772.099        -979.418          33.000  
G23  22044530.289   115844671.013       -3332.401          24.000                                                                  
G25  20903704.566   109849703.469       -1273.081          35.000                                                                  
G31  21368052.205   112289832.9811        696.652          30.000                                                                  
G32  21439931.045   112667642.873         802.014          27.000    21439929.546    84134894.667         599.704          30.000  
> 2021 09 12 11 00 48.9997919  0 10                     
C03  36476575.492   189942857.627        -365.126          42.000  
C06  36701604.208   191114993.509        -273.576          21.000  
C08  38457620.543   200258888.370       -2197.738          28.000  
C09  37724132.726   196439392.063        -381.247          36.000  
C25  21988687.049   114500865.000       -1231.823          28.000  
C33  22450323.964   116904695.516       -1299.837          34.000  
G10  20289283.521   106620869.842       -1313.813          43.000    20289285.020    79619517.128        -981.668          32.000  
G25  20903888.039   109850662.771       -1274.944          34.000                                                                  
G31  21367861.537   112288821.613         695.781          33.000                                                                  
G32  21439719.691   112666526.061         801.683          31.000    21439716.093    84134060.541         598.340          29.000  
> 2021 09 12 11 00 49.9997916  0 10                     
C03  36476556.306   189942754.115        -364.658          42.000  
C08  38457955.411   200260618.130       -2199.468          25.000  
C09  37724112.340   196439305.345        -383.802          35.000  
C23  23273798.085   121192852.8611       1384.716          24.000  
C25  21988835.746   114501628.076       -1231.401          24.000  
C33  22450486.452                       -1299.733          33.000  
G10  20289440.313   106621710.525       -1315.031          42.000    20289445.709    79620144.964        -982.975          30.000  
G23  22045641.020   115850541.1271      -3329.074          19.000                                                                  
G25  20904033.739   109851465.114       -1276.351          33.000                                                                  
G32  21439480.457   112665251.907         801.733          31.000    21439474.161    84133109.998         597.883          28.000  
> 2021 09 12 11 00 50.9997914  0 10                     
C03  36476567.398   189942806.190        -364.087          42.000  
C08  38458318.160   200262505.156       -2199.575          27.000  
C09  37724122.234   196439374.725        -379.076          36.000  
C23  23273468.313   121191154.466        1383.896          27.000  
C25  21989013.223   114502546.979       -1231.032          29.000  
C33  22450671.424   116906562.5741      -1299.405          34.000  
G10  20289632.780   106622709.406       -1314.616          43.000    20289635.178    79620890.847        -981.728          32.000  
G25  20904218.411   109852425.627       -1275.593          31.000                                                                  
G31  21367439.429   112286642.7971        695.742          31.000                                                                  
