     3.04           OBSERVATION DATA    M: Mixed            RINEX VERSION / TYPE
Higeo_Hi1105        Huawei CBG          20210720 020104 UTC PGM / RUN BY / DATE 
************************************************************COMMENT             
* If you have any problem,                                 *COMMENT             
*     please contact with LBS Technology Group, thanks.    *COMMENT             
*                                                          *COMMENT             
* Version Higeo2RinexV1.1 2020.07.21                       *COMMENT             
* Fuction:  Convert Higeo Log to Rinex file                *COMMENT             
*                                                          *COMMENT             
* Note that the verision support B1C B2A signal            *COMMENT             
*     BDS: C1D L1D D1D S1D indicate BDS B1C                *COMMENT             
*     BDS: C5D L5D D5D S5D indicate BDS B2A                *COMMENT             
*     Reference: RINEX V3.04                               *COMMENT             
*                                                          *COMMENT             
* Copyright(C) Huawei Technologies Co., Ltd. 2019 - 2020   *COMMENT             
*     All rights reserved.                                 *COMMENT             
************************************************************COMMENT             
                                                            MARKER NAME         
                                                            MARKER NUMBER       
                                                            MARKER TYPE         
                                                            OBSERVER / AGENCY   
                                                            REC # / TYPE / VERS 
                                                            ANT # / TYPE        
        0.0000        0.0000        0.0000                  APPROX POSITION XYZ 
        0.0000        0.0000        0.0000                  ANTENNA: DELTA H/E/N
G    8 C1C L1C D1C S1C C5I L5I D5I S5I                      SYS / # / OBS TYPES 
R    4 C1C L1C D1C S1C                                      SYS / # / OBS TYPES 
E    8 C1C L1C D1C S1C C5I L5I D5I S5I                      SYS / # / OBS TYPES 
J    8 C1C L1C D1C S1C C5I L5I D5I S5I                      SYS / # / OBS TYPES 
C   12 C2I L2I D2I S2I C1D L1D D1D S1D C5D L5D D5D S5D      SYS / # / OBS TYPES 
  2021     5    17     7    35   51.0000000     GPS         TIME OF FIRST OBS   
  2021     5    17     8     1   16.0000000     GPS         TIME OF LAST OBS    
G                                                           SYS / PHASE SHIFT   
R                                                           SYS / PHASE SHIFT   
E                                                           SYS / PHASE SHIFT   
J                                                           SYS / PHASE SHIFT   
C                                                           SYS / PHASE SHIFT   
  0                                                         GLONASS SLOT / FRQ #
 C1C    0.000 C1P    0.000 C2C    0.000 C2P    0.000        GLONASS COD/PHS/BIS 
                                                            END OF HEADER       
> 2021  5 17  7 35 51.0000000  0 11                     
G 2  22983880.610     -141597.139       -2474.737          25.000                                                                  
G 6  20859866.833     -136509.355       -1357.642          25.000                                                                  
G12  24725134.014      -17116.590       -4187.697          27.000                                                                  
G14  22014415.760       10603.772        2340.672          25.000                                                                  
G19  20577197.627      -37414.747       -1319.579          25.000                                                                  
G28  21133748.415      119626.145         977.375          30.000                                                                  
R12  21026572.447     -113128.346       -1461.514          28.000  
R21  20661690.192        2336.439         348.499          23.000  
R22  21061137.821       -6998.380       -1640.387          19.000  
C20  23641928.908      -74496.589       -1994.406          22.000                                                                                                                                  
C29  22048356.453      -82700.397        -615.767          23.000                                                                                                                                  
> 2021  5 17  7 35 52.0000000  0 12                     
G 2  22983411.104     -144073.668       -2477.560          24.000                                                                  
G 6  20859607.523     -137867.256       -1358.571          25.000                                                                  
G12  24724338.412      -21302.699       -4186.385          26.000                                                                  
G14  22014862.184       12945.546        2340.797          25.000                                                                  
G17  21262464.889       -1809.994        -288.531          15.000                                                                  
G19  20576945.664      -38733.725       -1318.749          25.000                                                                  
G28  21133935.337      120603.743         976.696          25.000                                                                  
R12  21026276.277     -114721.647       -1461.622          24.000  
R21  20661745.457        2684.928         347.972          22.000  
R22  21060802.837       -8786.754       -1640.094          17.000  
C20  23641545.946      -76489.861       -1993.274          28.000                                                                                                                                  
C29  22048238.564      -83316.464        -616.010          24.000                                                                                                                                  
> 2021  5 17  7 35 53.0000000  0 12                     
G 2  22982940.031     -146549.401       -2474.390          18.000                                                                  
G 6  20859349.100     -139224.316       -1358.578          23.000                                                                  
G12  24723542.680      -25488.894       -4186.704          24.000                                                                  
G14  22015307.651       15288.028        2341.658          20.000                                                                  
G17  21262409.282       -2102.500        -292.573          16.000                                                                  
G19  20576693.256      -40053.057       -1318.422          25.000                                                                  
G28  21134121.797      121582.079         979.180          25.000                                                                  
R12  21025980.129     -116313.567       -1458.655          28.000  
R21  20661803.087        3032.740         346.937          25.000  
R22  21060467.662      -10576.754       -1643.040          17.000  
C20  23641162.477      -78483.398       -1991.904          27.000                                                                                                                                  
C29  22048121.063      -83930.014        -612.715          23.000                                                                                                                                  
> 2021  5 17  7 35 54.0000000  0 12                     
G 2  22982468.229     -149027.837       -2479.509          19.000                                                                  
G 6  20859089.551     -140582.540       -1358.802          21.000                                                                  
G12  24722745.286      -29675.930       -4187.537          26.000                                                                  
G14  22015753.009       17627.966        2340.980          18.000                                                                  
G17  21262354.335       -2396.078        -293.210          17.000                                                                  
G19  20576442.449      -41371.838       -1318.377          29.000                                                                  
G28  21134307.205      122559.549         979.329          27.000                                                                  
R12  21094511.548     -117904.073       -1457.865          20.000  
R21  20661866.401        3378.633         347.175          21.000  
R22  21060135.175      -12367.363       -1641.669          17.000  
C20  23640779.685      -80474.225       -1992.229          29.000                                                                                                                                  
C29  22048003.801      -84543.729        -614.583          22.000                                                                                                                                  
> 2021  5 17  7 35 55.0000000  0 12                     
G 2  22982001.056     -151503.639          -0.003          22.000                                                                  
G 6  20858830.648     -141943.162       -1360.787          18.000                                                                  
G12  24721947.682      -33861.868       -4185.478          26.000                                                                  
G14  22016198.520       19968.821        2339.110          14.000                                                                  
G17  21262296.099       -2688.404        -291.708          17.000                                                                  
G19  20576193.487      -42689.925       -1317.117          28.000                                                                  
G28  21134492.625      123539.050         980.296          28.000                                                                  
R12  21094211.522     -119497.615       -1465.058          17.000  
R21  20661929.470        3725.598         346.893          21.000  
R22  21059799.891      -14157.444       -1640.954          18.000  
C20  23640397.429      -82463.992       -1988.987          31.000                                                                                                                                  
C29  22047886.436      -85158.513        -614.259          21.000                                                                                                                                  
> 2021  5 17  7 35 56.0000000  0 12                     
G 2  22981532.282     -153977.036       -2473.201          23.000                                                                  
G 6  20858572.229     -143301.378       -1356.392          18.000                                                                  
G12  24721149.885      -38047.368       -4184.244          26.000                                                                  
G14  22016631.879       22308.803        2339.257          15.000                                                                  
G17  21262240.756       -2979.235        -290.441          17.000                                                                  
G19  20575942.322      -44008.603       -1319.890          24.000                                                                  
G28  21134678.029      124517.838         980.125          27.000                                                                  
R12  21093913.350     -121090.505       -1459.079          17.000  
R21  20661994.669        4072.526         346.885          22.000  
R22  21059462.762      -15943.589       -1637.400          18.000  
C20  23640015.108      -84455.595       -1990.105          32.000                                                                                                                                  
C29  22047769.061      -85771.938        -613.777          19.000                                                                                                                                  
> 2021  5 17  7 35 57.0000000  0 12                     
G 2  22981063.447     -156450.354          -0.003          22.000                                                                  
G 6  20858308.112     -144658.964       -1358.708          18.000                                                                  
G12  24720354.280      -42232.961       -4185.825          27.000                                                                  
G14  22017077.233       24649.062        2340.170          16.000                                                                  
G17  21262185.622       -3269.156        -288.098          14.000                                                                  
G19  20575691.101      -45328.058       -1319.059          21.000                                                                  
G28  21134863.546      125499.864         979.335          27.000                                                                  
R12  21093616.635     -122679.188       -1456.082          18.000  
R21  20662056.652        4419.978         348.376          24.000  
R22  21059128.058      -17730.069       -1639.611          18.000  
C20  23639633.171      -86444.997       -1990.355          33.000                                                                                                                                  
C29  22047651.119      -86386.393        -614.966          17.000                                                                                                                                  
> 2021  5 17  7 35 58.0000000  0 12                     
G 2  22980594.438     -158923.384       -2472.796          23.000                                                                  
G 6  20858051.224     -146016.557       -1356.509          17.000                                                                  
G12  24719558.447      -46419.038       -4185.890          26.000                                                                  
G14  22017522.744       26989.982        2341.324          16.000                                                                  
G17  21262121.340       -3557.433           0.015          12.000                                                                  
G19  20575439.993      -46646.998       -1318.148          21.000                                                                  
G28  21135048.924      126479.923         981.549          28.000                                                                  
R12  21093324.907     -124265.349       -1453.812          18.000  
R21  20662120.459        4765.669         344.599          22.000  
R22  21058788.616      -19518.798       -1642.988          19.000  
C20  23639250.819      -88434.630       -1989.276          32.000                                                                                                                                  
C29  22047532.890      -87002.535        -614.967          17.000                                                                                                                                  
> 2021  5 17  7 35 59.0000000  0 12                     
G 2  22980122.501     -161396.556       -2472.718          27.000                                                                  
G 6  20857800.379     -147375.204       -1356.711          37.000                                                                  
G12  24718761.956      -50604.040       -4184.520          25.000                                                                  
G14  22017986.592       29331.023        2341.394          21.000                                                                  
G17  21262066.470       -3846.390           0.015          14.000                                                                  
G19  20575188.523      -47966.056       -1317.730          32.000                                                                  
G28  21135234.957      127459.403         979.880          26.000                                                                  
R12  21093027.451     -125850.620       -1455.322          30.000  
R21  20662184.620        5110.649         345.411          23.000  
R22  21058440.737      -21308.529       -1639.698          25.000  
C20  23638868.376      -90424.447       -1990.509          26.000                                                                                                                                  
C29  22047414.564      -87619.300        -616.822          33.000                                                                                                                                  
> 2021  5 17  7 36  0.0000000  0 12                     
G 2  22979646.511     -163870.072       -2475.451          24.000                                                                  
G 6  20857543.281     -148729.864       -1353.559          35.000                                                                  
G12  24717962.494      -54788.616       -4186.689          28.000                                                                  
G14  22018445.245       31672.693        2342.559          21.000                                                                  
G17  21262011.402       -4136.288           0.015          14.000                                                                  
G19  20574936.424      -49282.623       -1316.425          31.000                                                                  
G28  21135421.046      128440.732         984.014          24.000                                                                  
R12  21092726.975     -127435.791       -1453.916          28.000  
R21  20662247.911        5457.171         346.952          21.000  
R22  21058108.223      -23094.835       -1637.120          25.000  
C20  23638486.761      -92414.124       -1989.760          27.000                                                                                                                                  
C29  22047296.426      -88234.502        -614.965          31.000                                                                                                                                  
> 2021  5 17  7 36  1.0000000  0 12                     
G 2  22979175.735     -166344.638       -2474.417          24.000                                                                  
G 6  20857285.613     -150082.505       -1353.379          27.000                                                                  
G12  24717166.215      -58974.696       -4189.644          28.000                                                                  
G14  22018881.940       34015.805        2343.023          23.000                                                                  
G17  21261956.263       -4426.174           0.015          16.000                                                                  
G19  20574687.031      -50596.574       -1317.487          28.000                                                                  
G28  21135608.121      129424.106         983.156          26.000                                                                  
R12  21092433.851     -129019.156       -1457.304          30.000  
R21  20662312.578        5804.056         347.255          22.000  
R22  21057774.816      -24878.333       -1637.601          18.000  
C20  23638103.869      -94401.894       -1985.207          30.000                                                                                                                                  
C29  22047179.174      -88849.418        -616.425          25.000                                                                                                                                  
> 2021  5 17  7 36  2.0000000  0 12                     
G 2  22978704.614     -168817.836       -2471.175          22.000                                                                  
G 6  20857026.539     -151440.100       -1360.081          24.000                                                                  
G12  24716371.107      -63165.547       -4188.009          28.000                                                                  
G14  22019327.651       36358.035        2342.505          20.000                                                                  
G17  21261901.334       -4715.171           0.015          17.000                                                                  
G19  20574434.946      -51914.146       -1316.827          29.000                                                                  
G28  21135795.327      130407.271         983.222          25.000                                                                  
R12  21092136.386     -130608.831       -1455.908          26.000  
R21  20662378.038        6151.103         347.972          23.000  
R22  21057440.456      -26663.301          -0.004          19.000  
C20  23637722.900      -96389.257       -1988.073          26.000                                                                                                                                  
C29  22047061.084      -89466.482        -617.169          25.000                                                                                                                                  
> 2021  5 17  7 36  3.0000000  0 12                     
G 2  22978233.790     -171289.259       -2472.236          23.000                                                                  
G 6  20856769.137     -152798.104       -1356.319          28.000                                                                  
G12  24715576.135      -67354.124       -4187.813          25.000                                                                  
G14  22019769.320       38699.911        2342.198          20.000                                                                  
G17  21261845.302       -5003.536        -287.591          16.000                                                                  
G19  20574186.006      -53231.310       -1317.190          28.000                                                                  
G28  21135981.508      131388.959         982.889          24.000                                                                  
R12  21091841.259     -132191.716       -1450.511          28.000  
R21  20662442.983        6499.396         350.867          20.000  
R22  21057152.301      -28449.472       -1637.799          20.000  
C20  23637342.825      -98377.804       -1987.821          26.000                                                                                                                                  
C29  22046942.222      -90083.527        -615.819          24.000                                                                                                                                  
> 2021  5 17  7 36  4.0000000  0 12                     
G 2  22977764.998     -173760.849       -2470.979          22.000                                                                  
G 6  20856511.132     -154153.902       -1355.816          27.000                                                                  
G12  24714781.292      -71540.347       -4185.787          25.000                                                                  
G14  22020216.397       41042.499        2342.246          21.000                                                                  
G17  21261793.549       -5291.668        -287.491          18.000                                                                  
G19  20573934.963      -54550.610       -1317.706          27.000                                                                  
G28  21136169.294      132371.434         983.026          26.000                                                                  
R12  21091547.389     -133774.947       -1453.379          30.000  
R21  20662509.259        6850.297         350.030          22.000  
R22  21056804.182      -30234.661       -1638.006          20.000  
C20  23636962.472     -100366.109       -1988.000          26.000                                                                                                                                  
C29  22046823.312      -90700.438        -616.553          25.000                                                                                                                                  
> 2021  5 17  7 36  5.0000000  0 12                     
G 2  22977295.225     -176232.972       -2472.916          22.000                                                                  
G 6  20856251.849     -155510.360       -1355.407          25.000                                                                  
G12  24713984.731      -75727.275       -4187.707          26.000                                                                  
G14  22020662.960       43386.430        2346.279          20.000                                                                  
G17  21261743.823       -5580.024        -287.836          19.000                                                                  
G19  20573681.569      -55868.381       -1315.976          28.000                                                                  
G28  21136358.363      133355.042         985.843          26.000                                                                  
R12  21091250.883     -135359.189       -1451.780          29.000  
R21  20662574.580        7199.619         348.998          18.000  
R22  21056470.429      -32020.458       -1638.744          21.000  
C20  23636581.834     -102353.929       -1986.956          24.000                                                                                                                                  
C29  22046705.318      -91314.518        -614.084          23.000                                                                                                                                  
> 2021  5 17  7 36  6.0000000  0 12                     
G 2  22976824.746     -178706.193       -2472.924          18.000                                                                  
G 6  20855994.006     -156865.377       -1355.712          26.000                                                                  
G12  24713189.400      -79913.471       -4184.714          24.000                                                                  
G14  22021107.550       45733.305        2346.661          18.000                                                                  
G17  21261694.849       -5867.972        -287.884          18.000                                                                  
G19  20573431.560      -57184.818       -1315.947          29.000                                                                  
G28  21136546.153      134339.093         984.176          23.000                                                                  
R12  21090956.577     -136940.212       -1449.700          30.000  
R21  20662639.835        7548.204         346.071          20.000  
R22  21056134.373      -33806.060       -1637.155          19.000  
C20  23636201.058     -104340.422       -1985.483          25.000                                                                                                                                  
C29  22046587.345      -91929.035        -615.830          25.000                                                                                                                                  
> 2021  5 17  7 36  7.0000000  0 12                     
G 2  22976354.401     -181179.208       -2471.873          19.000                                                                  
G 6  20855740.573     -158219.137       -1352.415          25.000                                                                  
G12  24712393.973      -84098.577       -4187.023          26.000                                                                  
G14  22021552.020       48079.437        2345.976          22.000                                                                  
G17  21261640.177       -6155.628        -287.585          18.000                                                                  
G19  20573180.993      -58500.424       -1317.547          27.000                                                                  
G28  21136734.563      135324.543         985.991          26.000                                                                  
R12  21090662.431     -138520.499       -1450.160          30.000  
R21  20662705.186        7893.803         344.768          19.000  
R22  21055795.364      -35589.326       -1636.467          20.000  
C20  23635820.324     -106326.706       -1986.559          25.000                                                                                                                                  
C29  22046468.719      -92544.724        -615.650          24.000                                                                                                                                  
> 2021  5 17  7 36  8.0000000  0 12                     
G 2  22975883.154     -183652.473       -2473.100          18.000                                                                  
G 6  20855483.458     -159573.350       -1353.948          26.000                                                                  
G12  24711599.435      -88286.327       -4187.519          26.000                                                                  
G14  22021998.203       50424.625        2344.796          25.000                                                                  
G17  21261583.580       -6442.872        -286.589          17.000                                                                  
G19  20572932.943      -59816.402       -1315.449          29.000                                                                  
G28  21136922.611      136309.120         984.513          27.000                                                                  
R12  21090366.354     -140100.476       -1449.976          30.000  
R21  20662772.387        8239.987         346.996          22.000  
R22  21055465.685      -37373.117       -1637.241          22.000  
C20  23635439.203     -108313.441       -1985.887          25.000                                                                                                                                  
C29  22046350.171      -93160.163        -613.254          25.000                                                                                                                                  
> 2021  5 17  7 36  9.0000000  0 12                     
G 2  22975412.993     -186125.768       -2474.647          18.000                                                                  
G 6  20855226.623     -160926.326       -1353.710          27.000                                                                  
G12  24710803.586      -92472.155       -4183.068          27.000                                                                  
G14  22022443.295       52769.091        2344.754          27.000                                                                  
G17  21261529.275       -6728.564        -284.899          17.000                                                                  
G19  20572683.292      -61133.379       -1316.153          29.000                                                                  
G28  21137110.284      137292.575         985.044          25.000                                                                  
R12  21090072.819     -141678.645       -1447.420          31.000  
R21  20662838.450        8587.118         348.247          21.000  
R22  21055131.793      -39157.374       -1636.516          22.000  
C20  23635058.025     -110298.919       -1985.011          24.000                                                                                                                                  
C29  22046231.732      -93775.803        -616.211          23.000                                                                                                                                  
> 2021  5 17  7 36 10.0000000  0 12                     
G 2  22974940.720     -188598.485       -2470.375          19.000                                                                  
G 6  20854969.294     -162279.225       -1351.417          27.000                                                                  
G12  24710006.820      -96656.194       -4185.955          26.000                                                                  
G14  22022888.175       55112.405        2344.916          25.000                                                                  
G17  21261475.131       -7013.552        -285.121          17.000                                                                  
G19  20572434.305      -62449.643       -1315.545          30.000                                                                  
G28  21137300.129      138277.806         983.089          27.000                                                                  
R12  21089778.286     -143255.909       -1446.333          29.000  
R21  20662905.336        8933.555         346.010          21.000  
R22  21054797.517      -40940.394       -1635.955          20.000  
C20  23634677.440     -112283.981       -1985.210          23.000                                                                                                                                  
C29  22046113.319      -94391.959        -615.695          24.000                                                                                                                                  
> 2021  5 17  7 36 11.0000000  0 12                     
G 2  22974470.471     -191069.261       -2472.413          18.000                                                                  
G 6  20854711.591     -163631.629       -1353.026          26.000                                                                  
G12  24709210.181     -100841.117       -4184.609          26.000                                                                  
G14  22023334.412       57457.842        2345.926          24.000                                                                  
G17  21261422.558       -7299.208        -287.736          16.000                                                                  
G19  20572184.261      -63766.115       -1316.510          30.000                                                                  
G28  21137488.709      139263.802         988.236          25.000                                                                  
R12  21089482.862     -144833.393       -1448.150          30.000  
R21  20662971.499        9279.221         345.983          20.000  
R22  21054462.664      -42725.541       -1638.958          20.000  
C20  23634296.030     -114270.360       -1987.444          23.000                                                                                                                                  
C29  22045995.098      -95006.950        -614.030          25.000                                                                                                                                  
> 2021  5 17  7 36 12.0000000  0 12                     
G 2  22973999.385     -193542.069       -2471.674          18.000                                                                  
G 6  20854455.135     -164984.591       -1353.484          26.000                                                                  
G12  24708414.264     -105026.152       -4185.448          27.000                                                                  
G14  22023781.542       59804.305        2347.037          24.000                                                                  
G17  21261367.598       -7588.231        -288.187          14.000                                                                  
G19  20571931.434      -65081.518       -1316.822          29.000                                                                  
G28  21137676.541      140251.613         988.337          23.000                                                                  
R12  21089188.206     -146410.662       -1446.191          29.000  
R21  20663037.487        9627.082         350.768          19.000  
R22  21054129.103      -44510.751       -1636.307          20.000  
C20  23633914.952     -116256.921       -1985.586          24.000                                                                                                                                  
C29  22045876.711      -95623.170        -617.650          26.000                                                                                                                                  
> 2021  5 17  7 36 13.0000000  0 12                     
G 2  22973528.955     -196014.109       -2472.697          18.000                                                                  
G 6  20854195.651     -166338.309       -1354.195          25.000                                                                  
G12  24707615.473     -109212.519       -4186.923          25.000                                                                  
G14  22024227.406       62150.601        2345.470          22.000                                                                  
G17  21261303.910       -7874.957           0.015          15.000                                                                  
G19  20571681.098      -66397.071       -1313.632          30.000                                                                  
G28  21137865.500      141239.867         988.782          24.000                                                                  
R12  21088892.190     -147986.777       -1445.751          30.000  
R21  20663104.312        9975.149         347.845          19.000  
R22  21053794.308      -46296.062       -1636.917          21.000  
C20  23633534.608     -118242.337       -1985.165          24.000                                                                                                                                  
C29  22045757.531      -96238.898        -614.305          25.000                                                                                                                                  
> 2021  5 17  7 36 14.0000000  0 12                     
G 2  22973052.992     -198485.496       -2470.068          28.000                                                                  
G 6  20853937.341     -167692.133       -1352.131          26.000                                                                  
G12  24706818.969     -113396.242       -4181.924          29.000                                                                  
G14  22024674.838       64495.713        2344.450          20.000                                                                  
G17  21261249.249       -8162.773           0.015          15.000                                                                  
G19  20571431.971      -67711.408       -1313.666          22.000                                                                  
G28  21138054.373      142229.166         988.199          22.000                                                                  
R12  21088595.283     -149562.731       -1443.365          25.000  
R21  20663169.865       10324.730         351.293          17.000  
R22  21053459.068      -48081.262       -1638.176          19.000  
C20  23633153.072     -120226.961       -1985.171          26.000                                                                                                                                  
C29  22045639.314      -96853.387        -617.572          21.000                                                                                                                                  
> 2021  5 17  7 36 15.0000000  0 12                     
G 2  22972584.362     -200956.446       -2474.101          18.000                                                                  
G 6  20853682.647     -169045.132       -1352.118          26.000                                                                  
G12  24706020.842     -117581.858       -4188.290          22.000                                                                  
G14  22025120.829       66839.090        2343.924          17.000                                                                  
G17  21261194.438       -8451.063           0.015          17.000                                                                  
G19  20571182.752      -69026.285       -1314.852          24.000                                                                  
G28  21138241.609      143216.886         987.725          29.000                                                                  
R12  21088298.978     -151136.268       -1443.073          25.000  
R21  20663235.150       10673.194         346.280          19.000  
R22  21053125.014      -49866.477       -1636.633          18.000  
C20  23632770.489     -122211.514       -1982.360          37.000                                                                                                                                  
C29  22045521.067      -97469.578        -615.378          19.000                                                                                                                                  
> 2021  5 17  7 36 16.0000000  0 12                     
G 2  22972112.940     -203429.947       -2472.986          21.000                                                                  
G 6  20853425.572     -170397.518       -1352.300          30.000                                                                  
G12  24705226.554     -121767.994       -4184.918          27.000                                                                  
G14  22025567.417       69185.828        2346.855          23.000                                                                  
G17  21261135.845       -8741.167        -290.906          15.000                                                                  
G19  20570932.848      -70340.424       -1315.327          24.000                                                                  
G28  21138426.878      144207.249         990.485          28.000                                                                  
R12  21088004.375     -152709.394       -1442.307          30.000  
R21  20663303.319       11020.969         348.223          22.000  
R22  21052789.438      -51650.318       -1637.879          22.000  
C20  23632388.826     -124193.124       -1981.706          28.000                                                                                                                                  
C29  22045403.100      -98084.584        -615.834          24.000                                                                                                                                  
> 2021  5 17  7 36 17.0000000  0 12                     
G 2  22971643.464     -205901.579       -2470.554          18.000                                                                  
G 6  20853168.135     -171748.971       -1351.671          30.000                                                                  
G12  24704428.876     -125953.738       -4186.557          27.000                                                                  
G14  22025967.182       71532.782        2347.475          25.000                                                                  
G17  21261080.244       -9033.239        -292.891          14.000                                                                  
G19  20570681.098      -71654.653       -1314.087          24.000                                                                  
G28  21138614.071      145196.049         988.730          27.000                                                                  
R12  21087708.821     -154282.348       -1444.193          32.000  
R21  20663370.817       11368.834         347.716          25.000  
R22  21052455.009      -53434.964       -1636.281          19.000  
C20  23632006.723     -126175.615       -1981.878          30.000                                                                                                                                  
C29  22045285.712      -98699.016        -611.791          21.000                                                                                                                                  
> 2021  5 17  7 36 18.0000000  0 12                     
G 2  22971173.193     -208371.813       -2470.338          18.000                                                                  
G 6  20852907.852     -173100.301       -1352.182          30.000                                                                  
G12  24703631.255     -130139.537       -4185.621          27.000                                                                  
G14  22026415.806       73880.675        2348.092          23.000                                                                  
G17  21261024.700       -9324.986        -291.166          15.000                                                                  
G19  20570432.987      -72967.866       -1311.634          28.000                                                                  
G28  21138800.553      146185.321         991.124          25.000                                                                  
R12  21087415.526     -155853.429       -1439.766          32.000  
R21  20663435.810       11716.377         346.330          25.000  
R22  21052119.171      -55218.507       -1635.277          19.000  
C20  23631626.007     -128156.471       -1981.344          27.000                                                                                                                                  
C29  22045168.141      -99313.461        -614.714          22.000                                                                                                                                  
> 2021  5 17  7 36 19.0000000  0 12                     
G 2  22970701.361     -210841.411       -2470.305          20.000                                                                  
G 6  20852650.454     -174450.598       -1348.911          29.000                                                                  
G12  24702836.181     -134323.600       -4183.001          28.000                                                                  
G14  22026860.400       76228.832        2347.140          25.000                                                                  
G17  21260967.895       -9617.179           0.015          14.000                                                                  
G19  20570182.812      -74282.434       -1316.562          28.000                                                                  
G28  21138988.108      147174.926         987.195          24.000                                                                  
R12  21087123.601     -157424.357       -1443.021          32.000  
R21  20663503.225       12063.698         349.157          27.000  
R22  21051783.651      -57002.288       -1638.998          19.000  
C20  23631245.388     -130137.654       -1980.565          24.000                                                                                                                                  
C29  22045049.986      -99928.587        -615.936          23.000                                                                                                                                  
> 2021  5 17  7 36 20.0000000  0 12                     
G 2  22970230.733     -213310.872       -2469.893          18.000                                                                  
G 6  20852393.278     -175800.500       -1350.779          29.000                                                                  
G12  24702040.802     -138509.714       -4188.038          27.000                                                                  
G14  22027309.323       78577.417        2348.643          24.000                                                                  
G17  21260912.349       -9909.316           0.015          13.000                                                                  
G19  20569930.745      -75596.326       -1312.266          28.000                                                                  
G28  21139175.427      148164.100         991.582          26.000                                                                  
R12  21086830.861     -158995.093       -1441.912          30.000  
R21  20663567.115       12412.578         349.068          25.000  
R22  21051449.724      -58785.981       -1634.934          20.000  
C20  23630864.140     -132118.423       -1980.423          24.000                                                                                                                                  
C29  22044932.210     -100544.664        -615.720          24.000                                                                                                                                  
> 2021  5 17  7 36 21.0000000  0 12                     
G 2  22969760.969     -215781.643       -2471.385          22.000                                                                  
G 6  20852134.131     -177151.199       -1351.105          28.000                                                                  
G12  24701243.333     -142695.761       -4182.738          27.000                                                                  
G14  22027757.992       80925.245        2347.981          23.000                                                                  
G17  21260856.753      -10201.537           0.015          15.000                                                                  
G19  20569680.657      -76910.148       -1315.696          26.000                                                                  
G28  21139366.494      149155.595         991.885          28.000                                                                  
R12  21086538.696     -160565.472       -1438.731          30.000  
R21  20663631.148       12760.167         346.805          23.000  
R22  21051114.605      -60569.915       -1636.923          20.000  
C20  23630483.088     -134099.569       -1982.023          27.000                                                                                                                                  
C29  22044813.806     -101159.811        -613.875          24.000                                                                                                                                  
> 2021  5 17  7 36 22.0000000  0 12                     
G 2  22969291.423     -218253.472       -2472.313          24.000                                                                  
G 6  20851875.406     -178501.286       -1347.584          28.000                                                                  
G12  24700445.800     -146879.802       -4185.107          28.000                                                                  
G14  22028207.785       83272.419        2346.495          22.000                                                                  
G17  21260801.008      -10494.699           0.015          11.000                                                                  
G19  20569428.904      -78225.160       -1314.949          27.000                                                                  
G28  21139555.746      150148.602         992.297          27.000                                                                  
R12  21086247.557     -162132.880       -1438.150          28.000  
R21  20663695.082       13107.359         348.318          25.000  
R22  21050781.036      -62353.284       -1635.716          21.000  
C20  23630101.535     -136081.972       -1981.120          24.000                                                                                                                                  
C29  22044695.812     -101772.987        -612.845          24.000                                                                                                                                  
> 2021  5 17  7 36 23.0000000  0 12                     
G 2  22968820.765     -220724.188       -2469.721          23.000                                                                  
G 6  20851619.753     -179851.350       -1349.969          26.000                                                                  
G12  24699650.530     -151064.653       -4187.280          27.000                                                                  
G14  22028655.667       85618.910          -0.008          19.000                                                                  
G17  21260745.119      -10788.644           0.015          14.000                                                                  
G19  20569179.702      -79538.598       -1311.745          26.000                                                                  
G28  21139744.832      151140.039         991.494          28.000                                                                  
R12  21085953.817     -163700.850       -1439.120          25.000  
R21  20663759.870       13454.078         346.729          22.000  
R22  21050445.421      -64136.273       -1635.690          22.000  
C20  23629720.718     -138063.360       -1980.322          25.000                                                                                                                                  
C29  22044577.822     -102386.925        -613.057          25.000                                                                                                                                  
> 2021  5 17  7 36 24.0000000  0 12                     
G 2  22968351.890     -223193.731       -2468.327          25.000                                                                  
G 6  20851362.760     -181200.870       -1348.926          27.000                                                                  
G12  24698854.723     -155249.720       -4185.432          27.000                                                                  
G14  22029105.287       87966.366        2348.734          20.000                                                                  
G17  21260689.152      -11082.840           0.015          15.000                                                                  
G19  20568929.780      -80850.362       -1312.475          26.000                                                                  
G28  21139935.720      152134.123         996.564          27.000                                                                  
R12  21085659.698     -165269.080       -1437.941          21.000  
R21  20663825.073       13801.573         347.205          23.000  
R22  21050111.899      -65919.329       -1637.673          22.000  
C20  23629339.658     -140043.622       -1980.053          25.000                                                                                                                                  
C29  22044460.605     -102999.713        -613.162          25.000                                                                                                                                  
> 2021  5 17  7 36 25.0000000  0 12                     
G 2  22967881.568     -225662.752       -2468.241          24.000                                                                  
G 6  20851104.943     -182548.537       -1346.370          26.000                                                                  
G12  24698061.076     -159434.057       -4185.116          27.000                                                                  
G14  22029553.849       90314.044        2347.792          20.000                                                                  
G17  21260633.543      -11374.947           0.015          15.000                                                                  
G19  20568680.221      -82163.026       -1310.928          24.000                                                                  
G28  21140124.819      153129.564         994.260          29.000                                                                  
R12  21085366.796     -166834.314       -1435.368          18.000  
R21  20663889.534       14149.258         347.907          20.000  
R22  21049775.411      -67703.807       -1636.708          22.000  
C20  23628958.585     -142023.730       -1980.065          29.000                                                                                                                                  
C29  22044343.309     -103612.563        -613.760          24.000                                                                                                                                  
> 2021  5 17  7 36 26.0000000  0 12                     
G 2  22967411.734     -228131.343       -2470.001          19.000                                                                  
G 6  20850847.048     -183896.241       -1348.582          28.000                                                                  
G12  24697265.132     -163619.033       -4185.421          27.000                                                                  
G14  22030004.739       92662.452        2348.885          22.000                                                                  
G17  21260583.581      -11664.967        -288.710          17.000                                                                  
G19  20568431.028      -83474.651       -1313.194          25.000                                                                  
G28  21140312.243      154122.221         991.409          24.000                                                                  
R12  21085074.065     -168398.033       -1434.845          19.000  
R21  20726772.056       14497.141         346.830          21.000  
R22  21049440.982      -69488.457       -1637.741          20.000  
