     3.04           OBSERVATION DATA    M: Mixed            RINEX VERSION / TYPE
Higeo_Hi1105        Huawei CBG          20210720 020012 UTC PGM / RUN BY / DATE 
************************************************************COMMENT             
* If you have any problem,                                 *COMMENT             
*     please contact with LBS Technology Group, thanks.    *COMMENT             
*                                                          *COMMENT             
* Version Higeo2RinexV1.1 2020.07.21                       *COMMENT             
* Fuction:  Convert Higeo Log to Rinex file                *COMMENT             
*                                                          *COMMENT             
* Note that the verision support B1C B2A signal            *COMMENT             
*     BDS: C1D L1D D1D S1D indicate BDS B1C                *COMMENT             
*     BDS: C5D L5D D5D S5D indicate BDS B2A                *COMMENT             
*     Reference: RINEX V3.04                               *COMMENT             
*                                                          *COMMENT             
* Copyright(C) Huawei Technologies Co., Ltd. 2019 - 2020   *COMMENT             
*     All rights reserved.                                 *COMMENT             
************************************************************COMMENT             
                                                            MARKER NAME         
                                                            MARKER NUMBER       
                                                            MARKER TYPE         
                                                            OBSERVER / AGENCY   
                                                            REC # / TYPE / VERS 
                                                            ANT # / TYPE        
        0.0000        0.0000        0.0000                  APPROX POSITION XYZ 
        0.0000        0.0000        0.0000                  ANTENNA: DELTA H/E/N
G    8 C1C L1C D1C S1C C5I L5I D5I S5I                      SYS / # / OBS TYPES 
R    4 C1C L1C D1C S1C                                      SYS / # / OBS TYPES 
E    8 C1C L1C D1C S1C C5I L5I D5I S5I                      SYS / # / OBS TYPES 
J    8 C1C L1C D1C S1C C5I L5I D5I S5I                      SYS / # / OBS TYPES 
C   12 C2I L2I D2I S2I C1D L1D D1D S1D C5D L5D D5D S5D      SYS / # / OBS TYPES 
  2021     5    17     7    41   26.0000000     GPS         TIME OF FIRST OBS   
  2021     5    17     8     0   57.0000000     GPS         TIME OF LAST OBS    
G                                                           SYS / PHASE SHIFT   
R                                                           SYS / PHASE SHIFT   
E                                                           SYS / PHASE SHIFT   
J                                                           SYS / PHASE SHIFT   
C                                                           SYS / PHASE SHIFT   
  0                                                         GLONASS SLOT / FRQ #
 C1C    0.000 C1P    0.000 C2C    0.000 C2P    0.000        GLONASS COD/PHS/BIS 
                                                            END OF HEADER       
> 2021  5 17  7 41 26.0000000  0 11                     
G 2  22809448.818      -46906.213       -2807.469          18.000                                                                  
G 6  20757868.158      -26422.532       -1650.619          23.000                                                                  
G12  24440763.699      -64860.634       -4538.402          21.000                                                                  
G14  22148095.157       38111.745        2045.877          20.000                                                                  
G19  20476638.825      -33722.658       -1641.038          28.000                                                                  
G28  21182190.750       15237.207         732.587          24.000                                                                  
R22  20931462.183      -37157.794       -1961.779          19.000  
E12  23954673.861       -6627.873       -1433.479          12.000                                                                  
E24  24494160.890      -12418.812       -1702.862          19.000                                                                  
E25  28331706.790       -9629.134       -3703.644          14.000                                                                  
E31  24307106.911        2400.236         910.817          15.000                                                                  
> 2021  5 17  7 41 27.0000000  0 10                     
G 2  22808914.960      -49711.759       -2805.595          17.000                                                                  
G 6  20757554.129      -28073.114       -1649.938          22.000                                                                  
G12  24439900.299      -69399.005       -4536.599          17.000                                                                  
G14  22148484.644       40158.511        2047.060          17.000                                                                  
G19  20476327.409      -35364.402       -1641.169          29.000                                                                  
G28  21182330.434       15971.429         734.982          25.000                                                                  
R22  20931061.474      -39302.497       -1962.856          20.000  
E24  24493837.830      -14118.772       -1698.516          22.000                                                                  
E25  28331001.976      -13333.291       -3703.052          13.000                                                                  
E31  24307280.108        3310.107         908.333          15.000                                                                  
> 2021  5 17  7 41 28.0000000  0  7                     
G 2  22808380.943      -52517.919       -2806.150          19.000                                                                  
G 6  20757240.781      -29722.666       -1650.030          24.000                                                                  
G14  22148874.375       42206.348        2048.244          18.000                                                                  
G17  21226776.579       -2008.486        -632.946          17.000                                                                  
G19  20476015.090      -37005.077       -1640.521          28.000                                                                  
G28  21182469.870       16705.449         735.043          24.000                                                                  
R22  20930660.245      -41451.770       -1974.164          20.000  
> 2021  5 17  7 41 29.0000000  0  9                     
G 2  22807866.685      -55323.538       -2805.070          20.000                                                                  
G 6  20756925.356      -31373.852       -1651.564          23.000                                                                  
G12  24438164.600       -6541.787       -4538.698          22.000                                                                  
G14  22149271.442       44254.014        2047.559          22.000                                                                  
G17  21226656.032       -2642.130        -632.312          17.000                                                                  
G19  20475702.374      -38646.774       -1639.204          30.000                                                                  
G28  21182609.411       17441.007         735.767          20.000                                                                  
R22  20930258.558      -43599.275       -1966.595          20.000  
E24  24493192.647       -1792.660       -1697.724          20.000                                                                  
> 2021  5 17  7 41 30.0000000  0 10                     
G 2  22807331.160      -58128.103       -2804.699          19.000                                                                  
G 6  20756611.214      -33023.243       -1647.292          28.000                                                                  
G12  24437322.691      -11080.026       -4537.542          25.000                                                                  
G14  22149679.836       46301.226        2044.767          19.000                                                                  
G17  21226527.826       -3272.487        -630.349          15.000                                                                  
G19  20475390.587      -40286.716       -1642.766          24.000                                                                  
G28  21182750.182       18178.578         734.784          20.000                                                                  
R22  20929854.512      -45748.235       -1963.508          16.000  
E12  23953571.378       -5130.432       -1435.546          19.000                                                                  
E24  24492865.699       -3489.979       -1697.390          25.000                                                                  
> 2021  5 17  7 41 31.0000000  0  9                     
G 2  22806790.491      -60934.173       -2804.579          20.000                                                                  
G 6  20756297.312      -34668.422       -1645.366          24.000                                                                  
G12  24436464.411      -15616.703       -4530.899          28.000                                                                  
G14  22150069.301       48347.939        2050.210          19.000                                                                  
G17  21226407.707       -3903.831        -631.350          13.000                                                                  
G19  20475077.718      -41927.834       -1641.410          26.000                                                                  
G28  21182890.577       18913.881         734.467          19.000                                                                  
R22  20929453.139      -47888.319       -1974.636          19.000  
E12  23953294.879       -6566.578       -1437.892          19.000                                                                  
> 2021  5 17  7 41 32.0000000  0 12                     
G 2  22806257.378      -63738.053       -2803.885          19.000                                                                  
G 6  20755982.965      -36314.365       -1646.329          30.000                                                                  
G12  24435600.270      -20150.010       -4535.027          26.000                                                                  
G14  22150468.338       50396.680        2049.008          25.000                                                                  
G17  21226287.508       -4535.696        -631.354          13.000                                                                  
G19  20474765.277      -43568.298       -1641.380          25.000                                                                  
G28  21183032.199       19648.042         733.889          19.000                                                                  
R22  20929049.677      -50042.796       -1978.429          20.000  
E12  23953019.327       -8004.762       -1436.113          20.000                                                                  
E24  24492216.887       -6884.980       -1697.251          18.000                                                                  
E31  24308153.950        4124.807         918.076          20.000                                                                  
C20  23223070.733       -1424.795       -2236.750          33.000                                                                                                                                  
> 2021  5 17  7 41 33.0000000  0 12                     
G 2  22805723.768      -66541.927       -2803.834          21.000                                                                  
G 6  20755669.251      -37961.752       -1645.386          25.000                                                                  
G12  24434732.429      -24687.008       -4536.909          30.000                                                                  
G14  22150859.654       52445.797        2048.803          22.000                                                                  
G19  20474454.106      -45208.302       -1637.519          25.000                                                                  
G28  21183171.962       20382.440         735.611          19.000                                                                  
R22  20928649.941      -52190.747       -1970.552          25.000  
E12  23952744.430       -9439.604       -1435.129          20.000                                                                  
E24  24491894.477       -8583.032       -1695.613          18.000                                                                  
E31  24308329.224        5043.786         921.039          18.000                                                                  
C20  23222640.999       -3663.480       -2240.638          21.000                                                                                                                                  
C29  22107439.593       -1151.673        -979.658          20.000                                                                                                                                  
> 2021  5 17  7 41 34.0000000  0 12                     
G 2  22805190.502      -69344.274       -2800.042          19.000                                                                  
G 6  20755357.709      -39605.494       -1641.631          25.000                                                                  
G12  24433866.958      -29225.771       -4537.865          24.000                                                                  
G14  22151249.767       54495.666        2050.285          19.000                                                                  
G19  20474141.677      -46848.064       -1639.349          20.000                                                                  
G28  21183310.824       21118.866         736.904          20.000                                                                  
R22  20928247.129      -54338.675       -1971.651          21.000  
E12  23952470.762      -10874.883       -1435.951          20.000                                                                  
E24  24491572.106      -10277.894       -1693.099          18.000                                                                  
E31  24308510.724        5966.166         921.962          18.000                                                                  
C20  23222211.288       -5901.532       -2236.531          18.000                                                                                                                                  
C29  22107253.578       -2129.708        -977.061          20.000                                                                                                                                  
> 2021  5 17  7 41 35.0000000  0 12                     
G 2  22804654.331      -72144.692       -2801.475          20.000                                                                  
G 6  20755044.810      -41250.384       -1645.475          26.000                                                                  
G12  24433000.133      -33759.327       -4529.095          28.000                                                                  
G14  22151639.983       56546.422        2050.406          18.000                                                                  
G19  20473829.742      -48487.266       -1638.406          19.000                                                                  
G28  21183449.462       21855.549         734.708          19.000                                                                  
R22  20927844.173      -56487.537       -1970.111          21.000  
E12  23952197.217      -12309.990       -1432.500          18.000                                                                  
E24  24491252.654      -11970.824       -1690.415          22.000                                                                  
E31  24308689.514        6887.598         921.384          18.000                                                                  
C20  23221781.778       -8138.374       -2235.801          20.000                                                                                                                                  
C29  22107066.032       -3106.826        -977.895          20.000                                                                                                                                  
> 2021  5 17  7 41 36.0000000  0 14                     
G 2  22804120.725      -74945.760       -2800.734          24.000                                                                  
G 6  20754733.647      -42893.634       -1642.011          30.000                                                                  
G12  24432137.536      -38290.354       -4536.059          25.000                                                                  
G14  22152029.278       58596.182        2049.818          20.000                                                                  
G19  20473517.886      -50125.678       -1638.580          23.000                                                                  
G28  21183590.460       22591.660         737.493          19.000                                                                  
R22  20927442.233      -58635.429       -1969.139          17.000  
E12  23951925.661      -13741.193       -1431.593          21.000                                                                  
E24  24490932.010      -13660.584       -1689.515          24.000                                                                  
E25  28324674.682      -46663.350       -3700.337          14.000                                                                  
E31  24308864.924        7810.849         924.525          16.000                                                                  
C20  23221352.267      -10374.946       -2237.003          20.000                                                                                                                                  
C29  22106877.103       -4084.712        -976.690          24.000                                                                                                                                  
C35  23820126.066       -1661.573       -2790.006          25.000                                                                                                                                  
> 2021  5 17  7 41 37.0000000  0 15                     
G 2  22803589.410      -77745.744       -2799.232          20.000                                                                  
G 6  20754421.181      -44536.558       -1643.828          19.000                                                                  
G12  24431275.784      -42828.309       -4540.629          26.000                                                                  
G14  22152418.911       60646.287        2049.427          20.000                                                                  
G19  20473206.631      -51763.600       -1637.685          22.000                                                                  
G28  21183731.047       23329.567         738.655          17.000                                                                  
R22  20927040.145      -60782.022       -1967.758          16.000  
E12  23951652.910      -15173.642       -1433.404          17.000                                                                  
E24  24490610.847      -15352.595       -1689.697          18.000                                                                  
E25  28323970.500      -50363.847       -3701.006          15.000                                                                  
E31  24309038.733        8732.595         920.640          16.000                                                                  
C 8  36148024.124       -3686.512        -804.391          17.000                                                                                                                                  
C20  23220922.581      -12612.651       -2235.870          21.000                                                                                                                                  
C29  22106689.111       -5062.917        -980.702          20.000                                                                                                                                  
C35  23819589.899       -4451.611       -2789.770          20.000                                                                                                                                  
> 2021  5 17  7 41 38.0000000  0 15                     
G 2  22803055.499      -80546.878       -2801.154          19.000                                                                  
G 6  20754106.136      -46179.431       -1642.104          26.000                                                                  
G12  24430412.555      -47366.786       -4537.501          24.000                                                                  
G14  22152808.070       62696.201        2050.510          20.000                                                                  
G19  20472894.521      -53403.896       -1640.673          22.000                                                                  
G28  21183871.770       24067.521         739.505          19.000                                                                  
R22  20926638.205      -62927.946       -1970.456          17.000  
E24  24490289.196      -17044.872       -1694.456          20.000                                                                  
E25  28323266.165      -54065.227       -3701.674          16.000                                                                  
E31  24309214.430        9650.205         916.621          19.000                                                                  
J 3  39363065.369      -47399.273       -1587.908          23.000                                                                  
C 8  36147871.924       -4491.320        -803.145          18.000                                                                                                                                  
C20  23220492.695      -14849.376       -2237.004          23.000                                                                                                                                  
C29  22106500.696       -6044.146        -980.833          20.000                                                                                                                                  
C35  23819054.869       -7241.191       -2787.828          20.000                                                                                                                                  
> 2021  5 17  7 41 39.0000000  0 16                     
G 2  22802522.656      -83347.311       -2799.517          19.000                                                                  
G 6  20753795.017      -47820.007       -1640.872          25.000                                                                  
G12  24429550.001      -51905.502       -4539.288          24.000                                                                  
G14  22153197.265       64746.814        2051.912          20.000                                                                  
G19  20472582.211      -55045.037       -1640.219          22.000                                                                  
G28  21184012.637       24805.824         739.759          19.000                                                                  
R22  20926234.093      -65074.016       -1968.327          17.000  
E24  24489967.375      -18737.856       -1687.807          21.000                                                                  
E25  28322561.713      -57767.327       -3702.249          15.000                                                                  
E31  24309389.102       10567.366         916.030          18.000                                                                  
J 3  39362762.764      -48986.697       -1587.380          19.000                                                                  
C 8  36147714.784       -5299.487        -810.850          17.000                                                                                                                                  
C10  35847647.673       -2277.193        -698.316          15.000                                                                                                                                  
C20  23220062.543      -17089.083       -2241.216          22.000                                                                                                                                  
C29  22106312.426       -7023.034        -978.984          24.000                                                                                                                                  
C35  23818518.969      -10030.815       -2792.629          19.000                                                                                                                                  
> 2021  5 17  7 41 40.0000000  0 17                     
G 2  22801990.481      -86148.405          -0.002          20.000                                                                  
G 6  20753484.841      -49461.281       -1641.771          20.000                                                                  
G12  24428687.164      -56444.206       -4537.235          22.000                                                                  
G14  22153587.851       66797.024        2050.170          18.000                                                                  
G19  20472270.616      -56683.236       -1637.972          27.000                                                                  
G28  21184153.792       25547.183         743.093          19.000                                                                  
R22  20925844.046      -67219.565       -1968.842          17.000  
E12  23950832.939      -19478.731       -1437.499          18.000                                                                  
E24  24489647.525      -20424.058       -1684.924          19.000                                                                  
E25  28321857.086      -61469.226       -3701.001          15.000                                                                  
E31  24309564.289       11484.666         916.574          17.000                                                                  
J 3  39362459.916      -50574.304       -1587.050          18.000                                                                  
C 8  36147558.723       -6112.358        -812.278          17.000                                                                                                                                  
C10  35847513.837       -2974.353        -697.342          14.000                                                                                                                                  
C20  23219632.338      -19330.038       -2239.562          22.000                                                                                                                                  
C29  22106124.443       -8002.206        -979.960          22.000                                                                                                                                  
C35  23817983.185      -12820.471       -2787.309          20.000                                                                                                                                  
> 2021  5 17  7 41 41.0000000  0 17                     
G 2  22801457.072      -88951.347          -0.002          17.000                                                                  
G 6  20753173.417      -51102.281       -1642.255          19.000                                                                  
G12  24427827.360      -60980.352       -4535.645          20.000                                                                  
G14  22153978.038       68847.558        2050.684          16.000                                                                  
G19  20471959.667      -58319.559       -1636.253          26.000                                                                  
G28  21184293.904       26288.751         740.360          20.000                                                                  
R22  20925442.429      -69363.654       -1966.469          17.000  
E12  23950559.537      -20916.346       -1438.209          18.000                                                                  
E24  24489327.061      -22112.573       -1689.039          19.000                                                                  
E25  28321152.778      -65170.621       -3702.244          14.000                                                                  
E31  24309738.608       12400.532         916.592          17.000                                                                  
J 3  39362157.957      -52161.132       -1587.367          20.000                                                                  
C 8  36147402.740       -6924.682        -813.116          17.000                                                                                                                                  
C10  35847379.933       -3671.020        -696.959          15.000                                                                                                                                  
C20  23219202.558      -21568.365       -2237.800          25.000                                                                                                                                  
C29  22105936.566       -8981.435        -977.953          22.000                                                                                                                                  
C35  23817447.550      -15608.073       -2786.993          21.000                                                                                                                                  
> 2021  5 17  7 41 42.0000000  0 17                     
G 2  22800926.690      -91753.777       -2803.990          19.000                                                                  
G 6  20752860.274      -52744.737       -1642.923          21.000                                                                  
G12  24426965.094      -65514.826       -4533.893          20.000                                                                  
G14  22154364.759       70897.877          -0.009          17.000                                                                  
G19  20471649.455      -59956.132       -1635.006          25.000                                                                  
G28  21184434.719       27028.509         741.238          20.000                                                                  
R22  20925040.935      -71507.122       -1965.931          17.000  
E12  23950285.770      -22355.277       -1440.539          15.000                                                                  
E24  24489006.212      -23800.685       -1688.661          19.000                                                                  
E25  28320448.330      -68872.720       -3701.899          13.000                                                                  
E31  24309914.856       13318.924         923.256          20.000                                                                  
J 3  39361855.170      -53748.681       -1586.262          24.000                                                                  
C 8  36147245.897       -7735.442        -809.308          16.000                                                                                                                                  
C10  35847245.917       -4369.118        -699.496          17.000                                                                                                                                  
C20  23218773.361      -23805.544       -2235.782          24.000                                                                                                                                  
C29  22105749.176       -9958.621        -977.254          19.000                                                                                                                                  
C35  23816912.461      -18395.414       -2788.681          20.000                                                                                                                                  
> 2021  5 17  7 41 43.0000000  0 18                     
G 2  22800393.782      -94556.098       -2801.098          19.000                                                                  
G 6  20752548.025      -54387.826       -1641.574          19.000                                                                  
G12  24426101.597      -70048.634       -4533.394          21.000                                                                  
G14  22154755.075       72948.693          -0.009          16.000                                                                  
G19  20471338.235      -61591.507       -1634.803          23.000                                                                  
G28  21184574.530       27770.293         741.557          20.000                                                                  
R22  20924636.779      -73650.142       -1967.611          17.000  
E12  23950017.442      -23798.379       -1443.633          12.000                                                                  
E24  24488685.590      -25489.751       -1688.104          20.000                                                                  
E25  28319744.070      -72573.705       -3700.322          13.000                                                                  
E31  24310095.173       14241.378         923.005          19.000                                                                  
J 3  39361553.717      -55335.592       -1588.407          22.000                                                                  
C 8  36147090.372       -8545.559        -809.810          17.000                                                                                                                                  
C10  35847111.831       -5067.579        -698.316          16.000                                                                                                                                  
C13  36569802.989       -3241.943       -1170.545          17.000                                                                                                                                  
C20  23218344.002      -26042.002       -2236.328          21.000                                                                                                                                  
C29  22105561.477      -10936.199        -976.841          20.000                                                                                                                                  
C35  23816377.283      -21183.477       -2787.253          17.000                                                                                                                                  
> 2021  5 17  7 41 44.0000000  0 18                     
G 2  22799861.075      -97355.133       -2800.861          17.000                                                                  
G 6  20752236.749      -56027.197       -1634.954          20.000                                                                  
G12  24425239.057      -74581.529       -4532.792          21.000                                                                  
G14  22155145.386       74999.663          -0.009          20.000                                                                  
G19  20471026.880      -63226.970       -1633.964          27.000                                                                  
G28  21184715.732       28513.624         744.757          20.000                                                                  
R22  20924235.031      -75795.214       -1968.960          14.000  
E12  23949742.989      -25240.743       -1441.766          14.000                                                                  
E24  24488364.471      -27176.969       -1690.668          18.000                                                                  
E25  28319071.958      -76273.774       -3700.682           9.000                                                                  
E31  24310272.110       15164.280         925.356          18.000                                                                  
J 3  39361251.449      -56924.485       -1589.077          23.000                                                                  
C 8  36146935.082       -9354.408        -808.632          17.000                                                                                                                                  
C10  35846978.805       -5767.581        -702.984          14.000                                                                                                                                  
C13  36569578.247       -4412.420       -1171.036          16.000                                                                                                                                  
C20  23217914.841      -28278.228       -2235.367          22.000                                                                                                                                  
C29  22105374.005      -11912.641        -977.275          20.000                                                                                                                                  
C35  23815842.011      -23971.086       -2788.164          18.000                                                                                                                                  
> 2021  5 17  7 41 45.0000000  0 18                     
G 2  22799328.813     -100156.199          -0.002          18.000                                                                  
G 6  20751925.578      -57664.305       -1639.096          21.000                                                                  
G12  24424375.867      -79116.256       -4536.503          17.000                                                                  
G14  22155504.731       77049.879        2049.985          23.000                                                                  
G19  20470716.938      -64860.694       -1633.267          27.000                                                                  
G28  21184857.721       29257.309         744.151          20.000                                                                  
R22  20923834.706      -77940.428          -0.003          16.000  
E12  23949468.894      -26681.246       -1439.324          14.000                                                                  
E24  24488043.037      -28869.013       -1691.386          18.000                                                                  
E25  28478477.435      -79974.369       -3700.995           8.000                                                                  
E31  24310446.171       16089.860         925.205          16.000                                                                  
J 3  39360948.204      -58513.113       -1587.739          19.000                                                                  
C 8  36146778.742      -10161.431        -805.297          16.000                                                                                                                                  
C10  35846843.793       -6470.709        -701.479          17.000                                                                                                                                  
C13  36569358.361       -5583.521       -1172.114          17.000                                                                                                                                  
C20  23217486.076      -30513.389       -2236.487          20.000                                                                                                                                  
C29  22105186.537      -12890.450        -977.307          19.000                                                                                                                                  
C35  23815307.597      -26760.796       -2790.935          19.000                                                                                                                                  
> 2021  5 17  7 41 46.0000000  0 18                     
G 2  22798796.114     -102955.641          -0.002          18.000                                                                  
G 6  20751612.671      -59304.722       -1641.366          25.000                                                                  
G12  24423511.686      -83653.328       -4536.683          17.000                                                                  
G14  22155865.732       79100.416        2049.758          25.000                                                                  
G19  20470404.475      -66494.835       -1635.241          27.000                                                                  
G28  21185000.647       30000.210         741.712          20.000                                                                  
R22  20923432.718      -80087.006          -0.003          17.000  
E12  23949195.271      -28119.134       -1436.661          15.000                                                                  
E24  24487722.228      -30558.958       -1688.264          19.000                                                                  
E25  28477773.070      -83675.874       -3701.542           8.000                                                                  
E31  24310620.316       17012.270         921.841          17.000                                                                  
J 3  39360646.184      -60100.330       -1587.956          18.000                                                                  
C 8  36146624.107      -10966.752        -804.682          14.000                                                                                                                                  
C10  35846709.231       -7171.656        -701.466          16.000                                                                                                                                  
C13  36569141.987       -6755.026       -1168.252          18.000                                                                                                                                  
C20  23217056.809      -32747.711       -2234.483          19.000                                                                                                                                  
C29  22104999.279      -13866.701        -975.962          18.000                                                                                                                                  
C35  23814771.857      -29550.702       -2790.320          17.000                                                                                                                                  
> 2021  5 17  7 41 47.0000000  0 18                     
G 2  22798264.406     -105755.757       -2799.409          23.000                                                                  
G 6  20751299.567      -60946.353       -1642.124          21.000                                                                  
G12  24422648.656      -88188.555       -4534.159          17.000                                                                  
G14  22156253.103       81150.656        2050.457          22.000                                                                  
G19  20470094.085      -68129.224       -1634.380          28.000                                                                  
G28  21185142.225       30742.947         743.301          19.000                                                                  
R22  20923032.580      -82234.200       -1969.534          16.000  
E12  23948924.286      -29554.959       -1435.181          15.000                                                                  
E24  24487401.484      -32248.238       -1686.439          18.000                                                                  
E25  28477068.735      -87377.143       -3701.414           8.000                                                                  
E31  24310795.607       17933.354         919.365          17.000                                                                  
J 3  39360344.051      -61686.781       -1587.033          19.000                                                                  
C 8  36146471.736      -11771.126        -805.419          14.000                                                                                                                                  
C10  35846572.856       -7872.646        -700.876          15.000                                                                                                                                  
C13  36568920.272       -7923.479       -1168.995          17.000                                                                                                                                  
C20  23216628.005      -34982.116       -2233.301          23.000                                                                                                                                  
C29  22104811.994      -14841.537        -973.141          16.000                                                                                                                                  
C35  23814236.013      -32339.900       -2788.849          17.000                                                                                                                                  
> 2021  5 17  7 41 48.0000000  0 18                     
G 2  22797725.229     -108555.457       -2799.773          21.000                                                                  
G 6  20750988.182      -62588.460       -1642.303          23.000                                                                  
G12  24421786.299      -92722.530       -4534.496          15.000                                                                  
G14  22156640.064       83202.230        2051.748          23.000                                                                  
G19  20469783.960      -69761.030       -1632.497          22.000                                                                  
G28  21185284.448       31486.491         742.741          19.000                                                                  
R22  20922630.501      -84381.111       -1969.777          13.000  
E12  23948651.404      -30988.946       -1432.408          15.000                                                                  
E24  24487080.322      -33936.387       -1687.418          18.000                                                                  
E25  28316254.777      -91078.193       -3700.565           9.000                                                                  
E31  24310981.103       18853.917         922.296          19.000                                                                  
J 3  39360042.001      -63273.211       -1585.771          20.000                                                                  
C 8  36146316.826      -12577.899        -807.385          16.000                                                                                                                                  
C10  35846438.190       -8574.157        -701.404          17.000                                                                                                                                  
C13  36568697.572       -9094.059       -1170.643          18.000                                                                                                                                  
C20  23216198.934      -37216.651       -2233.574          21.000                                                                                                                                  
C29  22104625.547      -15812.562        -970.550          14.000                                                                                                                                  
C35  23813700.426      -35128.952       -2790.017          17.000                                                                                                                                  
> 2021  5 17  7 41 49.0000000  0 18                     
G 2  22797195.995     -111354.283       -2797.244          25.000                                                                  
G 6  20750675.680      -64228.135       -1638.633          27.000                                                                  
G12  24420923.388      -97257.382       -4534.387          17.000                                                                  
G14  22157028.465       85255.028        2054.794          28.000                                                                  
G19  20469473.495      -71393.501       -1635.422          23.000                                                                  
G28  21185424.265       32230.658         745.260          24.000                                                                  
R22  20922224.779      -86526.278       -1967.472          17.000  
E12  23948379.220      -32419.400       -1429.587          18.000                                                                  
E24  24486765.686      -35623.238       -1685.379          27.000                                                                  
E25  28475660.276      -94778.676       -3700.520           8.000                                                                  
E31  24311143.761       19776.910         923.147          21.000                                                                  
J 3  39359741.037      -64856.664       -1582.261          19.000                                                                  
C 8  36146161.894      -13384.804        -805.699          22.000                                                                                                                                  
C10  35846299.152       -9276.132        -701.047          17.000                                                                                                                                  
C13  36568472.987      -10263.750       -1168.758          22.000                                                                                                                                  
C20  23215770.493      -39449.064       -2231.496          19.000                                                                                                                                  
C29  22104438.977      -16784.313        -972.096          17.000                                                                                                                                  
C35  23813164.473      -37919.886       -2791.664          20.000                                                                                                                                  
> 2021  5 17  7 41 50.0000000  0 18                     
G 2  22796666.114     -114151.091       -2796.231          22.000                                                                  
G 6  20750363.174      -65866.391       -1637.835          24.000                                                                  
G12  24420060.451     -101792.283       -4535.521          17.000                                                                  
G14  22157417.369       87307.439        2054.148          26.000                                                                  
G19  20469163.344      -73029.438       -1636.244          22.000                                                                  
G28  21185566.057       32975.402         744.504          19.000                                                                  
R22  20921822.931      -88670.377       -1965.975          20.000  
E12  23948107.258      -33848.803       -1429.242          19.000                                                                  
E24  24486440.169      -37307.270       -1683.368          24.000                                                                  
E25  28474956.068      -98479.279       -3700.435           8.000                                                                  
E31  24311321.910       20702.887         926.780          19.000                                                                  
J 3  39359439.658      -66440.732       -1585.209          19.000                                                                  
C 8  36146011.682      -14190.791        -806.438          19.000                                                                                                                                  
C10  35846164.661       -9976.814        -700.616          16.000                                                                                                                                  
C13  36568248.302      -11433.191       -1169.262          18.000                                                                                                                                  
C20  23215342.452      -41678.121       -2226.315          16.000                                                                                                                                  
C29  22104256.535      -17755.910           0.008          17.000                                                                                                                                  
C35  23812631.329      -40710.799       -2789.616          23.000                                                                                                                                  
> 2021  5 17  7 41 51.0000000  0 18                     
G 2  22796134.895     -116945.234       -2791.611          22.000                                                                  
G 6  20750049.446      -67503.495       -1636.611          29.000                                                                  
G12  24419209.994     -106327.022       -4534.009          21.000                                                                  
G14  22157807.567       89358.376        2049.482          20.000                                                                  
G19  20468853.259      -74663.647       -1634.528          24.000                                                                  
G28  21185708.970       33720.957         748.893          16.000                                                                  
R22  20921414.051      -90813.098       -1964.701          20.000  
E12  23947827.946      -35276.943       -1426.958          21.000                                                                  
E24  24486115.931      -38990.044       -1682.352          25.000                                                                  
E25  28474251.947     -102179.510       -3699.950           7.000                                                                  
E31  24311498.773       21631.901         930.459          17.000                                                                  
J 3  39359137.490      -68025.783       -1584.249          18.000                                                                  
C 8  36145857.034      -14996.339        -805.264          18.000                                                                                                                                  
C10  35846030.072      -10677.827        -701.135          14.000                                                                                                                                  
C13  36568023.752      -12601.313       -1167.652          21.000                                                                                                                                  
C20  23214914.957      -43904.226       -2225.231          17.000                                                                                                                                  
C29  22104069.779      -18728.625           0.008          16.000                                                                                                                                  
C35  23812092.783      -43498.559       -2785.384          22.000                                                                                                                                  
> 2021  5 17  7 41 52.0000000  0 19                     
G 2  22795601.839     -119737.565       -2793.036          22.000                                                                  
G 6  20749739.349      -69137.453       -1631.575          25.000                                                                  
G12  24418347.249     -110860.931       -4533.818          17.000                                                                  
G14  22158197.931       91408.861        2049.934          19.000                                                                  
G19  20468541.664      -76298.475       -1635.773          21.000                                                                  
