% program   : RTKPOST ver.demo5 b33e
% inp file  : C:\Users\Administrator\Dropbox\PolyU External Projects\Huawei\PolyU Huawei FGO 因子图优化技术项目\Huawei 数据与验证\GLL_Watch_RinexData_v20210720\高层小区1\Higeo2Rinex.obs
% inp file  : C:\Users\Administrator\Dropbox\PolyU External Projects\Huawei\PolyU Huawei FGO 因子图优化技术项目\Huawei 数据与验证\GLL_Watch_RinexData_v20210720\高层小区1\hksc1370.21n
% inp file  : C:\Users\Administrator\Dropbox\PolyU External Projects\Huawei\PolyU Huawei FGO 因子图优化技术项目\Huawei 数据与验证\GLL_Watch_RinexData_v20210720\高层小区1\hksc1370.21f
% obs start : 2021/05/17 07:33:26.0 GPST (week2158 113606.0s)
% obs end   : 2021/05/17 08:01:08.0 GPST (week2158 115268.0s)
% pos mode  : single
% elev mask : 15.0 deg
% ionos opt : broadcast
% tropo opt : saastamoinen
% ephemeris : broadcast
% navi sys  : gps beidou
%
% (lat/lon/height=WGS84/ellipsoidal,Q=1:fix,2:float,3:sbas,4:dgps,5:single,6:ppp,ns=# of satellites)
%  GPST          latitude(deg) longitude(deg)  height(m)   Q  ns   sdn(m)   sde(m)   sdu(m)  sdne(m)  sdeu(m)  sdun(m) age(s)  ratio
2158 113606.002   34.481839818  108.387229590 -506033.0746   5   9   2.5477   2.4587   7.3194   1.0975  -0.9373  -3.0769   0.00    0.0
2158 113607.002   34.152593220  108.240265494 -495979.1997   5   8   2.9100   2.5117   7.3324   1.3953  -0.9934  -3.1218   0.00    0.0
2158 113608.002   34.153352973  108.240156287 -496030.2306   5   8   2.9100   2.5116   7.3337   1.3949  -0.9922  -3.1223   0.00    0.0
2158 113609.002   34.704338643  107.954644373 -552951.1986   5  10   2.5514   2.1831   7.2731   0.8787  -1.3581  -3.2350   0.00    0.0
2158 113610.002   34.705168122  107.954268830 -553053.0390   5  10   2.5516   2.1830   7.2744   0.8784  -1.3575  -3.2357   0.00    0.0
2158 113611.002   34.964108670  108.647965012 -624058.8742   5  11   2.5431   1.9817   7.2114   0.7147  -1.1640  -3.2104   0.00    0.0
2158 113612.000   34.118163982  106.592303816 129403.9359   5  10   3.5406   3.9020  14.3561   1.6476  -4.5934  -5.3554   0.00    0.0
2158 113613.000   34.245392881  106.855342414 120452.6724   5   9   3.7762   4.4774  14.3898   2.3608  -4.8754  -5.5020   0.00    0.0
2158 113614.000   34.245674467  106.855411971 120430.2836   5   9   3.7763   4.4767  14.3903   2.3602  -4.8740  -5.5027   0.00    0.0
2158 113615.000   34.245979339  106.855452031 120403.4645   5   9   3.7765   4.4761  14.3909   2.3597  -4.8725  -5.5034   0.00    0.0
2158 113616.000   34.119430779  106.592314741 129243.1442   5  10   3.5418   3.8996  14.3585   1.6460  -4.5882  -5.3590   0.00    0.0
2158 113617.000   34.119771759  106.592339910 129204.0523   5  10   3.5421   3.8991  14.3591   1.6456  -4.5868  -5.3599   0.00    0.0
2158 113618.000   34.120131773  106.592418162 129173.4068   5  10   3.5424   3.8985  14.3597   1.6452  -4.5855  -5.3608   0.00    0.0
2158 113619.000   34.120491426  106.592437860 129153.0729   5  10   3.5427   3.8979  14.3602   1.6447  -4.5842  -5.3617   0.00    0.0
2158 113620.000   34.247530989  106.855640860 120285.4358   5   9   3.7771   4.4730  14.3934   2.3568  -4.8650  -5.5069   0.00    0.0
2158 113620.999   33.661844839  106.849155704 516241.3131   5  10   3.1434   4.4304   9.0216   2.2425  -4.6890  -2.6592   0.00    0.0
2158 113621.999   33.513371005  106.562353060 534262.4258   5  11   2.8477   3.8558   8.9156   1.4663  -4.3333  -2.2599   0.00    0.0
2158 113623.000   34.122013472  106.592697057 128965.4735   5  10   3.5440   3.8956  14.3626   1.6431  -4.5790  -5.3654   0.00    0.0
2158 113624.000   34.122319758  106.592690215 128934.1225   5  10   3.5443   3.8951  14.3632   1.6427  -4.5777  -5.3663   0.00    0.0
2158 113625.000   33.966902211  106.798941769 42497.8742   5  11   3.4590   3.8514  14.0564   1.8066  -4.4068  -5.5341   0.00    0.0
2158 113626.000   33.967196542  106.798907736 42479.6266   5  11   3.4593   3.8509  14.0573   1.8062  -4.4057  -5.5349   0.00    0.0
2158 113626.999   33.259217122  106.789480732 478925.1599   5  12   2.6673   3.8112   8.7860   1.6669  -4.2276  -2.5407   0.00    0.0
2158 113628.000   33.365600522  108.329833047 151135.7404   5  13   2.6726   3.0457   7.0538   1.5833  -2.4598  -2.3735   0.00    0.0
2158 113628.999   33.259438685  106.789720445 479058.5279   5  12   2.6673   3.8102   8.7860   1.6666  -4.2266  -2.5415   0.00    0.0
2158 113629.999   33.259553647  106.789877142 479126.9711   5  12   2.6674   3.8097   8.7860   1.6665  -4.2260  -2.5419   0.00    0.0
2158 113630.999   33.259655230  106.790042100 479188.0943   5  12   2.6674   3.8092   8.7860   1.6663  -4.2255  -2.5423   0.00    0.0
2158 113631.999   33.514765207  106.564834050 534671.5918   5  11   2.8481   3.8505   8.9142   1.4655  -4.3271  -2.2660   0.00    0.0
2158 113632.999   33.259914944  106.790432536 479311.8790   5  12   2.6674   3.8082   8.7860   1.6660  -4.2245  -2.5430   0.00    0.0
2158 113633.999   33.260016084  106.790597797 479373.3641   5  12   2.6675   3.8077   8.7861   1.6659  -4.2239  -2.5434   0.00    0.0
2158 113634.999   33.260108074  106.790794918 479432.3127   5  12   2.6675   3.8072   8.7861   1.6658  -4.2234  -2.5438   0.00    0.0
2158 113635.999   33.260250544  106.790972852 479490.2442   5  12   2.6675   3.8067   8.7861   1.6656  -4.2229  -2.5442   0.00    0.0
2158 113636.999   33.260350185  106.791113941 479554.3153   5  12   2.6676   3.8062   8.7861   1.6655  -4.2224  -2.5446   0.00    0.0
2158 113637.999   33.260434460  106.791230709 479632.1809   5  12   2.6676   3.8057   8.7861   1.6653  -4.2218  -2.5450   0.00    0.0
2158 113639.000   33.535222035  107.740349539 264504.6416   5  13   2.5088   2.7433   6.1832   0.5460  -1.2108  -0.8899   0.00    0.0
2158 113640.000   33.535359720  107.740430342 264539.0163   5  13   2.5088   2.7432   6.1832   0.5460  -1.2104  -0.8909   0.00    0.0
2158 113641.000   33.535464554  107.740479127 264567.9105   5  13   2.5088   2.7430   6.1832   0.5460  -1.2099  -0.8920   0.00    0.0
2158 113642.000   33.535609635  107.740573637 264606.1385   5  13   2.5088   2.7428   6.1832   0.5459  -1.2095  -0.8930   0.00    0.0
2158 113643.000   33.773315339  107.701626462 275968.6649   5  12   2.7579   2.7463   6.1886   0.3371  -1.2355  -0.6749   0.00    0.0
2158 113644.000   33.773497050  107.701708781 276002.6546   5  12   2.7579   2.7461   6.1886   0.3371  -1.2350  -0.6767   0.00    0.0
2158 113645.000   33.511913322  108.831112633 124623.2882   5  13   2.7316   2.4544   5.9841   0.7511   0.6036  -0.9614   0.00    0.0
2158 113646.000   33.773813203  107.701911899 276057.4920   5  12   2.7580   2.7458   6.1885   0.3371  -1.2341  -0.6802   0.00    0.0
2158 113647.000   33.773922524  107.701997269 276077.4511   5  12   2.7580   2.7456   6.1885   0.3371  -1.2336  -0.6820   0.00    0.0
2158 113648.000   33.774125072  107.702061707 276113.8475   5  12   2.7580   2.7454   6.1884   0.3370  -1.2331  -0.6837   0.00    0.0
2158 113648.999   33.909012448  107.651629951 289349.3630   5  11   3.3407   2.8081   6.3641  -1.0025  -1.5522   1.5150   0.00    0.0
2158 113650.000   33.545232088  107.737675912 265829.4654   5  12   2.9063   2.7903   6.3182  -0.6824  -1.4598   1.0450   0.00    0.0
2158 113651.000   33.689238472  108.776848368 212353.0324   5  15   2.3751   2.4050   5.7827   0.4705  -0.4674  -1.5442   0.00    0.0
2158 113652.000   34.314387403  106.837856734  5838.8152   5  10   3.4462   3.3011   8.0569  -1.8357   2.5672  -2.6364   0.00    0.0
2158 113654.000   34.640234958  106.748001555 -18814.5338   5   9   2.6170   2.0416   4.8954  -1.3011   1.7399  -1.7267   0.00    0.0
2158 113662.000   35.112800527  105.766475484 96900.3092   5   9   3.6311   3.5681   7.2834  -1.7815   2.8288  -3.6316   0.00    0.0
2158 113663.000   35.113291540  105.766560512 96841.9580   5   9   3.6313   3.5680   7.2841  -1.7817   2.8293  -3.6322   0.00    0.0
2158 113664.000   34.943683490  107.100532198 39609.4294   5  10   3.5953   3.2553   7.2667  -1.6317   2.8856  -3.6333   0.00    0.0
2158 113665.000   35.114307229  105.766728660 96726.8577   5   9   3.6317   3.5677   7.2855  -1.7819   2.8303  -3.6334   0.00    0.0
2158 113666.000   35.114810526  105.766767368 96665.2351   5   9   3.6319   3.5676   7.2862  -1.7820   2.8308  -3.6340   0.00    0.0
2158 113670.000   34.741643278  106.864913694 101700.8783   5  11   3.3061   3.2463   7.2074  -1.5588   2.7701  -3.3925   0.00    0.0
2158 113671.000   35.174991590  106.689264359 67201.9239   5  10   3.6281   3.2884   7.2788  -1.7908   2.8720  -3.6385   0.00    0.0
2158 113672.000   34.645577984  106.748738140 -19081.6863   5   9   2.6174   2.0409   4.8990  -1.2995   1.7493  -1.7367   0.00    0.0
2158 113673.000   34.645876464  106.748763505 -19102.9908   5   9   2.6175   2.0409   4.8991  -1.2994   1.7498  -1.7372   0.00    0.0
2158 113674.000   34.646178220  106.748818764 -19119.3557   5   9   2.6175   2.0408   4.8993  -1.2993   1.7503  -1.7378   0.00    0.0
2158 113677.000   34.018593587  106.491298612 -55889.2059   5  10   2.1907   2.0730   4.7989  -0.9860   1.8919  -1.7831   0.00    0.0
2158 113679.001   33.919482179  107.335050848 -87422.8026   5  11   2.1864   1.8911   4.8032  -0.9119   1.8931  -1.7904   0.00    0.0
2158 113680.000   34.648105371  106.749073105 -19220.4291   5   9   2.6177   2.0406   4.9005  -1.2987   1.7534  -1.7411   0.00    0.0
2158 113681.000   34.648415123  106.749116210 -19232.7575   5   9   2.6177   2.0406   4.9007  -1.2986   1.7539  -1.7417   0.00    0.0
2158 113689.000   34.214914234  106.831004565 -21851.5134   5  10   2.4232   2.0317   4.9083  -1.2260   1.7531  -1.7081   0.00    0.0
2158 113690.000   34.651074232  106.749455808 -19387.3992   5   9   2.6179   2.0403   4.9025  -1.2978   1.7586  -1.7466   0.00    0.0
2158 113691.000   34.651361998  106.749491885 -19405.9841   5   9   2.6180   2.0402   4.9027  -1.2977   1.7591  -1.7472   0.00    0.0
2158 113692.000   35.128540877  105.768261123 95059.3074   5   9   3.6373   3.5642   7.3045  -1.7854   2.8441  -3.6494   0.00    0.0
2158 113693.000   35.129056774  105.768353747 95000.3352   5   9   3.6375   3.5640   7.3052  -1.7855   2.8446  -3.6500   0.00    0.0
2158 113694.000   35.129368209  105.768526617 94949.7040   5   9   3.6377   3.5639   7.3059  -1.7856   2.8451  -3.6506   0.00    0.0
2158 113695.000   35.129851876  105.768599747 94888.7396   5   9   3.6379   3.5638   7.3066  -1.7857   2.8456  -3.6512   0.00    0.0
2158 113696.000   35.184846767  106.689633292 65927.5577   5  10   3.6331   3.2855   7.2964  -1.7913   2.8825  -3.6532   0.00    0.0
2158 113697.000   35.185256279  106.689613617 65875.1646   5  10   3.6333   3.2853   7.2971  -1.7914   2.8829  -3.6538   0.00    0.0
2158 113698.000   34.627868557  106.711140413 98683.6488   5  11   3.2494   3.2776   7.2507  -1.7268   2.8638  -3.4184   0.00    0.0
2158 113699.000   34.628288090  106.710972032 98630.8009   5  11   3.2496   3.2775   7.2514  -1.7270   2.8643  -3.4191   0.00    0.0
2158 113700.000   34.628715197  106.710812432 98576.7053   5  11   3.2498   3.2774   7.2521  -1.7271   2.8648  -3.4197   0.00    0.0
2158 113701.000   34.629163035  106.710575906 98509.9024   5  11   3.2501   3.2773   7.2528  -1.7273   2.8653  -3.4203   0.00    0.0
2158 113702.000   34.629524609  106.710537682 98475.0491   5  11   3.2503   3.2772   7.2536  -1.7275   2.8657  -3.4209   0.00    0.0
2158 113703.000   34.629944935  106.710393548 98422.5325   5  11   3.2505   3.2771   7.2543  -1.7277   2.8662  -3.4215   0.00    0.0
2158 113704.000   34.630367493  106.710220242 98365.1272   5  11   3.2507   3.2770   7.2550  -1.7278   2.8667  -3.4221   0.00    0.0
2158 113705.000   34.129579590  105.935935981 220904.8713   5   9   3.6249   3.5327   8.3477  -1.5017   2.6906  -4.2670   0.00    0.0
2158 113706.000   34.130100028  105.935820932 220841.6988   5   9   3.6253   3.5326   8.3488  -1.5021   2.6913  -4.2678   0.00    0.0
2158 113707.000   34.436892859  105.959644906 133067.9648   5  10   3.2598   3.5344   7.2746  -1.5826   2.7791  -3.4244   0.00    0.0
2158 113708.000   34.027181082  106.041560234 11174.9314   5   9   3.4901   3.5343   8.0905  -1.6346   2.6410  -2.6163   0.00    0.0
2158 113709.000   34.027722535  106.041445125 11159.6032   5   9   3.4903   3.5342   8.0908  -1.6349   2.6417  -2.6173   0.00    0.0
2158 113710.000   33.425304407  107.850770230 262914.8599   5  12   2.6831   2.8174   6.1907  -0.6035  -1.2531  -0.7893   0.00    0.0
2158 113711.000   33.953766593  108.042068210 299212.5332   5  10   3.3228   3.0359   6.2610   0.1833  -0.9207   0.9656   0.00    0.0
2158 113712.000   33.953967974  108.042135336 299240.4947   5  10   3.3228   3.0358   6.2609   0.1832  -0.9199   0.9638   0.00    0.0
2158 113713.000   33.883528682  107.679602332 289467.6648   5  10   4.2581   3.0435   6.4934  -2.0407  -1.9654   2.3573   0.00    0.0
2158 113714.000   33.884042107  107.679535980 289525.3769   5  10   4.2582   3.0432   6.4934  -2.0404  -1.9649   2.3568   0.00    0.0
2158 113714.999   34.477902205  107.685976652 329663.7328   5   9   4.7732   3.0352   6.5887  -2.0201  -1.9663   2.8069   0.00    0.0
2158 113716.000   33.986756094  107.856038098 289570.6884   5  10   3.3504   2.8696   6.2114  -0.8418  -1.2816   0.6910   0.00    0.0
2158 113717.000   33.986992241  107.856146108 289599.4187   5  10   3.3504   2.8694   6.2113  -0.8415  -1.2810   0.6886   0.00    0.0
2158 113717.999   33.702504805  107.384670010 348475.7711   5   9   3.4060   2.9972   6.3151  -0.3977  -1.5965  -0.2998   0.00    0.0
2158 113718.999   34.106030937  107.254119500 380630.5923   5   8   4.8497   3.1440   6.6679  -1.8593  -2.1512   2.6859   0.00    0.0
2158 113719.999   33.703129551  107.385091132 348543.3980   5   9   3.4060   2.9968   6.3150  -0.3969  -1.5956  -0.3105   0.00    0.0
2158 113720.999   33.703428622  107.385312383 348574.2630   5   9   3.4061   2.9966   6.3149  -0.3966  -1.5951  -0.3157   0.00    0.0
2158 113721.999   33.703721490  107.385526255 348606.6048   5   9   3.4061   2.9964   6.3148  -0.3962  -1.5946  -0.3209   0.00    0.0
2158 113723.000   33.988287801  107.856806366 289750.6334   5  10   3.3508   2.8683   6.2107  -0.8397  -1.2773   0.6742   0.00    0.0
2158 113723.999   33.704269349  107.385941640 348666.8233   5   9   3.4062   2.9959   6.3147  -0.3954  -1.5936  -0.3308   0.00    0.0
2158 113724.999   33.704558883  107.386160463 348694.7866   5   9   3.4062   2.9957   6.3147  -0.3950  -1.5931  -0.3357   0.00    0.0
2158 113725.999   33.704867028  107.386373645 348727.1482   5   9   3.4062   2.9955   6.3146  -0.3946  -1.5926  -0.3405   0.00    0.0
2158 113727.000   33.989152478  107.857413289 289847.0107   5  10   3.3511   2.8676   6.2104  -0.8385  -1.2749   0.6644   0.00    0.0
2158 113728.000   33.989365635  107.857538997 289873.4069   5  10   3.3512   2.8674   6.2103  -0.8381  -1.2743   0.6619   0.00    0.0
2158 113729.000   33.989557240  107.857637592 289895.2989   5  10   3.3513   2.8672   6.2102  -0.8378  -1.2737   0.6594   0.00    0.0
2158 113730.000   33.989767771  107.857734672 289917.6721   5  10   3.3513   2.8670   6.2101  -0.8375  -1.2731   0.6569   0.00    0.0
2158 113731.000   33.989949888  107.857797172 289936.6565   5  10   3.3514   2.8668   6.2100  -0.8372  -1.2724   0.6544   0.00    0.0
2158 113732.000   33.990160290  107.857912411 289957.5025   5  10   3.3515   2.8666   6.2099  -0.8369  -1.2718   0.6519   0.00    0.0
2158 113732.999   34.487536719  107.687469833 330621.7665   5   9   4.7726   3.0293   6.5875  -2.0102  -1.9547   2.7960   0.00    0.0
2158 113734.000   33.990584455  107.858187553 290008.0952   5  10   3.3516   2.8663   6.2097  -0.8363  -1.2706   0.6469   0.00    0.0
2158 113735.000   33.990783059  107.858321118 290031.8923   5  10   3.3517   2.8661   6.2096  -0.8360  -1.2700   0.6443   0.00    0.0
2158 113736.000   33.990990516  107.858449709 290055.1397   5  10   3.3517   2.8659   6.2095  -0.8357  -1.2694   0.6418   0.00    0.0
2158 113737.000   33.991019187  107.858636169 290065.4126   5  10   3.3518   2.8657   6.2094  -0.8354  -1.2688   0.6393   0.00    0.0
2158 113738.000   33.991559753  107.858648442 290125.0955   5  10   3.3519   2.8655   6.2093  -0.8351  -1.2682   0.6366   0.00    0.0
2158 113739.000   33.991764794  107.858780789 290140.2991   5  10   3.3519   2.8653   6.2092  -0.8348  -1.2675   0.6340   0.00    0.0
2158 113740.000   33.991938725  107.858909990 290161.4062   5  10   3.3520   2.8652   6.2091  -0.8344  -1.2669   0.6314   0.00    0.0
2158 113741.000   33.992147982  107.859035358 290185.1650   5  10   3.3521   2.8650   6.2090  -0.8341  -1.2663   0.6288   0.00    0.0
2158 113741.999   34.492339575  107.688308183 331100.1719   5   9   4.7724   3.0263   6.5868  -2.0051  -1.9489   2.7905   0.00    0.0
2158 113743.000   33.992566129  107.859288921 290232.8021   5  10   3.3522   2.8646   6.2089  -0.8335  -1.2651   0.6236   0.00    0.0
2158 113744.000   33.992460763  107.859520530 290226.6036   5  10   3.3523   2.8644   6.2088  -0.8332  -1.2645   0.6211   0.00    0.0
2158 113745.000   33.992838346  107.859553855 290260.3337   5  10   3.3524   2.8642   6.2087  -0.8329  -1.2639   0.6184   0.00    0.0
2158 113746.000   33.993064420  107.859683484 290289.7313   5  10   3.3524   2.8641   6.2086  -0.8326  -1.2633   0.6157   0.00    0.0
2158 113747.000   33.993296109  107.859856709 290318.8840   5  10   3.3525   2.8639   6.2085  -0.8323  -1.2626   0.6130   0.00    0.0
2158 113748.000   33.993489896  107.859972356 290342.8368   5  10   3.3526   2.8637   6.2084  -0.8320  -1.2620   0.6103   0.00    0.0
2158 113749.000   33.993684552  107.860053643 290358.8296   5  10   3.3526   2.8635   6.2083  -0.8317  -1.2614   0.6077   0.00    0.0
2158 113750.000   33.993904772  107.860161949 290381.2550   5  10   3.3527   2.8633   6.2082  -0.8314  -1.2608   0.6049   0.00    0.0
2158 113751.000   33.994104571  107.860271748 290407.2313   5  10   3.3528   2.8631   6.2081  -0.8310  -1.2602   0.6022   0.00    0.0
2158 113751.999   34.497798107  107.689164803 331642.0639   5   9   4.7720   3.0230   6.5861  -1.9996  -1.9424   2.7844   0.00    0.0
2158 113752.999   34.498325358  107.689247806 331693.6125   5   9   4.7720   3.0227   6.5860  -1.9990  -1.9418   2.7838   0.00    0.0
2158 113754.000   33.994473283  107.860756948 290463.4529   5  10   3.3530   2.8626   6.2078  -0.8301  -1.2584   0.5941   0.00    0.0
2158 113754.999   34.499405273  107.689458144 331802.2931   5   9   4.7719   3.0220   6.5859  -1.9979  -1.9405   2.7825   0.00    0.0
2158 113756.000   36.567961799  105.988699666  -638.8993   5   8   5.8314   3.7664   8.0896  -3.4084   2.5833  -2.9300   0.00    0.0
2158 113757.000   34.670935800  106.752280762 -20419.3380   5   9   2.6200   2.0381   4.9154  -1.2921   1.7925  -1.7835   0.00    0.0
2158 113758.000   34.671257743  106.752316899 -20440.4582   5   9   2.6200   2.0380   4.9156  -1.2920   1.7930  -1.7840   0.00    0.0
2158 113759.000   34.671620418  106.752264334 -20475.1401   5   9   2.6201   2.0380   4.9157  -1.2919   1.7935  -1.7846   0.00    0.0
2158 113760.000   34.572873793  106.903676564 -41027.0396   5  10   2.5905   1.9746   4.8691  -1.2097   1.8788  -1.8535   0.00    0.0
2158 113761.000   34.672206499  106.752378478 -20511.7702   5   9   2.6201   2.0380   4.9161  -1.2918   1.7945  -1.7857   0.00    0.0
2158 113762.000   33.996247114  107.861820892 290637.5242   5  10   3.3536   2.8611   6.2071  -0.8276  -1.2535   0.5715   0.00    0.0
2158 113763.000   33.996432349  107.861954105 290659.8115   5  10   3.3536   2.8609   6.2070  -0.8273  -1.2528   0.5686   0.00    0.0
2158 113764.000   33.996638889  107.862089102 290680.1341   5  10   3.3537   2.8607   6.2069  -0.8270  -1.2522   0.5657   0.00    0.0
2158 113765.000   33.996858479  107.862216716 290702.4294   5  10   3.3538   2.8606   6.2068  -0.8267  -1.2516   0.5628   0.00    0.0
2158 113766.000   33.997035522  107.862367870 290721.2739   5  10   3.3539   2.8604   6.2067  -0.8264  -1.2510   0.5599   0.00    0.0
2158 113767.000   33.997315427  107.862478662 290750.0438   5  10   3.3539   2.8602   6.2066  -0.8261  -1.2504   0.5569   0.00    0.0
2158 113768.000   33.997591016  107.862596188 290777.5735   5  10   3.3540   2.8600   6.2065  -0.8258  -1.2498   0.5539   0.00    0.0
2158 113769.000   33.997726199  107.862743752 290788.1188   5  10   3.3541   2.8598   6.2064  -0.8255  -1.2492   0.5510   0.00    0.0
2158 113770.000   33.998002942  107.862868667 290814.4141   5  10   3.3541   2.8596   6.2063  -0.8252  -1.2486   0.5480   0.00    0.0
2158 113771.000   33.998291144  107.862964781 290846.7929   5  10   3.3542   2.8595   6.2063  -0.8249  -1.2479   0.5449   0.00    0.0
2158 113772.000   34.382411867  108.264458293 326720.7651   5   9   3.6111   3.0794   6.2799   0.9219  -0.6020   1.2270   0.00    0.0
2158 113773.000   34.382612887  108.264701900 326741.5086   5   9   3.6111   3.0793   6.2798   0.9221  -0.6009   1.2254   0.00    0.0
2158 113774.000   34.382756321  108.264925794 326752.2723   5   9   3.6111   3.0792   6.2796   0.9223  -0.5998   1.2238   0.00    0.0
2158 113775.000   34.382933188  108.265167184 326766.7058   5   9   3.6110   3.0791   6.2795   0.9225  -0.5988   1.2221   0.00    0.0
2158 113775.999   34.029023350  107.733426488 370119.6523   5   8   3.7203   3.2686   6.3507   1.3580  -1.1651   0.9007   0.00    0.0
2158 113776.999   34.029363377  107.733781599 370150.6016   5   8   3.7202   3.2685   6.3506   1.3580  -1.1646   0.8984   0.00    0.0
2158 113777.999   34.029613858  107.734109653 370173.8013   5   8   3.7201   3.2683   6.3505   1.3580  -1.1641   0.8962   0.00    0.0
2158 113778.998   33.351739381  105.308005638 770703.3669   5   7   4.2087   6.5964  11.7480   3.6362  -7.6221  -4.3265   0.00    0.0
2158 113779.998   33.352170693  105.309064263 770658.7097   5   7   4.2086   6.5954  11.7473   3.6360  -7.6211  -4.3269   0.00    0.0
2158 113780.999   34.030577063  107.735185102 370264.0370   5   8   3.7198   3.2679   6.3502   1.3579  -1.1625   0.8895   0.00    0.0
2158 113781.999   34.030894439  107.735535120 370291.6830   5   8   3.7197   3.2677   6.3501   1.3579  -1.1620   0.8872   0.00    0.0
2158 113782.999   34.031217522  107.735887076 370320.0078   5   8   3.7196   3.2675   6.3500   1.3579  -1.1615   0.8849   0.00    0.0
2158 113783.999   34.031456990  107.736251260 370340.9895   5   8   3.7195   3.2674   6.3499   1.3578  -1.1610   0.8827   0.00    0.0
2158 113784.999   34.031802455  107.736591426 370370.4715   5   8   3.7194   3.2672   6.3498   1.3578  -1.1605   0.8804   0.00    0.0
2158 113785.999   34.032053013  107.736978948 370394.2557   5   8   3.7193   3.2671   6.3497   1.3578  -1.1600   0.8781   0.00    0.0
2158 113786.999   34.032356380  107.737295706 370416.8686   5   8   3.7192   3.2669   6.3496   1.3578  -1.1595   0.8759   0.00    0.0
2158 113787.999   34.032672625  107.737650377 370444.2793   5   8   3.7191   3.2668   6.3495   1.3577  -1.1590   0.8736   0.00    0.0
2158 113789.000   33.827442694  108.897755179 264257.5047   5  10   3.1319   2.8562   6.2130   1.3166   0.8821   0.4977   0.00    0.0
2158 113790.000   33.703754178  108.857059260 263928.7713   5   9   3.6688   2.9001   6.2155   1.6415   0.8765   0.4838   0.00    0.0
2158 113791.000   33.704382303  108.857394719 264021.5059   5   9   3.6687   2.8999   6.2156   1.6412   0.8764   0.4806   0.00    0.0
2158 113792.000   33.828864423  108.898599623 264528.1671   5  10   3.1318   2.8557   6.2132   1.3159   0.8822   0.4909   0.00    0.0
2158 113795.000   33.990757306  108.332983963 309458.2383   5  10   3.1210   3.0678   6.2593   1.1546  -0.4150   0.7038   0.00    0.0
2158 113795.999   34.035145078  107.740329462 370699.1567   5   8   3.7183   3.2655   6.3486   1.3575  -1.1550   0.8550   0.00    0.0
2158 113796.999   34.035485586  107.740672540 370730.4853   5   8   3.7182   3.2653   6.3485   1.3575  -1.1545   0.8526   0.00    0.0
2158 113798.000   34.387173552  108.270701001 327173.8447   5   9   3.6104   3.0764   6.2762   0.9270  -0.5737   1.1840   0.00    0.0
2158 113798.999   34.036118219  107.741316838 370784.8856   5   8   3.7180   3.2650   6.3483   1.3574  -1.1535   0.8479   0.00    0.0
2158 113799.999   34.036429390  107.741683244 370815.8226   5   8   3.7179   3.2649   6.3482   1.3574  -1.1530   0.8455   0.00    0.0
2158 113800.999   34.036779103  107.742022707 370847.9487   5   8   3.7178   3.2647   6.3481   1.3574  -1.1525   0.8431   0.00    0.0
2158 113801.999   34.037049011  107.742349056 370870.5996   5   8   3.7177   3.2646   6.3480   1.3574  -1.1520   0.8408   0.00    0.0
2158 113802.999   34.037392318  107.742677436 370904.0751   5   8   3.7176   3.2644   6.3479   1.3573  -1.1515   0.8384   0.00    0.0
2158 113804.000   34.057275299  109.448840017 223463.0698   5  10   3.5668   2.6537   6.1594   1.3052   1.3125   0.9079   0.00    0.0
2158 113805.000   33.713434217  108.862234114 265317.0352   5   9   3.6682   2.8973   6.2164   1.6376   0.8752   0.4331   0.00    0.0
2158 113805.999   34.038362342  107.743696349 370996.0706   5   8   3.7173   3.2639   6.3476   1.3572  -1.1500   0.8311   0.00    0.0
2158 113807.000   34.038672985  107.744041586 371022.9927   5   8   3.7172   3.2638   6.3475   1.3572  -1.1495   0.8287   0.00    0.0
2158 113808.000   34.389109736  108.273032132 327354.5893   5   9   3.6101   3.0753   6.2747   0.9289  -0.5625   1.1670   0.00    0.0
2158 113809.000   34.039304921  107.744737137 371078.5952   5   8   3.7170   3.2635   6.3473   1.3572  -1.1485   0.8239   0.00    0.0
2158 113810.000   34.389453364  108.273489537 327385.8787   5   9   3.6100   3.0751   6.2745   0.9293  -0.5603   1.1636   0.00    0.0
2158 113811.000   34.389660100  108.273726980 327402.2781   5   9   3.6100   3.0750   6.2743   0.9295  -0.5592   1.1619   0.00    0.0
2158 113812.000   34.389849599  108.273975256 327419.4312   5   9   3.6100   3.0749   6.2742   0.9297  -0.5580   1.1601   0.00    0.0
2158 113813.000   34.390033857  108.274206089 327433.9658   5   9   3.6100   3.0747   6.2740   0.9299  -0.5569   1.1584   0.00    0.0
2158 113814.000   34.390218993  108.274440051 327449.3056   5   9   3.6099   3.0746   6.2739   0.9301  -0.5558   1.1567   0.00    0.0
2158 113815.000   34.390403766  108.274678218 327465.9332   5   9   3.6099   3.0745   6.2737   0.9302  -0.5546   1.1550   0.00    0.0
2158 113816.000   34.390584067  108.274915663 327480.9346   5   9   3.6099   3.0744   6.2736   0.9304  -0.5535   1.1532   0.00    0.0
2158 113817.000   34.390773275  108.275159093 327496.8237   5   9   3.6099   3.0743   6.2735   0.9306  -0.5524   1.1515   0.00    0.0
2158 113818.000   34.390983430  108.275382031 327512.2946   5   9   3.6098   3.0742   6.2733   0.9308  -0.5513   1.1498   0.00    0.0
2158 113819.000   34.391170023  108.275606719 327528.8535   5   9   3.6098   3.0741   6.2732   0.9310  -0.5501   1.1480   0.00    0.0
2158 113820.000   34.391367925  108.275840012 327544.9398   5   9   3.6098   3.0740   6.2730   0.9312  -0.5490   1.1463   0.00    0.0
2158 113821.000   34.391564071  108.276078457 327562.1025   5   9   3.6098   3.0738   6.2729   0.9314  -0.5478   1.1445   0.00    0.0
2158 113822.000   34.391753187  108.276310276 327576.6206   5   9   3.6097   3.0737   6.2727   0.9316  -0.5467   1.1428   0.00    0.0
2158 113823.000   34.391916655  108.276544911 327590.3541   5   9   3.6097   3.0736   6.2726   0.9317  -0.5456   1.1411   0.00    0.0
2158 113824.000   34.392112702  108.276785098 327607.9013   5   9   3.6097   3.0735   6.2725   0.9319  -0.5444   1.1393   0.00    0.0
2158 113825.000   34.392312227  108.277028754 327625.7768   5   9   3.6097   3.0734   6.2723   0.9321  -0.5433   1.1375   0.00    0.0
2158 113825.999   34.106968279  107.134033013 507000.8498   5   8   3.9767   6.2670  10.9778   3.1730  -7.0358  -3.7145   0.00    0.0
2158 113826.999   34.107131991  107.134587132 506983.1494   5   8   3.9768   6.2662  10.9773   3.1730  -7.0349  -3.7152   0.00    0.0
2158 113827.999   34.107304277  107.135076626 506980.1754   5   8   3.9769   6.2654  10.9768   3.1730  -7.0341  -3.7159   0.00    0.0
2158 113828.999   34.107454600  107.135615747 506975.3931   5   8   3.9770   6.2646  10.9763   3.1731  -7.0332  -3.7166   0.00    0.0
2158 113829.999   34.107620670  107.136108291 506970.0794   5   8   3.9771   6.2638  10.9758   3.1731  -7.0324  -3.7173   0.00    0.0
2158 113830.999   34.107687616  107.136547515 506958.8316   5   8   3.9772   6.2630  10.9752   3.1731  -7.0315  -3.7180   0.00    0.0
2158 113831.999   34.107938987  107.137026628 506964.4970   5   8   3.9773   6.2622  10.9747   3.1732  -7.0306  -3.7187   0.00    0.0
2158 113832.999   34.108077330  107.137502850 506958.0879   5   8   3.9773   6.2613  10.9742   3.1732  -7.0298  -3.7194   0.00    0.0
2158 113833.999   34.108245718  107.137989619 506951.6810   5   8   3.9774   6.2605  10.9737   3.1732  -7.0289  -3.7201   0.00    0.0
2158 113834.999   34.544245442  107.309825374 559996.8843   5   9   3.6681   6.2934  10.8178   3.1210  -7.1176  -4.1630   0.00    0.0
2158 113835.999   34.108671729  107.138740961 506984.8339   5   8   3.9776   6.2589  10.9726   3.1733  -7.0272  -3.7215   0.00    0.0
2158 113836.999   34.108843586  107.139201725 506982.5089   5   8   3.9777   6.2581  10.9721   3.1733  -7.0263  -3.7222   0.00    0.0
2158 113837.999   34.109018255  107.139645152 506984.7811   5   8   3.9778   6.2573  10.9716   3.1734  -7.0255  -3.7229   0.00    0.0
2158 113838.999   33.797890192  106.431805375 577937.7381   5   9   3.4285   4.9009  10.3101   1.5332  -5.8468  -2.4479   0.00    0.0
2158 113839.999   33.798003620  106.432178550 577950.6574   5   9   3.4286   4.9001  10.3095   1.5336  -5.8458  -2.4490   0.00    0.0
2158 113840.999   33.798103453  106.432544041 577964.6616   5   9   3.4288   4.8993  10.3089   1.5340  -5.8449  -2.4501   0.00    0.0
2158 113842.000   33.930673304  109.756704091  9100.5126   5  10   3.4465   2.9904   7.3441   1.4250  -2.5985  -2.2386   0.00    0.0
2158 113842.999   33.798315198  106.433361079 577980.7819   5   9   3.4291   4.8978  10.3078   1.5347  -5.8430  -2.4524   0.00    0.0
2158 113843.999   33.798400591  106.433743273 577992.7975   5   9   3.4293   4.8970  10.3072   1.5351  -5.8420  -2.4535   0.00    0.0
2158 113844.998   35.061617210  104.648749196 986762.3690   5   8   4.7379   5.9488  13.1206  -3.0339  -7.8590   4.3881   0.00    0.0
2158 113845.999   33.798617562  106.434458781 578027.8241   5   9   3.4296   4.8954  10.3061   1.5359  -5.8401  -2.4557   0.00    0.0
2158 113847.000   34.014251491  107.872484024 292570.2036   5  10   3.3602   2.8458   6.1993  -0.8012  -1.2013   0.2149   0.00    0.0
2158 113848.000   34.396406716  108.282341477 328000.9062   5   9   3.6092   3.0708   6.2691   0.9364  -0.5165   1.0964   0.00    0.0
2158 113849.000   34.051522097  107.758181875 372174.2675   5   8   3.7133   3.2573   6.3433   1.3560  -1.1285   0.7200   0.00    0.0
2158 113849.999   33.740499027  107.413339457 352437.8561   5   9   3.4115   2.9697   6.3071  -0.3441  -1.5319  -0.7219   0.00    0.0
2158 113850.999   33.740777992  107.413570440 352463.2975   5   9   3.4115   2.9695   6.3070  -0.3437  -1.5314  -0.7242   0.00    0.0
2158 113851.999   33.741078619  107.413785757 352494.8721   5   9   3.4116   2.9693   6.3070  -0.3433  -1.5309  -0.7264   0.00    0.0
2158 113852.999   33.741392933  107.413999320 352523.6786   5   9   3.4117   2.9690   6.3069  -0.3428  -1.5304  -0.7287   0.00    0.0
2158 113853.999   33.741682332  107.414235413 352550.9785   5   9   3.4117   2.9688   6.3068  -0.3424  -1.5299  -0.7310   0.00    0.0
2158 113855.000   33.428132732  107.319162435 331126.3810   5  10   3.2398   2.9588   6.2935  -0.6257  -1.5740  -0.9938   0.00    0.0
2158 113855.999   33.742247451  107.414621335 352598.9566   5   9   3.4118   2.9684   6.3067  -0.3415  -1.5290  -0.7354   0.00    0.0
2158 113856.999   33.742413540  107.414940435 352627.8892   5   9   3.4119   2.9682   6.3067  -0.3411  -1.5285  -0.7376   0.00    0.0
2158 113857.999   33.742592081  107.415176003 352644.6261   5   9   3.4119   2.9680   6.3066  -0.3407  -1.5280  -0.7398   0.00    0.0
2158 113858.999   34.204837037  107.273670019 390027.8256   5   8   4.8355   3.0979   6.6640  -1.7842  -2.0739   2.5948   0.00    0.0
2158 113859.999   33.743251397  107.415602250 352706.7250   5   9   3.4120   2.9676   6.3065  -0.3398  -1.5270  -0.7442   0.00    0.0
2158 113860.999   33.743545780  107.415840431 352735.7324   5   9   3.4121   2.9674   6.3064  -0.3393  -1.5265  -0.7464   0.00    0.0
2158 113861.999   33.743827985  107.416051462 352762.0974   5   9   3.4121   2.9672   6.3064  -0.3389  -1.5261  -0.7486   0.00    0.0
2158 113862.999   33.744153502  107.416253432 352792.7222   5   9   3.4122   2.9670   6.3063  -0.3385  -1.5256  -0.7508   0.00    0.0
2158 113864.000   34.017725199  107.874740718 292919.3094   5  10   3.3616   2.8428   6.1977  -0.7959  -1.1908  -0.1003   0.00    0.0
2158 113864.999   33.744763835  107.416652218 352848.7145   5   9   3.4123   2.9666   6.3062  -0.3376  -1.5246  -0.7552   0.00    0.0
2158 113866.000   34.018196250  107.874981336 292960.5540   5  10   3.3618   2.8424   6.1976  -0.7952  -1.1896  -0.1292   0.00    0.0
2158 113867.000   34.018466220  107.875102593 292980.8662   5  10   3.3618   2.8422   6.1975  -0.7949  -1.1890  -0.1416   0.00    0.0
2158 113868.000   34.018857444  107.875180805 293018.0138   5  10   3.3619   2.8421   6.1974  -0.7946  -1.1884  -0.1531   0.00    0.0
2158 113869.000   34.019055132  107.875298821 293040.4461   5  10   3.3620   2.8419   6.1973  -0.7943  -1.1878  -0.1636   0.00    0.0
2158 113870.000   34.019255756  107.875436961 293061.1132   5  10   3.3621   2.8417   6.1972  -0.7940  -1.1871  -0.1734   0.00    0.0
2158 113871.000   34.019459077  107.875576304 293081.8613   5  10   3.3622   2.8415   6.1971  -0.7937  -1.1865  -0.1827   0.00    0.0
2158 113872.000   34.019658536  107.875705352 293103.7719   5  10   3.3623   2.8414   6.1970  -0.7934  -1.1859  -0.1915   0.00    0.0
2158 113873.000   34.019856237  107.875817683 293124.3383   5  10   3.3624   2.8412   6.1969  -0.7930  -1.1853  -0.2000   0.00    0.0
2158 113874.000   34.020062315  107.875942571 293145.7614   5  10   3.3624   2.8410   6.1968  -0.7927  -1.1847  -0.2081   0.00    0.0
2158 113875.000   34.020242696  107.876093989 293168.1354   5  10   3.3625   2.8408   6.1967  -0.7924  -1.1841  -0.2159   0.00    0.0
2158 113876.000   34.020449213  107.876223771 293188.6157   5  10   3.3626   2.8407   6.1966  -0.7921  -1.1835  -0.2234   0.00    0.0
2158 113877.000   34.020664628  107.876358900 293209.8520   5  10   3.3627   2.8405   6.1966  -0.7918  -1.1828  -0.2307   0.00    0.0
2158 113878.000   34.020884854  107.876492515 293231.6130   5  10   3.3628   2.8403   6.1965  -0.7915  -1.1822  -0.2378   0.00    0.0
2158 113878.999   33.801972716  106.446505216 578503.0173   5   9   3.4349   4.8695  10.2871   1.5481  -5.8088  -2.4922   0.00    0.0
2158 113879.999   33.802085558  106.446885859 578514.4555   5   9   3.4351   4.8687  10.2865   1.5485  -5.8079  -2.4933   0.00    0.0
2158 113880.999   33.802210380  106.447213071 578538.7945   5   9   3.4352   4.8679  10.2860   1.5489  -5.8069  -2.4944   0.00    0.0
2158 113881.999   33.802389272  106.447468287 578575.8232   5   9   3.4354   4.8671  10.2854   1.5493  -5.8060  -2.4956   0.00    0.0
2158 113882.999   33.802488322  106.447854136 578586.7136   5   9   3.4356   4.8663  10.2848   1.5496  -5.8050  -2.4967   0.00    0.0
2158 113883.999   33.802618818  106.448238882 578601.0589   5   9   3.4357   4.8656  10.2842   1.5500  -5.8041  -2.4978   0.00    0.0
2158 113884.999   33.802748040  106.448562938 578623.8531   5   9   3.4359   4.8648  10.2836   1.5504  -5.8031  -2.4989   0.00    0.0
2158 113885.999   33.802823402  106.448961014 578627.7839   5   9   3.4360   4.8640  10.2831   1.5507  -5.8022  -2.5000   0.00    0.0
2158 113886.999   33.802932574  106.449322490 578642.8922   5   9   3.4362   4.8632  10.2825   1.5511  -5.8013  -2.5011   0.00    0.0
2158 113887.999   33.803036324  106.449692530 578655.7123   5   9   3.4364   4.8624  10.2819   1.5515  -5.8003  -2.5022   0.00    0.0
2158 113888.999   33.803153947  106.450112968 578660.6367   5   9   3.4365   4.8617  10.2814   1.5519  -5.7994  -2.5033   0.00    0.0
2158 113889.999   33.803212834  106.450369461 578689.6814   5   9   3.4367   4.8609  10.2808   1.5522  -5.7984  -2.5043   0.00    0.0
2158 113890.999   33.803302233  106.450691819 578706.7282   5   9   3.4369   4.8601  10.2802   1.5526  -5.7975  -2.5054   0.00    0.0
2158 113891.998   35.074064863  104.678506755 989299.6622   5   8   4.7322   5.8786  13.0586  -2.9786  -7.7759   4.3189   0.00    0.0
2158 113892.999   33.803502021  106.451434317 578733.5137   5   9   3.4372   4.8585  10.2791   1.5533  -5.7956  -2.5076   0.00    0.0
2158 113893.999   33.803584331  106.451755249 578751.1475   5   9   3.4374   4.8577  10.2785   1.5537  -5.7946  -2.5087   0.00    0.0
2158 113894.999   33.803688844  106.452122955 578762.6102   5   9   3.4375   4.8570  10.2779   1.5541  -5.7937  -2.5098   0.00    0.0
2158 113895.999   33.803699814  106.452602992 578748.9653   5   9   3.4377   4.8562  10.2774   1.5544  -5.7928  -2.5109   0.00    0.0
2158 113896.999   33.803783911  106.452978626 578757.1427   5   9   3.4379   4.8554  10.2768   1.5548  -5.7918  -2.5120   0.00    0.0
2158 113897.999   33.803936543  106.453266930 578787.7249   5   9   3.4380   4.8546  10.2762   1.5552  -5.7909  -2.5131   0.00    0.0
2158 113898.998   35.076514008  106.111918164 763295.7861   5   8   4.7954   6.1523  13.1943  -3.0766  -8.0620   4.3989   0.00    0.0
2158 113899.999   33.804169066  106.453938092 578827.8617   5   9   3.4384   4.8531  10.2750   1.5559  -5.7890  -2.5153   0.00    0.0
2158 113900.999   33.804259106  106.454329130 578836.9531   5   9   3.4385   4.8523  10.2745   1.5563  -5.7880  -2.5164   0.00    0.0
2158 113901.998   35.076506157  104.685015188 989778.4933   5   8   4.7311   5.8638  13.0454  -2.9668  -7.7582   4.3040   0.00    0.0
2158 113902.999   33.804503255  106.455016526 578874.9669   5   9   3.4389   4.8508  10.2733   1.5570  -5.7861  -2.5186   0.00    0.0
2158 113903.999   33.804564738  106.455430270 578874.1124   5   9   3.4390   4.8500  10.2728   1.5574  -5.7852  -2.5197   0.00    0.0
2158 113904.999   33.804509667  106.456036114 578832.7305   5   9   3.4392   4.8492  10.2722   1.5577  -5.7843  -2.5207   0.00    0.0
2158 113905.999   33.804590763  106.456450026 578836.4261   5   9   3.4394   4.8485  10.2716   1.5581  -5.7834  -2.5218   0.00    0.0
2158 113906.999   33.804755278  106.456759781 578863.6631   5   9   3.4395   4.8477  10.2711   1.5585  -5.7824  -2.5229   0.00    0.0
2158 113907.999   33.804851183  106.457149839 578872.8095   5   9   3.4397   4.8469  10.2705   1.5588  -5.7815  -2.5240   0.00    0.0
2158 113908.999   33.804974522  106.457508469 578888.7162   5   9   3.4399   4.8462  10.2699   1.5592  -5.7805  -2.5251   0.00    0.0
2158 113909.999   33.805100953  106.457872347 578901.6773   5   9   3.4400   4.8454  10.2693   1.5596  -5.7796  -2.5262   0.00    0.0
2158 113910.999   33.805208137  106.458245648 578912.3823   5   9   3.4402   4.8446  10.2688   1.5599  -5.7787  -2.5273   0.00    0.0
2158 113911.999   33.805347243  106.458575860 578937.6486   5   9   3.4404   4.8438  10.2682   1.5603  -5.7777  -2.5284   0.00    0.0
2158 113913.000   33.959490928  109.752212989 13198.6590   5  10   3.4564   2.9759   7.3762   1.4172  -2.6033  -2.2864   0.00    0.0
2158 113914.000   33.959856606  109.752191658 13248.6602   5  10   3.4566   2.9757   7.3766   1.4171  -2.6034  -2.2871   0.00    0.0
2158 113915.999   33.805772259  106.460184136 578972.4083   5   9   3.4411   4.8408  10.2659   1.5618  -5.7740  -2.5327   0.00    0.0
2158 113916.999   33.805879286  106.460577759 578980.9575   5   9   3.4412   4.8400  10.2653   1.5622  -5.7731  -2.5338   0.00    0.0
2158 113917.999   33.805988729  106.460861400 578999.8769   5   9   3.4414   4.8392  10.2648   1.5625  -5.7721  -2.5349   0.00    0.0
2158 113918.999   33.806071967  106.461253028 579009.9175   5   9   3.4416   4.8384  10.2642   1.5629  -5.7712  -2.5360   0.00    0.0
2158 113919.999   33.806180907  106.461634276 579021.4905   5   9   3.4417   4.8377  10.2636   1.5633  -5.7702  -2.5371   0.00    0.0
2158 113920.999   33.806285936  106.461970435 579036.1172   5   9   3.4419   4.8369  10.2630   1.5636  -5.7693  -2.5382   0.00    0.0
2158 113921.999   33.806381121  106.462309981 579059.1205   5   9   3.4421   4.8361  10.2625   1.5640  -5.7683  -2.5393   0.00    0.0
2158 113922.999   33.806481035  106.462666989 579072.2510   5   9   3.4422   4.8354  10.2619   1.5644  -5.7674  -2.5404   0.00    0.0
2158 113923.999   33.806583881  106.463036002 579083.5963   5   9   3.4424   4.8346  10.2613   1.5647  -5.7665  -2.5414   0.00    0.0
2158 113924.999   33.806691839  106.463427321 579094.4550   5   9   3.4426   4.8338  10.2607   1.5651  -5.7655  -2.5425   0.00    0.0
2158 113925.999   33.806870116  106.463686429 579128.7469   5   9   3.4428   4.8330  10.2602   1.5655  -5.7646  -2.5436   0.00    0.0
2158 113926.999   33.806921850  106.464170209 579124.4053   5   9   3.4429   4.8323  10.2596   1.5658  -5.7637  -2.5447   0.00    0.0
2158 113927.999   33.807064749  106.464492292 579146.7486   5   9   3.4431   4.8315  10.2590   1.5662  -5.7627  -2.5458   0.00    0.0
2158 113928.999   33.807199082  106.464838812 579166.6265   5   9   3.4433   4.8307  10.2584   1.5666  -5.7618  -2.5469   0.00    0.0
2158 113929.999   33.807255053  106.465189064 579175.0090   5   9   3.4434   4.8300  10.2579   1.5669  -5.7608  -2.5480   0.00    0.0
2158 113930.999   33.807357051  106.465572115 579183.5639   5   9   3.4436   4.8292  10.2573   1.5673  -5.7599  -2.5491   0.00    0.0
2158 113931.999   33.807452926  106.465930141 579198.2438   5   9   3.4438   4.8284  10.2567   1.5677  -5.7590  -2.5501   0.00    0.0
2158 113932.999   33.807568129  106.466295654 579209.9541   5   9   3.4440   4.8277  10.2562   1.5680  -5.7580  -2.5512   0.00    0.0
2158 113933.999   33.807682581  106.466683365 579219.7852   5   9   3.4441   4.8269  10.2556   1.5684  -5.7571  -2.5523   0.00    0.0
2158 113934.999   33.807788100  106.467049341 579237.3938   5   9   3.4443   4.8261  10.2550   1.5688  -5.7562  -2.5534   0.00    0.0
2158 113935.999   33.807911631  106.467419923 579249.5821   5   9   3.4445   4.8254  10.2544   1.5691  -5.7552  -2.5545   0.00    0.0
2158 113936.999   33.808021819  106.467776024 579264.3444   5   9   3.4447   4.8246  10.2539   1.5695  -5.7543  -2.5556   0.00    0.0
2158 113937.999   33.808105579  106.468094329 579284.1322   5   9   3.4448   4.8238  10.2533   1.5699  -5.7533  -2.5567   0.00    0.0
2158 113938.999   33.808195283  106.468474783 579304.5976   5   9   3.4450   4.8231  10.2527   1.5702  -5.7524  -2.5577   0.00    0.0
2158 113939.999   33.808297058  106.468847585 579316.2164   5   9   3.4452   4.8223  10.2521   1.5706  -5.7515  -2.5588   0.00    0.0
2158 113940.999   33.808382733  106.469185563 579337.4117   5   9   3.4453   4.8215  10.2516   1.5710  -5.7505  -2.5599   0.00    0.0
2158 113941.999   33.808502814  106.469545694 579351.4627   5   9   3.4455   4.8208  10.2510   1.5713  -5.7496  -2.5610   0.00    0.0
2158 113942.999   33.808598265  106.469903461 579364.2723   5   9   3.4457   4.8200  10.2504   1.5717  -5.7487  -2.5621   0.00    0.0
2158 113943.999   33.808695779  106.470278632 579372.6280   5   9   3.4459   4.8192  10.2498   1.5720  -5.7477  -2.5631   0.00    0.0
2158 113944.999   33.808797781  106.470632692 579383.8783   5   9   3.4460   4.8185  10.2493   1.5724  -5.7468  -2.5642   0.00    0.0
2158 113945.999   33.808899085  106.470991767 579400.6734   5   9   3.4462   4.8177  10.2487   1.5728  -5.7459  -2.5653   0.00    0.0
2158 113946.999   33.809007172  106.471374288 579409.7657   5   9   3.4464   4.8170  10.2481   1.5731  -5.7449  -2.5664   0.00    0.0
2158 113947.999   33.809106737  106.471734154 579423.4386   5   9   3.4466   4.8162  10.2476   1.5735  -5.7440  -2.5675   0.00    0.0
2158 113948.999   33.809258217  106.472047983 579446.9935   5   9   3.4467   4.8154  10.2470   1.5739  -5.7430  -2.5685   0.00    0.0
2158 113949.999   33.809368428  106.472523387 579437.2597   5   9   3.4469   4.8147  10.2464   1.5742  -5.7421  -2.5696   0.00    0.0
2158 113950.999   33.809456523  106.472944558 579431.9334   5   9   3.4471   4.8139  10.2459   1.5746  -5.7412  -2.5707   0.00    0.0
2158 113951.999   33.809604023  106.473278997 579448.3224   5   9   3.4473   4.8132  10.2453   1.5750  -5.7403  -2.5718   0.00    0.0
2158 113952.999   33.809739912  106.473622729 579459.1008   5   9   3.4474   4.8124  10.2447   1.5754  -5.7393  -2.5729   0.00    0.0
2158 113953.999   33.809828047  106.473905058 579478.9947   5   9   3.4476   4.8116  10.2441   1.5757  -5.7384  -2.5740   0.00    0.0
2158 113954.999   33.809947818  106.474258480 579490.3247   5   9   3.4478   4.8109  10.2436   1.5761  -5.7375  -2.5750   0.00    0.0
2158 113955.999   33.810038700  106.474661336 579488.7202   5   9   3.4480   4.8101  10.2430   1.5764  -5.7365  -2.5761   0.00    0.0
2158 113956.999   33.810145651  106.475058486 579497.7841   5   9   3.4481   4.8093  10.2424   1.5768  -5.7356  -2.5772   0.00    0.0
2158 113957.999   33.810245142  106.475428500 579506.9068   5   9   3.4483   4.8086  10.2418   1.5772  -5.7347  -2.5783   0.00    0.0
2158 113958.999   33.810331510  106.475748598 579520.9127   5   9   3.4485   4.8078  10.2413   1.5775  -5.7337  -2.5793   0.00    0.0
2158 113959.999   33.810422093  106.476098681 579528.0626   5   9   3.4487   4.8070  10.2407   1.5779  -5.7328  -2.5804   0.00    0.0
2158 113960.999   33.810519720  106.476461094 579541.1357   5   9   3.4489   4.8063  10.2401   1.5782  -5.7319  -2.5815   0.00    0.0
2158 113961.999   33.810632135  106.476827810 579551.4395   5   9   3.4490   4.8055  10.2396   1.5786  -5.7309  -2.5826   0.00    0.0
2158 113962.999   33.810737333  106.477188368 579563.2498   5   9   3.4492   4.8048  10.2390   1.5790  -5.7300  -2.5836   0.00    0.0
2158 113963.999   33.810853792  106.477551508 579579.0412   5   9   3.4494   4.8040  10.2384   1.5793  -5.7291  -2.5847   0.00    0.0
2158 113964.999   33.723966885  106.309730488 606943.0440   5  10   3.1472   4.2314   9.5745  -0.8235  -4.9491  -1.2218   0.00    0.0
2158 113965.999   33.724104127  106.310151781 606950.1213   5  10   3.1473   4.2306   9.5737  -0.8231  -4.9479  -1.2236   0.00    0.0
2158 113967.000   33.764742031  107.766465923 282669.6109   5  11   3.1624   2.7963   6.1850  -1.0282  -1.1929  -0.8335   0.00    0.0
2158 113968.000   33.764953764  107.766519603 282700.5648   5  11   3.1626   2.7961   6.1849  -1.0281  -1.1923  -0.8353   0.00    0.0
2158 113969.000   34.040297682  107.888101050 295151.0899   5  10   3.3712   2.8247   6.1884  -0.7626  -1.1260  -0.5995   0.00    0.0
2158 113970.000   34.040521358  107.888238862 295171.7215   5  10   3.3713   2.8245   6.1883  -0.7623  -1.1254  -0.6023   0.00    0.0
2158 113971.000   34.040750045  107.888375565 295192.6422   5  10   3.3714   2.8243   6.1882  -0.7619  -1.1248  -0.6051   0.00    0.0
2158 113972.000   34.040997159  107.888491078 295209.5938   5  10   3.3715   2.8241   6.1881  -0.7616  -1.1242  -0.6078   0.00    0.0
2158 113973.000   34.041182930  107.888600136 295226.3157   5  10   3.3716   2.8240   6.1880  -0.7613  -1.1236  -0.6106   0.00    0.0
2158 113974.000   34.041394128  107.888731702 295250.2930   5  10   3.3717   2.8238   6.1879  -0.7610  -1.1229  -0.6133   0.00    0.0
2158 113975.000   34.041605404  107.888805522 295273.0016   5  10   3.3718   2.8236   6.1879  -0.7606  -1.1223  -0.6160   0.00    0.0
2158 113976.000   34.041795111  107.888933479 295290.9714   5  10   3.3719   2.8235   6.1878  -0.7603  -1.1217  -0.6187   0.00    0.0
2158 113977.000   34.042009622  107.889069879 295312.3998   5  10   3.3720   2.8233   6.1877  -0.7600  -1.1211  -0.6214   0.00    0.0
2158 113978.000   34.042076679  107.889214542 295324.0034   5  10   3.3721   2.8231   6.1876  -0.7597  -1.1205  -0.6240   0.00    0.0
2158 113979.000   34.042292465  107.889354310 295347.0345   5  10   3.3722   2.8230   6.1875  -0.7594  -1.1198  -0.6267   0.00    0.0
2158 113980.000   34.042502811  107.889471904 295368.4793   5  10   3.3723   2.8228   6.1874  -0.7590  -1.1192  -0.6294   0.00    0.0
2158 113981.000   34.042664231  107.889594321 295385.9071   5  10   3.3724   2.8226   6.1873  -0.7587  -1.1186  -0.6320   0.00    0.0
2158 113982.000   34.042853117  107.889725970 295409.5924   5  10   3.3725   2.8225   6.1873  -0.7584  -1.1180  -0.6346   0.00    0.0
2158 113983.000   34.043056752  107.889847263 295430.3337   5  10   3.3726   2.8223   6.1872  -0.7581  -1.1174  -0.6372   0.00    0.0
2158 113984.000   34.043301433  107.889973022 295454.9580   5  10   3.3727   2.8221   6.1871  -0.7578  -1.1167  -0.6399   0.00    0.0
2158 113985.000   34.043568053  107.890082058 295476.9316   5  10   3.3728   2.8220   6.1870  -0.7574  -1.1161  -0.6425   0.00    0.0
2158 113986.000   34.043812277  107.890202952 295498.8984   5  10   3.3729   2.8218   6.1869  -0.7571  -1.1155  -0.6451   0.00    0.0
2158 113987.000   33.768997472  107.767285196 283246.1843   5  11   3.1646   2.7921   6.1836  -1.0265  -1.1810  -0.8690   0.00    0.0
2158 113988.000   33.769212205  107.767366561 283278.3082   5  11   3.1647   2.7919   6.1836  -1.0264  -1.1804  -0.8707   0.00    0.0
2158 113989.000   33.769432759  107.767412743 283306.7079   5  11   3.1648   2.7916   6.1835  -1.0264  -1.1798  -0.8725   0.00    0.0
2158 113990.000   33.769711558  107.767498179 283340.7459   5  11   3.1649   2.7914   6.1834  -1.0263  -1.1792  -0.8742   0.00    0.0
2158 113991.000   33.769952962  107.767543714 283372.9528   5  11   3.1650   2.7912   6.1833  -1.0262  -1.1786  -0.8760   0.00    0.0
2158 113992.000   33.770182101  107.767572859 283401.5347   5  11   3.1651   2.7910   6.1833  -1.0261  -1.1780  -0.8777   0.00    0.0
2158 113993.000   33.770400985  107.767600574 283428.7520   5  11   3.1653   2.7908   6.1832  -1.0260  -1.1774  -0.8794   0.00    0.0
2158 113994.000   33.770616590  107.767643051 283457.6828   5  11   3.1654   2.7906   6.1831  -1.0259  -1.1768  -0.8811   0.00    0.0
2158 113995.000   33.770842550  107.767688743 283485.7074   5  11   3.1655   2.7904   6.1831  -1.0258  -1.1762  -0.8829   0.00    0.0
2158 113996.000   33.771025265  107.767728093 283512.6243   5  11   3.1656   2.7902   6.1830  -1.0258  -1.1756  -0.8846   0.00    0.0
2158 113997.000   33.771249321  107.767756969 283538.1539   5  11   3.1657   2.7900   6.1829  -1.0257  -1.1750  -0.8863   0.00    0.0
2158 113998.000   33.771467785  107.767796327 283563.9391   5  11   3.1658   2.7897   6.1829  -1.0256  -1.1744  -0.8880   0.00    0.0
2158 113999.000   33.771671650  107.767841139 283591.0424   5  11   3.1659   2.7895   6.1828  -1.0255  -1.1738  -0.8897   0.00    0.0
2158 114000.000   33.771893251  107.767895177 283617.9602   5  11   3.1660   2.7893   6.1827  -1.0254  -1.1732  -0.8914   0.00    0.0
2158 114001.000   33.772116083  107.767928452 283644.4268   5  11   3.1661   2.7891   6.1827  -1.0253  -1.1726  -0.8931   0.00    0.0
2158 114002.000   33.772344797  107.767962676 283668.8984   5  11   3.1662   2.7889   6.1826  -1.0253  -1.1720  -0.8948   0.00    0.0
2158 114003.000   33.772538814  107.768023048 283699.1121   5  11   3.1664   2.7887   6.1825  -1.0252  -1.1715  -0.8965   0.00    0.0
2158 114004.000   33.772743511  107.768086833 283731.1832   5  11   3.1665   2.7885   6.1825  -1.0251  -1.1709  -0.8982   0.00    0.0
2158 114005.000   34.009480839  108.073879251 307082.2124   5  10   3.3236   2.9832   6.2300   0.1293  -0.6960  -0.3090   0.00    0.0
2158 114006.000   33.773072393  107.768190135 283780.3635   5  11   3.1667   2.7881   6.1823  -1.0249  -1.1697  -0.9015   0.00    0.0
2158 114007.000   33.773308114  107.768219215 283809.2494   5  11   3.1668   2.7878   6.1823  -1.0248  -1.1691  -0.9032   0.00    0.0
2158 114008.000   33.773527514  107.768255806 283834.2058   5  11   3.1669   2.7876   6.1822  -1.0247  -1.1685  -0.9049   0.00    0.0
2158 114009.000   33.472472513  107.335540345 336811.0975   5  10   3.2489   2.9237   6.2880  -0.6279  -1.5052  -1.2064   0.00    0.0
2158 114010.000   33.472740346  107.335677826 336845.0588   5  10   3.2489   2.9235   6.2880  -0.6279  -1.5048  -1.2077   0.00    0.0
2158 114011.000   33.473049197  107.335780615 336880.9397   5  10   3.2490   2.9232   6.2879  -0.6279  -1.5043  -1.2089   0.00    0.0
2158 114012.000   33.473333009  107.335919020 336914.7916   5  10   3.2491   2.9230   6.2879  -0.6280  -1.5039  -1.2102   0.00    0.0
2158 114013.000   33.473606937  107.336039817 336946.7020   5  10   3.2491   2.9228   6.2879  -0.6280  -1.5035  -1.2115   0.00    0.0
2158 114014.000   33.774859038  107.768624797 283996.0966   5  11   3.1676   2.7864   6.1818  -1.0242  -1.1649  -0.9149   0.00    0.0
2158 114015.000   33.775027907  107.768699182 284022.4883   5  11   3.1677   2.7862   6.1817  -1.0242  -1.1643  -0.9165   0.00    0.0
2158 114016.000   33.775181555  107.768750970 284041.2813   5  11   3.1678   2.7859   6.1816  -1.0241  -1.1637  -0.9181   0.00    0.0
2158 114017.000   33.775374189  107.768790477 284066.4619   5  11   3.1679   2.7857   6.1816  -1.0240  -1.1631  -0.9198   0.00    0.0
2158 114018.000   33.775588732  107.768812462 284088.7041   5  11   3.1680   2.7855   6.1815  -1.0239  -1.1625  -0.9214   0.00    0.0
2158 114019.000   33.775815306  107.768839647 284120.3739   5  11   3.1681   2.7853   6.1814  -1.0238  -1.1619  -0.9231   0.00    0.0
2158 114020.000   33.776007560  107.768851001 284146.3308   5  11   3.1683   2.7851   6.1814  -1.0237  -1.1613  -0.9247   0.00    0.0
2158 114021.000   33.776261961  107.768879079 284177.5299   5  11   3.1684   2.7849   6.1813  -1.0237  -1.1607  -0.9264   0.00    0.0
2158 114022.000   33.776506829  107.768916542 284207.6275   5  11   3.1685   2.7847   6.1812  -1.0236  -1.1601  -0.9280   0.00    0.0
2158 114023.000   33.776727584  107.768966312 284236.2641   5  11   3.1686   2.7845   6.1812  -1.0235  -1.1595  -0.9296   0.00    0.0
2158 114024.000   33.776956937  107.769000082 284265.2967   5  11   3.1687   2.7843   6.1811  -1.0234  -1.1589  -0.9313   0.00    0.0
2158 114025.000   33.777192908  107.769043432 284295.5052   5  11   3.1688   2.7841   6.1810  -1.0233  -1.1583  -0.9329   0.00    0.0
2158 114026.000   33.777439147  107.769075191 284324.6253   5  11   3.1689   2.7838   6.1810  -1.0232  -1.1577  -0.9346   0.00    0.0
2158 114027.000   33.252592247  108.950604974 157985.5634   5  12   3.0717   2.4209   6.0356   0.1617   0.6981  -1.3461   0.00    0.0
2158 114028.000   33.777958679  107.769118424 284384.9649   5  11   3.1692   2.7834   6.1808  -1.0231  -1.1565  -0.9378   0.00    0.0
2158 114029.000   33.778172129  107.769158853 284408.1288   5  11   3.1693   2.7832   6.1808  -1.0230  -1.1559  -0.9394   0.00    0.0
2158 114030.000   33.778393186  107.769194047 284432.4439   5  11   3.1694   2.7830   6.1807  -1.0229  -1.1553  -0.9411   0.00    0.0
2158 114031.000   33.778560567  107.769243043 284456.3250   5  11   3.1695   2.7828   6.1806  -1.0228  -1.1547  -0.9427   0.00    0.0
2158 114032.000   33.778773697  107.769284041 284485.4125   5  11   3.1696   2.7826   6.1806  -1.0227  -1.1541  -0.9443   0.00    0.0
2158 114033.000   33.778984245  107.769321124 284513.3321   5  11   3.1697   2.7824   6.1805  -1.0226  -1.1535  -0.9459   0.00    0.0
2158 114034.000   33.779256087  107.769339416 284545.8985   5  11   3.1698   2.7822   6.1804  -1.0226  -1.1529  -0.9475   0.00    0.0
2158 114035.000   33.479906449  107.338260074 337710.0968   5  10   3.2507   2.9179   6.2871  -0.6282  -1.4936  -1.2389   0.00    0.0
2158 114036.000   33.480192113  107.338377266 337744.5246   5  10   3.2508   2.9176   6.2871  -0.6282  -1.4932  -1.2401   0.00    0.0
2158 114037.000   33.794242851  107.453435697 357513.4749   5   9   3.4236   2.9329   6.2961  -0.2515  -1.4416  -1.0667   0.00    0.0
2158 114038.000   34.055131092  107.896884072 296519.0631   5  10   3.3783   2.8132   6.1824  -0.7402  -1.0832  -0.7684   0.00    0.0
2158 114039.000   34.055351207  107.897032781 296534.9286   5  10   3.3784   2.8130   6.1823  -0.7399  -1.0826  -0.7705   0.00    0.0
2158 114039.999   33.818789924  106.506234371 580171.4526   5   9   3.4634   4.7473  10.1952   1.6067  -5.6590  -2.6656   0.00    0.0
2158 114040.999   33.818913744  106.506597994 580183.3065   5   9   3.4636   4.7465  10.1946   1.6071  -5.6581  -2.6666   0.00    0.0
2158 114042.000   34.056040973  107.897385074 296597.9612   5  10   3.3788   2.8125   6.1821  -0.7389  -1.0807  -0.7771   0.00    0.0
2158 114043.000   34.056270464  107.897518190 296618.5106   5  10   3.3789   2.8123   6.1820  -0.7386  -1.0801  -0.7792   0.00    0.0
2158 114044.000   34.056505278  107.897649945 296638.7291   5  10   3.3790   2.8122   6.1819  -0.7383  -1.0795  -0.7814   0.00    0.0
2158 114045.000   34.056722622  107.897784609 296656.7035   5  10   3.3791   2.8120   6.1818  -0.7379  -1.0789  -0.7835   0.00    0.0
2158 114046.000   34.056946500  107.897912323 296674.4564   5  10   3.3792   2.8119   6.1817  -0.7376  -1.0782  -0.7857   0.00    0.0
2158 114047.000   34.057161093  107.898035291 296691.4184   5  10   3.3793   2.8117   6.1816  -0.7373  -1.0776  -0.7878   0.00    0.0
2158 114048.000   34.433006909  108.328908615 330808.3869   5   9   3.6078   3.0495   6.2416   0.9693  -0.1985   0.6332   0.00    0.0
2158 114049.000   34.433209767  108.329141510 330822.7328   5   9   3.6078   3.0494   6.2415   0.9694  -0.1959   0.6300   0.00    0.0
2158 114050.000   34.433398679  108.329370840 330835.0660   5   9   3.6078   3.0493   6.2413   0.9696  -0.1932   0.6268   0.00    0.0
2158 114051.000   34.058046354  107.898558548 296769.8776   5  10   3.3797   2.8110   6.1813  -0.7360  -1.0751  -0.7963   0.00    0.0
2158 114052.000   34.058252298  107.898692236 296788.6975   5  10   3.3799   2.8109   6.1812  -0.7357  -1.0745  -0.7984   0.00    0.0
2158 114053.000   34.058481483  107.898829939 296803.0783   5  10   3.3800   2.8107   6.1811  -0.7353  -1.0739  -0.8005   0.00    0.0
2158 114054.000   34.434113572  108.330322551 330873.5719   5   9   3.6079   3.0489   6.2408   0.9702  -0.1820   0.6139   0.00    0.0
2158 114055.000   34.434311540  108.330562416 330884.0901   5   9   3.6079   3.0488   6.2407   0.9703  -0.1791   0.6106   0.00    0.0
2158 114056.000   34.059134568  107.899231161 296853.5544   5  10   3.3803   2.8102   6.1809  -0.7343  -1.0720  -0.8068   0.00    0.0
2158 114057.000   34.059362667  107.899367524 296872.4470   5  10   3.3804   2.8101   6.1808  -0.7340  -1.0714  -0.8088   0.00    0.0
2158 114058.000   34.059576162  107.899486270 296890.1096   5  10   3.3805   2.8099   6.1807  -0.7337  -1.0708  -0.8109   0.00    0.0
2158 114059.000   34.059797355  107.899609120 296908.9057   5  10   3.3806   2.8097   6.1806  -0.7334  -1.0701  -0.8130   0.00    0.0
2158 114060.000   34.060028358  107.899750015 296928.0167   5  10   3.3807   2.8096   6.1805  -0.7330  -1.0695  -0.8151   0.00    0.0
2158 114061.000   34.060257480  107.899948602 296955.4359   5  10   3.3808   2.8094   6.1805  -0.7327  -1.0689  -0.8171   0.00    0.0
2158 114062.000   34.060455293  107.900063390 296972.8684   5  10   3.3810   2.8093   6.1804  -0.7324  -1.0683  -0.8192   0.00    0.0
2158 114063.000   34.060667718  107.900240100 296993.2743   5  10   3.3811   2.8091   6.1803  -0.7320  -1.0677  -0.8212   0.00    0.0
2158 114064.000   34.060878447  107.900364669 297008.2627   5  10   3.3812   2.8089   6.1802  -0.7317  -1.0670  -0.8233   0.00    0.0
2158 114065.000   34.061091952  107.900460127 297020.1218   5  10   3.3813   2.8088   6.1801  -0.7314  -1.0664  -0.8253   0.00    0.0
