     3.03           OBSERVATION DATA    M: Mixed            RINEX VERSION / TYPE
Geo++ RINEX Logger  Geo++               20210930 111808 UTC PGM / RUN BY / DATE
************************************************************COMMENT
This file was generated by the Geo++ RINEX Logger App       COMMENT
for Android devices (Version 2.1.6). If you encounter       COMMENT
any issues, please send an email to android@geopp.de        COMMENT
Filtering Mode: BEST                                        COMMENT
************************************************************COMMENT
Geo++                                                       MARKER NAME
GEODETIC                                                    MARKER TYPE
Geo++               Geo++                                   OBSERVER / AGENCY
unknown             HUAWEI              ELS-AN00            REC # / TYPE / VERS
unknown             ELS-AN00                                ANT # / TYPE
 -2410994.8244  5386353.9529  2412447.8936                  APPROX POSITION XYZ
        0.0000        0.0000        0.0000                  ANTENNA: DELTA H/E/N
G    8 C1C L1C D1C S1C C5Q L5Q D5Q S5Q                      SYS / # / OBS TYPES
R    4 C1C L1C D1C S1C                                      SYS / # / OBS TYPES
E   12 C1B L1B D1B S1B C1C L1C D1C S1C C5Q L5Q D5Q S5Q      SYS / # / OBS TYPES
C    4 C2I L2I D2I S2I                                      SYS / # / OBS TYPES
J    8 C1C L1C D1C S1C C5Q L5Q D5Q S5Q                      SYS / # / OBS TYPES
  2021     9    30    11    18   26.9999596     GPS         TIME OF FIRST OBS
 24 R01  1 R02 -4 R03  5 R04  6 R05  1 R06 -4 R07  5 R08  6 GLONASS SLOT / FRQ #
    R09 -2 R10 -5 R11  0 R12 -1 R13 -2 R14 -7 R15  0 R16 -1 GLONASS SLOT / FRQ #
    R17  4 R18 -3 R19  3 R20  2 R21  4 R22 -3 R23  3 R24  2 GLONASS SLOT / FRQ #
G L1C                                                       SYS / PHASE SHIFT
G L5Q -0.25000                                              SYS / PHASE SHIFT
R L1C                                                       SYS / PHASE SHIFT
E L1B                                                       SYS / PHASE SHIFT
E L1C +0.50000                                              SYS / PHASE SHIFT
E L5Q -0.25000                                              SYS / PHASE SHIFT
C L2I                                                       SYS / PHASE SHIFT
J L1C                                                       SYS / PHASE SHIFT
J L5Q -0.25000                                              SYS / PHASE SHIFT
 C1C    0.000 C1P    0.000 C2C    0.000 C2P    0.000        GLONASS COD/PHS/BIS
                                                            END OF HEADER
> 2021  9 30 11 18 26.9999596  3  1
Geo++                                                       MARKER NAME
> 2021  9 30 11 18 26.9999596  0  7
C16  36964590.846   192484324.3411        -40.957          22.000  
C19  21986436.807   114489145.6321      -2423.039          21.000  
G25  23463560.115   123301840.6051      -4043.401          28.000  
G26  20576684.358   108131206.1001       1097.419          20.000    20576684.957    80747330.5481        821.297          16.000  
G29  23794059.116   125038623.8891        173.913          29.000  
G32  20771297.630   109153904.9491       -751.307          31.000  
J02  38891827.648   204377933.4131      -1418.726          29.000  
> 2021  9 30 11 18 27.9999590  0  8
C06  36581758.576   190490816.1301        -88.824          20.000  
C19  21986719.811   114490632.146       -2423.266          25.000  
G25  23464149.208   123304939.197       -4044.841          29.000  
G26  20576296.726   108129162.402        1098.745          26.000    20576296.127    80745804.174         819.611          18.000  
G29  23793845.963   125037504.959         174.069          30.000  
G32  20771257.458   109153711.202        -751.287          31.000  
J02  38891917.286   204378405.908       -1417.895          27.000  
R04  19464155.146   104229666.9761      -1794.630          16.000  
> 2021  9 30 11 18 28.9999588  0  8
C06  36581715.106   190490592.678         -88.810          29.000  
C16  36964363.903   192483157.1871        -40.406          27.000  
C36  22494887.813   117136783.0241      -1653.167          22.000  
G25  23464858.217   123308668.580       -4044.614          31.000  
G26  20576026.613   108127748.117        1098.340          31.000    20576027.513    80744749.130         819.526          18.000  
G32  20771342.899   109154148.017        -752.411          34.000  
J02  38892127.740   204379508.121       -1417.261          32.000  
R04  19464429.456   104231135.870       -1797.122          24.000  
> 2021  9 30 11 18 29.9999583  0  7
C06  36581580.799   190489900.622         -88.296          26.000  
C16  36964220.603   192482416.886         -40.004          29.000  
C36  22495055.397   117137654.434       -1651.589          31.000  
G25  23465477.588   123311925.157       -4044.139          31.000  
G26  20575665.963   108125862.453        1097.740          33.000    20575669.261    80743341.851         818.728          23.000  
G32  20771339.301                        -753.011          40.000  
J02  38892248.557   204380137.202       -1416.662          36.000  
> 2021  9 30 11 18 30.9999580  0  7
C16  36964138.759   192481988.257         -40.727          27.000  
C19  21987820.049   114496344.2491      -2424.735          22.000  
C36  22495283.239   117138837.342       -1651.703          29.000  
G25  23466157.217   123315496.466       -4044.162          31.000  
G26  20575366.170   108124292.521        1096.624          35.000    20575371.866    80742170.310         818.316          27.000  
G32  20771390.266   109154404.9111       -753.327          39.000  
J02  38892427.533   204381081.041       -1416.647          34.000  
> 2021  9 30 11 18 31.9999575  0  7
C16  36963997.257   192481247.892         -39.787          25.000  
C19  21988135.431   114497987.075       -2423.998          19.000  
C36  22495452.322   117139709.571       -1654.351          28.000  
G25  23466776.289   123318753.049       -4044.534          31.000  
G26  20575005.220   108122408.522        1095.288          33.000    20575013.914    80740763.887         818.044          28.000  
G32  20771384.570   109154370.865        -753.344          39.000  
J02  38892545.051                       -1417.670          33.000  
> 2021  9 30 11 18 32.9999570  0  7
C16  36963855.455   192480506.933         -39.534          25.000  
C19  21988449.014   114499630.765       -2425.070          20.000  
C36  22495623.804   117140583.233       -1654.001          28.000  
G25  23467393.262   123322008.633       -4043.767          29.000  
G26  20574652.065                        1093.977          34.000    20574655.962    80739357.921         817.152          25.000  
G32  20771378.574   109154337.134        -754.159          35.000  
J02  38892665.568   204382334.7651      -1419.141          24.000  
> 2021  9 30 11 18 33.9999567  0  4
C36  22495850.747   117141768.846       -1654.220          27.000  
G26  20574350.474   108118959.1811       1093.004          35.000    20574358.268    80738187.965         816.768          25.000  
G29  23792951.383   125032846.6591        170.130          28.000  
J02  38892843.645   204383280.371       -1417.814          31.000  
> 2021  9 30 11 18 34.9999565  0  5
C36  22496107.669   117143111.317       -1656.129          28.000  
G25  23468783.100   123329311.7391      -4046.835          25.000  
G26  20574079.461   108117550.648        1092.485          36.000    20574090.553    80737136.344         815.603          25.000  
G29  23792854.550   125032361.759         169.646          26.000  
J02  38893054.998   204384382.006       -1416.845          30.000  
> 2021  9 30 11 18 35.9999562  0  7
C16  36963650.098   192479373.8461        -40.678          20.000  
G25  23469463.628   123332886.060       -4047.284          26.000  
G26  20573786.264   108115985.112        1091.211          36.000    20573792.260    80735966.371         818.636          26.000  
G29  23792728.337   125031719.549         168.882          25.000  
G32  20771565.345   109155342.2391       -755.866          36.000  
J02  38893235.773   204385326.574       -1417.187          28.000  
R04  19465992.274   104239503.9711      -1796.709          17.000  
> 2021  9 30 11 18 36.9999557  0  5
C06  36580913.760   190486468.0271        -87.929          20.000  
G26  20573429.511   108114105.293        1091.595          35.000    20573434.308    80734560.348         815.991          25.000  
G29  23792543.065   125030761.940         169.298          25.000  
G32  20771561.447   109155310.813        -757.325          37.000  
J02  38893355.091   204385955.649       -1417.042          29.000  
> 2021  9 30 11 18 37.9999555  0  4
C06  36580869.391   190486243.787         -87.682          10.000  
C19  21990335.008   114509424.7471      -2427.699          18.000  
G26  20573161.197   108112698.577        1089.573          36.000    20573166.893    80733509.257         816.383          24.000  
J02  38893563.746   204387057.658       -1417.799          28.000  
> 2021  9 30 11 18 38.9999549  0  4
C16  36963283.152   192477469.5581        -40.244          19.000  
G26  20572773.565   108110662.712        1090.241          35.000  
J02  38893654.883   204387530.928       -1419.799          24.000  
R04  19466604.150   104242780.9821      -1805.463          17.000  
> 2021  9 30 11 18 39.9999544  0  5
C16  36963141.050   192476729.806         -41.554          18.000  
C19  21990943.287   114512567.7821      -2431.002          25.000  
G25  23472013.363   123346239.0341      -4047.446          29.000  
G26  20572415.613   108108784.967        1089.698          35.000  
R04  19466782.827   104243737.212       -1807.763          16.000  
> 2021  9 30 11 18 40.9999542  0  4
C06  36580536.022   190484471.3221        -88.500          24.000  
C19  21991352.503   114514687.295       -2432.603          21.000  
C36  22497320.329   117149439.6071      -1654.334          19.000  
G26  20572149.397   108107380.462        1091.513          34.000  
> 2021  9 30 11 18 41.9999537  0  3
C36  22497491.211   117150314.286       -1655.523          24.000  
G26  20571792.345   108105503.965        1088.480          31.000  
J02  38894104.572   204389901.8321      -1420.062          25.000  
> 2021  9 30 11 18 42.9999534  0  7
C16  36962849.052   192475295.2971        -41.331          19.000  
C19  21992054.018   114518307.3171      -2434.479          20.000  
C36  22497720.552   117151502.264       -1656.962          25.000  
G25  23474026.470   123356806.8811      -4048.388          31.000  
G26  20571497.649   108103943.217        1088.095          31.000  
G29  23791667.971   125026133.5091        167.234          24.000  
G32  20771743.121   109156235.9801       -760.010          38.000  
> 2021  9 30 11 18 43.9999532  0  6
C06  36580292.291   190483179.1401        -89.213          23.000  
C16  36962795.089   192475023.311         -39.992          25.000  
C19  21992463.534   114520429.698       -2434.453          21.000  
C36  22497978.374   117152847.295       -1657.557          28.000  
G25  23474742.974                       -4046.410          32.000  
G26  20571228.135   108102540.842        1088.986          32.000  
> 2021  9 30 11 18 44.9999529  0  6
C06  36580220.940   190482800.365         -90.853          23.000  
C36  22498206.516   117154036.366       -1657.967          28.000  
G25  23475419.006   123364182.9701      -4051.360          30.000  
G26  20570930.741   108100981.554        1086.039          31.000  
G32  20771873.831   109156969.0181       -761.659          37.000  
R04  19468018.871   104250356.8611      -1818.501          15.000  
> 2021  9 30 11 18 45.9999524  0  7
C06  36580090.230   190482110.352         -90.850          19.000  
C36  22498377.397   117154913.801       -1658.074          28.000  
G25  23476040.176   123367444.701       -4049.704          31.000  
G26  20570572.489   108099108.145        1087.307          31.000  
G29  23791275.243   125024064.8331        163.478          24.000  
G32  20771868.435   109156942.600        -761.731          35.000  
J02  38894774.908   204393528.2811      -1417.746          22.000  
> 2021  9 30 11 18 46.9999519  0  7
C06  36579958.022   190481417.755         -86.540          18.000  
C16  36962424.546   192473112.8151        -40.063          22.000  
C36  22498548.579   117155791.717       -1658.380          29.000  
G25  23476659.247   123370707.342       -4050.728          29.000  
G26  20570218.734   108097235.301        1083.367          30.000  
G29  23791093.269   125023113.565         162.867          27.000  
G32  20771866.336   109156916.595        -762.056          36.000  
> 2021  9 30 11 18 47.9999516  0  7
C06  36579887.571   190481036.678         -88.243          26.000  
C16  36962340.004   192472684.734         -40.430          24.000  
C36  22498779.719   117156982.054       -1658.758          28.000  
G25  23477337.677   123374285.158       -4049.950          26.000  
G26  20569920.740   108095678.474        1086.661          28.000  
G32  20771921.198   109157206.486        -763.497          37.000  
J02  38895077.698   204395104.2181      -1418.540          26.000  
> 2021  9 30 11 18 48.9999511  0  7
C06  36579754.763   190480345.185         -90.209          27.000  
C16  36962197.303   192471943.885         -40.046          24.000  
C36  22498949.401   117157860.605       -1659.762          30.000  
G25  23477957.648   123377546.745       -4049.163          29.000  
G26  20569566.086   108093808.215        1083.042          26.000  
G29  23790792.277   125021529.6011        161.104          29.000  
R04  19468838.803   104254747.5611      -1820.041          15.000  
> 2021  9 30 11 18 49.9999508  0  7
C06  36579681.014   190479967.290         -90.784          27.000  
C16  36962117.259   192471516.120         -41.270          27.000  
C36  22499178.143   117159052.196       -1660.256          29.000  
G25  23478636.978   123381123.278       -4049.792          33.000  
G29  23790672.060   125020896.657         159.384          29.000  
G32  20771972.163   109157472.6281       -765.455          36.000  
R04  19469088.530   104256084.566       -1817.266          17.000  
> 2021  9 30 11 18 50.9999503  0  5
C36  22499346.926   117159932.271       -1660.677          32.000  
G25  23479256.649   123384386.175       -4051.384          33.000  
G26  20568906.842   108090382.5681       1082.950          18.000  
J02  38895505.802   204397313.2021      -1420.297          30.000  
R04  19469276.500   104257091.499       -1816.665          19.000  
> 2021  9 30 11 18 51.9999501  0  8
C06  36579503.237   190479056.0671        -91.228          24.000  
C16  36961928.090   192470505.0301        -42.063          22.000  
C36  22499605.048   117161280.768       -1660.800          30.000  
G25  23479966.857   123388122.098       -4051.694          33.000  
G29  23790402.547   125019475.9751        158.690          27.000  
G32  20772051.908   109157899.8971       -766.069          32.000  
J02  38895717.155   204398418.091       -1419.869          29.000  
R14  22401564.220   119412943.9901      -3926.473          24.000  
> 2021  9 30 11 18 52.9999496  0  7
C06  36579369.230   190478367.597         -92.622          23.000  
C36  22499771.133   117162161.421       -1660.943          26.000  
G25  23480586.828   123391386.325       -4052.657          31.000  
G26  20568284.473   108087113.7691       1084.139          17.000  
G32  20772048.910   109157878.273        -766.279          34.000  
J02  38895839.471   204399050.353       -1420.317          29.000  
R04  19469742.378   104259585.8471      -1825.532          19.000  
> 2021  9 30 11 18 53.9999493  0  6
C16  36961705.644   192469341.6191        -45.487          21.000  
C36  22499998.375   117163354.065       -1661.200          26.000  
G26  20567985.880   108085558.160        1081.681          19.000  
G29  23790098.857   125017900.8541        156.893          26.000  
J02  38896021.744   204399997.905       -1419.995          29.000  
R14  22402786.474   119419459.2451      -3922.601          23.000  
> 2021  9 30 11 18 54.9999491  0  8
C06  36579247.814   190477772.4441        -92.609          22.000  
C36  22500254.098   117164703.284       -1661.775          28.000  
G25  23481976.666   123398703.4731      -4053.074          35.000  
G26  20567723.861   108084162.091        1079.113          20.000  
G29  23790008.020   125017428.948         155.730          26.000  
G32  20772190.712   109158624.8131       -768.160          34.000    20772199.406    81514571.1441       -573.915          28.000  
J02  38896233.398   204401102.786       -1420.135          31.000    38896245.390   152637220.9741      -1061.690          27.000  
R14  22403461.906   119423059.599       -3924.884          24.000  
> 2021  9 30 11 18 55.9999485  0  6
C16  36961484.697   192468182.6891        -45.240          24.000  
C36  22500392.902   117165428.121       -1661.514          27.000  
G26  20567338.328   108082139.133        1076.361          21.000  
G32  20772158.334   109158447.809        -768.724          34.000    20772166.129    81514439.681        -574.628          27.000  
J02  38896325.434   204401578.175       -1421.434          32.000    38896336.227   152637577.947       -1063.306          26.000  
R14  22404024.916   119426060.920       -3927.673          26.000  
> 2021  9 30 11 18 56.9999483  0  6
G25  23483285.859                       -4053.555          31.000  
G26  20567072.112   108080748.346        1075.058          22.000  
G29  23789705.530   125015856.8571        155.768          26.000  
G32  20772243.175   109158901.641        -768.276          35.000    20772252.169    81514779.155        -575.798          25.000  
J02  38896540.685   204402684.782       -1422.136          33.000    38896546.981   152638405.887       -1063.366          24.000  
R14  22404703.347   119429676.929       -3928.951          26.000  
> 2021  9 30 11 18 57.9999478  0  7
C36  22500820.406   117167659.9361      -1663.162          21.000  
G25  23483910.327   123408766.5041      -4054.543          32.000  
G26  20566713.860   108078886.148        1073.444          24.000  
G29  23789524.755   125014912.701         154.597          27.000  
G32                                                                  20772248.871    81514765.632        -575.888          24.000  
J02  38896658.504   204403319.387       -1423.115          33.000    38896668.097   152638880.806       -1063.357          24.000  
R14  22405289.741   119432802.947       -3928.453          25.000  
> 2021  9 30 11 18 58.9999475  0  8
C16  36961208.288   192466759.2451        -47.921          20.000  
C36  22501050.647   117168854.584       -1662.688          26.000  
G10  22862344.029   120142428.3971      -4058.627          24.000  
G25  23484589.957   123412349.060       -4056.648          35.000  
G26  20566421.263   108077339.775        1074.389          26.000  
G32                                                                  20772305.832    81514989.048        -576.432          23.000  
J02  38896839.578                       -1424.207          31.000    38896848.572   152639590.321       -1062.548          23.000  
R14  22405936.093   119436248.418       -3928.320          27.000  
> 2021  9 30 11 18 59.9999470  0  9
C06  36578704.890   190474974.0611       -101.679          16.000  
C16  36961068.285   192466024.103         -46.756          16.000  
C36  22501219.430   117169736.008       -1662.402          26.000  
G10  22862194.132   120141640.687       -4058.627          21.000  
G25  23485215.024   123415617.263       -4055.425          34.000  
G26  20566067.208   108075477.971        1074.110          28.000  
G32                                                                  20772301.935    81514977.271        -577.933          22.000  
J02  38896962.793   204404905.5261      -1421.571          30.000    38896969.988   152640064.650       -1063.629          22.000  
R14  22406522.187   119439372.498       -3928.838          27.000  
> 2021  9 30 11 19  0.9999465  0  6
C36  22501387.913   117170617.924       -1663.305          23.000  
G10  22862044.236   120140852.977       -4058.627          18.000  
G25  23485830.198   123418886.133       -4056.895          31.000    23485834.995    92163460.5721      -3029.050          27.000  
G26  20565713.453   108073615.996        1073.832          29.000  
J02  38897087.507   204405541.003       -1428.408          31.000  
R14  22407107.382   119442491.720       -3928.627          25.000  
> 2021  9 30 11 19  1.9999462  0  8
C36  22501616.955   117171814.646       -1665.669          22.000  
G10  22861954.298   120140380.351       -4058.627          18.000  
G25  23486509.528   123422469.616       -4056.127          30.000    23486517.322    92166137.688       -3030.012          27.000  
G26  20565419.656   108072070.405        1072.235          26.000  
G29  23788946.455   125011777.0561        150.452          22.000  
J01  36586709.348   192264455.2631        244.316          20.000  
J02  38897270.080   204406495.069       -1425.177          27.000  
R14  22407748.638   119445910.057       -3930.023          20.000  
> 2021  9 30 11 19  2.9999460  0  5
G10  22861894.340   120140065.267       -4058.627          19.000  
G25  23487220.935   123426211.343       -4057.340          29.000    23487229.929    92168933.702       -3030.269          27.000  
G26  20565157.338   108070683.890        1070.746          29.000  
J02  38897478.436   204407604.234       -1423.636          26.000  
R14  22408427.668   119449529.512       -3929.578          22.000  
> 2021  9 30 11 19  3.9999457  0  6
C36  22502106.816   117174371.6961      -1668.455          20.000  
G10  22861804.402   120139592.641       -4058.627          19.000  
G25  23487902.364   123429796.649       -4058.452          29.000    23487912.556    92171610.859       -3030.375          27.000  
G26  20564865.040   108069140.961        1069.668          30.000  
J02  38897657.412   204408554.222       -1422.482          28.000  
R14  22409073.721   119452972.980       -3929.290          22.000  
> 2021  9 30 11 19  4.9999452  0  6
G10  22861654.506   120138804.931       -4058.627          19.000  
G25  23488523.534   123433067.426       -4058.620          29.000    23488535.525    92174053.751       -3031.161          27.000  
G26  20564516.681   108067283.955        1069.022          27.000  
G32  20772493.202   109160198.7231       -774.171          30.000  
J01  36586264.156   192262150.0201        243.513          22.000  
J02  38897776.730   204409188.930       -1422.374          28.000  
> 2021  9 30 11 19  5.9999447  0  8
C36  22502447.380   117176145.9111      -1667.771          20.000  
G10  22861504.610   120138017.221       -4058.627          20.000  
G25  23489145.003   123436338.379       -4058.957          30.000    23489157.894    92176496.751       -3031.911          26.000  
G26  20564165.624   108065427.803        1067.608          31.000  
G29  23788396.636   125008815.6121        148.238          26.000  
G32  20772489.605   109160185.469        -775.156          31.000  
J02  38897896.646   204409824.442       -1424.844          28.000  
R14  22410246.209   119459223.6401      -3931.085          18.000  
> 2021  9 30 11 19  6.9999444  0  8
C36  22502675.822   117177343.925       -1666.634          20.000  
G10  22861414.672   120137544.595       -4058.627          20.000  
G25  23489829.429   123439928.219       -4062.497          29.000    23489840.522    92179175.442       -3031.769          27.000  
G26  20563874.226   108063887.809        1066.630          27.000    20563879.922    80697048.2621        800.209          28.000  
G29  23788278.218   125008195.177         147.375          30.000  
G32  20772545.966   109160488.584        -776.369          31.000  
J01  36585936.183   192260404.3791        241.630          18.000  
J02  38898077.122   204410776.917       -1424.888          29.000  
> 2021  9 30 11 19  7.9999439  0  6
C16  36960209.080   192461596.0481        -49.366          15.000  
C36  22502845.804   117178229.100       -1665.332          24.000  
G25  23490451.499   123443201.648       -4060.339          25.000    23490463.491    92181618.754       -3032.056          29.000  
G26  20563522.570   108062033.153        1066.685          24.000    20563528.266    80695662.291         797.405          25.000  
J02  38898199.737   204411414.245       -1426.098          24.000  
R14  22411482.553   119465814.3561      -3929.182          19.000  
> 2021  9 30 11 19  8.9999437  0  6
C36  22503106.324   117179583.329       -1667.067          26.000  
G25                                                                  23491176.397    92184416.100       -3033.349          31.000  
G26  20563258.452   108060651.825        1065.947          24.000    20563267.146    80694630.443         796.442          23.000  
G32  20772627.809   109160939.7181       -777.367          32.000  
J02  38898409.292   204412524.998       -1425.944          28.000  
R14  22412162.183   119469436.257       -3929.882          20.000  
> 2021  9 30 11 19  9.9999432  0  6
C36  22503278.105   117180470.402       -1668.276          30.000  
G25  23491787.974   123450219.1881      -4060.411          30.000    23491799.366    92186860.726       -3032.438          31.000  
G26                                                                  20562916.089    80693246.777         795.375          21.000  
G32  20772630.507                        -778.466          34.000  
J02  38898529.808   204413163.654       -1426.871          30.000  
R14  22412754.873   119472596.400       -3928.835          20.000  
> 2021  9 30 11 19 10.9999429  0  4
C36  22503510.144   117181670.724       -1668.871          30.000  
G25  23492470.901   123453807.041       -4060.811          32.000    23492482.293    92189540.237       -3033.043          30.000  
G26                                                                  20562623.492    80692101.806         791.248          21.000  
J02  38898711.183   204414117.681       -1426.559          31.000  
> 2021  9 30 11 19 11.9999427  0  6
C36  22503773.062   117183026.988       -1668.622          30.000  
G25                                                                  23493195.199    92192337.793       -3032.083          31.000  
G26  20562341.987   108055879.3881       1064.142          23.000    20562360.574    80691076.578         789.777          20.000  
G32  20772777.705   109161679.1291       -780.042          35.000  
J02  38898924.935   204415228.415       -1425.705          30.000  
R14  22414089.848   119479711.8111      -3932.594          20.000  
> 2021  9 30 11 19 12.9999421  0  5
C36  22503914.264   117183759.004       -1668.907          27.000  
G25  23493786.690   123460668.9471      -4061.347          34.000    23493787.889    92194664.592       -3032.119          30.000  
G26  20561961.850   108053870.707        1062.658          21.000  
J02  38899016.371   204415708.832       -1425.569          31.000  
R14  22414663.052   119482767.514       -3929.725          20.000  
> 2021  9 30 11 19 13.9999419  0  5
C36  22504174.784   117185115.601       -1669.419          30.000  
G25  23494500.196                       -4062.458          31.000    23494500.496    92197461.179       -3031.074          29.000  
G26  20561697.433   108052493.172        1061.888          27.000  
G32  20772840.362   109161979.0081       -781.720          30.000  
J02  38899227.125   204416820.173       -1426.731          24.000  
> 2021  9 30 11 19 14.9999414  0  6
C36  22504346.865   117186005.172       -1671.018          31.000  
G25  23495121.366   123467706.6421      -4061.835          32.000    23495123.165    92199905.166       -3034.526          30.000  
G26  20561346.976   108050643.770        1061.415          22.000  
G29  23787148.899   125002304.6171        142.622          29.000  
G32  20772841.561   109161972.506        -787.046          31.000  
J02  38899347.042   204417458.625       -1425.346          27.000  
> 2021  9 30 11 19 15.9999411  0  6
C36  22504579.204   117187208.032       -1671.666          32.000  
G25  23495803.694   123471297.030       -4063.285          33.000    23495806.092    92202586.520       -3034.362          31.000  
G26  20561053.479   108049109.764        1060.909          19.000  
G32  20772899.721   109162282.644        -782.095          29.000  
J02  38899528.717   204418411.908       -1426.978          28.000  
R14  22416574.528   119492957.3851      -3924.514          17.000  
> 2021  9 30 11 19 16.9999406  0  6
C36  22504750.386   117188099.187       -1672.338          31.000  
G25  23496427.861   123474572.620       -4064.645          34.000    23496429.360    92205032.367       -3034.241          30.000  
G26  20560703.321   108047261.930        1058.882          18.000  
G32  20772896.123   109162276.864        -782.000          36.000  
J02  38899649.233   204419051.228       -1427.650          29.000  
R14  22417164.520   119496101.883       -3931.101          26.000  
> 2021  9 30 11 19 17.9999401  0  4
C36  22504920.967   117188990.904       -1672.309          29.000  
G25  23497048.132   123477849.109       -4062.864          33.000    23497052.629    92207478.741       -3035.434          30.000  
G29  23786679.724   124999830.6491        140.598          26.000  
R14  22417753.013   119499238.632       -3932.270          25.000  
> 2021  9 30 11 19 18.9999398  0  5
C36  22505151.208   117190194.525       -1671.830          30.000  
G25  23497729.261   123481440.861       -4063.003          33.000    23497736.755    92210161.566       -3035.859          30.000  
G26  20560059.067   108043881.7731       1059.692          20.000  
G29  23786563.705   124999218.158         139.592          25.000  
R14  22418408.659   119502733.492       -3931.533          24.000  
> 2021  9 30 11 19 19.9999393  0  6
C36  22505322.390   117191085.477       -1671.388          29.000  
G25  23498349.531   123484718.211       -4063.918          33.000    23498360.324    92212608.337       -3035.003          29.000  
G26  20559708.310   108042034.926        1058.403          28.000  
G29  23786390.425   124998292.360         137.281          21.000  
J02  38900080.934   204421285.9811      -1427.260          28.000  
R14  22418996.851   119505869.384       -3933.600          27.000  
> 2021  9 30 11 19 20.9999393  0  4
C36  22505643.467   117192756.972       -1671.510          29.000  
G25  23499127.193   123488783.444       -4064.031          34.000    23499133.189    92215642.948       -3036.493          28.000  
G26  20559511.047   108040978.320        1056.047          28.000  
G29  23786352.651   124998154.387         138.035          25.000  
> 2021  9 30 11 19 21.9999388  0  6
C36  22505814.349   117193648.595       -1672.826          35.000  
G25  23499754.059   123492061.278       -4066.871          34.000    23499757.656    92218091.114       -3036.484          29.000  
G26  20559164.786   108039134.985        1056.161          26.000  
G29  23786168.578   124997228.759         136.159          24.000  
G32  20773099.982   109163361.6031       -785.697          28.000  
J02  38900483.556   204423356.1651      -1428.914          24.000  
> 2021  9 30 11 19 22.9999383  0  5
C36  22505987.029   117194540.984       -1671.557          37.000  
G25                                                                  23500381.524    92220539.058       -3035.563          30.000  
G26  20558816.128   108037291.021        1055.827          27.000  
G29  23785984.805   124996304.863         135.635          22.000  
J02  38900606.171   204423997.290       -1429.341          25.000  
> 2021  9 30 11 19 23.9999380  0  5
C36  22506218.469   117195746.306       -1674.774          32.000  
G25  23501059.955   123498932.9161      -4068.699          31.000    23501065.351    92223223.007       -3037.173          29.000  
G26  20558525.929   108035763.074        1055.054          27.000  
G29  23785856.794   124995696.648         135.642          23.000  
J02  38900786.946   204424952.976       -1427.274          25.000  
> 2021  9 30 11 19 24.9999375  0  3
G25  23501680.225   123502211.580       -4069.709          32.000    23501689.519    92225671.490       -3036.639          29.000  
G26  20558176.670   108033920.513        1054.615          28.000  
G32  20773160.840                        -784.535          33.000  
> 2021  9 30 11 19 25.9999373  0  4
C36  22506655.866   117198000.1671      -1673.635          26.000  
G25  23502392.232   123505963.672       -4068.762          31.000    23502403.625    92228472.887       -3036.723          30.000  
G26  20557917.350   108032551.596        1052.489          27.000  
G32  20773256.474                        -789.042          30.000  
> 2021  9 30 11 19 26.9999368  0  3
G25  23503021.497   123509243.366       -4066.498          31.000    23503027.493    92230922.736       -3037.908          30.000  
G26  20557565.094   108030711.879        1051.821          26.000  
G32  20773253.176   109164171.5761       -789.058          33.000  
> 2021  9 30 11 19 27.9999363  0  5
C16  36958123.424   192450699.7331        -49.642          26.000  
C36  22507005.125   117199785.5501      -1675.194          23.000  
G25  23503645.065   123512523.505       -4068.580          33.000    23503651.061    92233371.390       -3036.677          29.000  
G26  20557215.236   108028871.728        1052.081          27.000  
G32  20773251.977   109164173.619        -788.578          33.000  
> 2021  9 30 11 19 28.9999360  0  5
C16  36958044.278   192450281.745         -50.066          24.000  
C36  22507236.265   117200992.223       -1674.742          25.000  
G25  23504331.290   123516119.260       -4067.417          33.000    23504335.187    92236055.247       -3038.011          29.000  
G26  20556925.637   108027348.031        1050.639          28.000  
G32  20773314.933   109164491.235        -791.890          30.000  
> 2021  9 30 11 19 29.9999357  0  5
C16  36957963.634   192449862.119         -48.892          24.000  
C36  22507468.304   117202198.284       -1674.671          25.000  
G25  23505016.316   123519715.188       -4068.917          33.000    23505019.913    92238740.391       -3038.215          29.000  
G26  20556634.838   108025824.439        1050.776          26.000  
G32  20773368.596   109164809.419        -791.537          31.000  
> 2021  9 30 11 19 30.9999355  0  4
C16  36957916.267   192449599.486         -49.878          26.000  
G25                                                                  23505735.218    92241542.795       -3038.483          28.000  
G26  20556374.618   108024459.716        1048.574          25.000  
G32  20773465.129   109165285.747        -791.117          30.000  
> 2021  9 30 11 19 31.9999350  0  3
G25  23506350.092   123526750.6051      -4069.291          33.000    23506359.986    92243993.507       -3039.883          28.000  
G26  20556024.760   108022623.942        1047.144          25.000  
G32  20773461.832                        -792.896          30.000  
> 2021  9 30 11 19 32.9999345  0  5
C16  36957641.357   192448137.7681        -50.502          25.000  
C36  22508067.589   117205352.8611      -1677.287          24.000  
G25  23506971.862   123530032.605       -4070.166          32.000    23506984.753    92246446.034       -3039.747          28.000  
G26  20555672.804   108020789.406        1046.478          26.000  
G32  20773458.234   109165294.5461       -795.826          29.000  
> 2021  9 30 11 19 33.9999342  0  6
C16  36957559.814   192447719.545         -50.889          25.000  
C19  22010315.576   114613236.8771      -2464.745          24.000  
C36  22508299.628   117206562.379       -1678.331          25.000  
G25  23507660.185   123533630.100       -4070.993          32.000    23507669.179    92249132.914       -3039.503          29.000  
G26  20555383.204   108019270.527        1045.968          27.000  
G32  20773516.094   109165614.102        -793.762          26.000  
> 2021  9 30 11 19 34.9999337  0  5
C16  36957421.909   192446990.266         -51.593          22.000  
C36  22508471.409   117207460.379       -1678.422          28.000  
G25  23508288.550   123536912.768       -4070.452          33.000    23508293.947    92251584.058       -3039.033          28.000  
G26  20555033.347   108017437.025        1045.479          27.000  
G32  20773514.895   109165620.243        -794.250          26.000  
> 2021  9 30 11 19 35.9999334  0  5
C16  36957342.164   192446574.794         -53.471          26.000  
C36  22508702.549   117208671.010       -1679.609          26.000  
G25  23508967.281   123540510.692       -4071.408          33.000    23508978.073    92254270.589       -3040.628          27.000  
G26  20554745.246   108015919.230        1044.817          28.000  
G32  20773575.153   109165941.841        -794.396          31.000  
> 2021  9 30 11 19 36.9999329  0  5
C16  36957200.363   192445846.313         -51.186          24.000  
C36  22508874.331   117209569.747       -1679.130          22.000  
G25  23509595.346   123543793.596       -4070.568          32.000    23509602.841    92256722.827       -3040.243          27.000  
G26  20554396.587   108014086.754        1044.608          27.000  
G32                                                                  20773593.740    81520036.3861       -591.296          25.000  
> 2021  9 30 11 19 37.9999324  0  6
C16  36957058.561   192445118.080         -53.140          24.000  
C19  22011654.149   114620295.1421      -2468.388          24.000  
C36  22509046.112   117210467.521       -1678.261          22.000  
G25  23510218.315   123547076.737       -4072.124          32.000    23510227.608    92259174.768       -3040.114          27.000  
G26  20554051.226   108012254.949        1043.879          25.000  
G32                                                                  20773594.939    81520041.504        -596.552          25.000  
> 2021  9 30 11 19 38.9999324  0  5
C16  36957068.154   192445170.304         -52.190          23.000  
C19  22012127.221   114622763.883       -2468.937          23.000  
G25  23510995.077   123551147.805       -4072.011          32.000    23511002.272    92262214.948       -3039.417          26.000  
G26  20553853.064   108011211.056        1043.785          25.000  
G32                                                                  20773747.234    81520636.951        -594.360          25.000  
> 2021  9 30 11 19 39.9999319  0  5
C16  36956927.551   192444440.275         -48.965          24.000  
G25  23511621.943   123554431.529       -4072.827          33.000    23511626.740    92264665.659       -3039.383          27.000  
G26  20553505.304   108009379.920        1042.700          25.000  
G29  23783587.065   124983593.2881        125.804          23.000  
G32                                                                  20773748.433    81520643.733        -596.141          25.000  
> 2021  9 30 11 19 40.9999316  0  5
C16  36956848.106   192444021.648         -51.072          24.000  
C19  22012833.233   114626452.5351      -2470.224          21.000  
G25  23512308.767   123558030.481       -4072.404          33.000    23512311.166    92267352.754       -3040.927          26.000  
G26  20553215.105   108007864.845        1041.955          23.000  
G32                                                                  20773810.490    81520887.594        -594.564          25.000  
> 2021  9 30 11 19 41.9999311  0  5
C36  22509940.692   117215159.4941      -1680.666          19.000  
G25  23512935.334   123561314.590       -4072.302          34.000    23512936.233    92269806.334       -3040.784          26.000  
G26  20552864.348   108006036.897        1035.419          23.000  
G29  23783291.770   124982080.7441        126.476          18.000  
G32  20773797.299   109167093.3991       -796.870          30.000    20773810.490    81520893.529        -593.391          24.000  
> 2021  9 30 11 19 42.9999306  0  6
C16  36956569.899   192442560.4511        -50.234          20.000  
C36  22510114.572   117216058.095       -1678.306          27.000  
G25  23513553.506   123564599.017       -4073.411          33.000    23513561.300    92272258.577       -3039.178          25.000  
G26  20552514.490   108004212.143        1038.025          27.000  
G29  23783139.175   124981165.492         127.768          17.000  
G32  20773798.199   109167102.749        -797.337          30.000    20773811.390    81520898.521        -594.128          25.000  
> 2021  9 30 11 19 43.9999304  0  7
C16  36956520.133   192442297.342         -48.915          23.000  
C19  22013884.305   114631993.5811      -2472.567          17.000  
C36  22510379.289   117217423.145       -1676.204          27.000  
G25  23514268.211   123568356.178       -4071.245          33.000    23514275.706    92275063.790       -3041.189          25.000  
G26  20552256.969   108002857.953        1039.608          25.000  
G29  23783074.120   124980722.347         127.737          16.000  
G32  20773889.935   109167585.097        -797.770          30.000    20773904.325    81521259.117        -598.351          26.000  
> 2021  9 30 11 19 44.9999299  0  7
C16  36956378.032   192441565.705         -48.954          23.000  
C19  22014207.481   114633684.628       -2471.749          18.000  
C36  22510553.468   117218319.395       -1677.040          26.000  
G25                                                                  23514900.473    92277516.345       -3040.446          25.000  
G26  20551912.207   108001030.372        1040.187          26.000  
G29  23782920.926   124980092.636         125.332          17.000  
G32  20773891.434   109167595.233        -798.089          32.000    20773906.424    81521268.531        -597.287          26.000  
> 2021  9 30 11 19 45.9999296  0  5
C16  36956296.788   192441146.617         -50.013          25.000  
C36  22510787.906   117219529.425       -1678.645          24.000  
G25  23515584.000   123575240.6831      -4073.623          32.000    23515585.199    92280203.966       -3040.899          26.000  
G26  20551622.908   107999518.195        1038.786          22.000  
G32  20773954.391   109167920.782        -798.464          29.000    20773968.781    81521512.648        -596.729          26.000  
> 2021  9 30 11 19 46.9999291  0  5
C19  22014909.895   114637382.2701      -2475.384          17.000  
C36  22510961.785   117220428.628       -1680.741          25.000  
G25  23516204.570   123578525.693       -4072.658          32.000    23516209.967    92282656.347       -3041.938          25.000  
G26  20551276.048   107997691.727        1038.475          28.000  
G32  20773958.888   109167931.776        -799.093          31.000    20773970.879    81521521.841        -595.890          27.000  
> 2021  9 30 11 19 47.9999288  0  4
C36  22511195.024   117221640.847       -1680.720          28.000  
G25  23516886.598   123582126.181       -4072.500          32.000    23516894.992    92285346.043       -3042.427          26.000  
G26  20550988.247   107996180.794        1037.978          28.000  
G32  20774023.043   109168258.563        -799.919          31.000    20774033.836    81521765.513        -598.136          24.000  
> 2021  9 30 11 19 48.9999286  0  4
C36  22511458.542   117223010.098       -1681.834          28.000  
G25  23517605.800   123585884.322       -4073.005          34.000    23517610.297    92288152.332       -3041.057          25.000  
G26  20550730.126   107994828.038        1036.903          31.000  
G32  20774116.878   109168743.683        -800.944          30.000    20774125.572    81522128.785        -598.303          23.000  
> 2021  9 30 11 19 49.9999281  0  7
C01  37485310.859   195195850.3911       -605.456          29.000  
C16  36955882.475   192439024.8031        -54.222          18.000  
C19  22016037.714   114643249.2881      -2475.152          16.000  
C36  22511632.121   117223911.283       -1681.618          29.000  
G25  23518229.968   123589169.528       -4073.173          33.000    23518236.264    92290605.300       -3040.982          26.000  
G26  20550382.666   107993003.862        1036.371          31.000  
G32  20774118.677   109168756.996        -801.210          31.000    20774128.270    81522140.515        -597.885          21.000  
> 2021  9 30 11 19 50.9999278  0  5
C19  22016423.847   114645255.623       -2475.529          23.000  
C36  22511862.662   117225123.869       -1680.056          27.000  
G25  23518916.193   123592769.810       -4072.356          33.000    23518921.589    92293294.161       -3042.475          28.000  
G26  20550095.465   107991495.034        1036.073          32.000  
G32  20774180.434   109169085.546        -801.515          28.000    20774189.128    81522385.524        -599.346          22.000  
> 2021  9 30 11 19 51.9999273  0  5
C36  22512031.745   117226023.456       -1679.904          24.000  
G25  23519537.363   123596055.562       -4074.059          31.000    23519546.657    92295747.786       -3041.047          30.000  
G26  20549748.605   107989671.054        1035.826          32.000  
G32  20774183.432   109169100.363        -804.323          23.000    20774190.927    81522398.811        -603.331          22.000  
R04  19483457.583   104333030.3301      -1875.818          14.000  
> 2021  9 30 11 19 52.9999268  0  5
C36  22512203.826   117226922.629       -1679.898          27.000  
G25  23520164.829   123599341.655       -4074.596          31.000    23520172.324    92298201.392       -3042.547          28.000  
G26  20549404.144   107987848.218        1032.182          32.000  
G29  23781838.975   124974222.9711        119.100          20.000  
G32  20774184.331   109169117.019        -803.836          26.000    20774193.025    81522414.308        -605.041          15.000  
> 2021  9 30 11 19 53.9999265  0  8
C16  36955436.084   192436728.6841        -48.055          19.000  
C19  22017469.223   114650654.1811      -2480.263          17.000  
C36  22512435.565   117228135.367       -1681.585          28.000  
G25  23520848.655   123602942.997       -4075.290          32.000    23520857.949    92300891.268       -3043.140          30.000  
G26  20549118.441                        1033.656          32.000  
G29  23781722.356   124973630.831         121.451          22.000  
G32  20774247.588   109169447.327        -802.447          29.000    20774254.783    81522664.209        -600.236          13.000  
R04  19483921.962   104335516.8941      -1876.652          18.000  
> 2021  9 30 11 19 54.9999260  0  5
C19  22017795.098   114652354.325       -2479.417          16.000  
C36  22512608.246   117229037.034       -1682.104          29.000  
G25  23521476.121   123606229.455       -4074.167          33.000    23521483.316    92303346.168       -3043.525          30.000  
G26  20548770.982   107984523.2991       1033.889          33.000  
G32  20774251.485   109169461.445        -802.083          30.000    20774256.881    81522675.880        -599.954          12.000  
> 2021  9 30 11 19 55.9999258  0  7
C19  22018210.010   114654521.790       -2479.249          18.000  
C36  22512872.363   117230407.020       -1682.898          28.000  
G25  23522190.227   123609988.746       -4074.811          35.000    23522198.621    92306154.061       -3042.695          31.000  
G26  20548516.458   107983174.359        1032.237          33.000  
G29  23781466.034   124972284.8641        121.189          24.000  
G32  20774343.221   109169948.225        -801.867          30.000    20774348.318    81523040.691        -599.662          13.000  
J01  36578134.984   192219538.9291        230.090          28.000  
> 2021  9 30 11 19 56.9999252  0  7
C19  22018506.205   114656063.413       -2477.953          19.000  
C36  22513013.265   117231152.882       -1682.149          29.000  
G25  23522789.512   123613118.133       -4076.032          35.000    23522794.009    92308489.991       -3041.776          31.000  
G26  20548135.722   107981195.901        1033.187          32.000  
G32  20774315.041   109169805.623        -803.344          29.000    20774321.037    81522934.244        -599.305          14.000  
J01  36577911.938   192218362.588         231.262          29.000  
R04  19484587.201   104339079.1821      -1881.466          20.000  
> 2021  9 30 11 19 57.9999250  0  8
C06  36573195.304   190446324.8051        -97.569          26.000  
C19  22018921.118   114658229.713       -2479.223          18.000  
C36  22513274.984   117232521.960       -1680.609          26.000  
G25  23523502.118   123616877.788       -4075.162          35.000    23523509.014    92311297.289       -3043.208          31.000  
G26  20547881.797   107979848.249        1031.902          32.000  
G29  23781173.736   124970782.9231        120.343          27.000  
G32  20774407.377   109170293.874        -803.884          29.000    20774413.972    81523298.637        -600.068          15.000  
J01  36577806.112   192217816.420         230.826          28.000  
> 2021  9 30 11 19 58.9999247  0  7
C06  36573123.653   190445954.190         -98.225          25.000  
C36  22513507.623   117233734.988       -1681.524          27.000  
G25  23524188.343   123620480.185       -4076.500          36.000    23524194.339                       -3043.072          32.000  
G26  20547591.299   107978343.607        1030.372          32.000  
G32  20774469.134   109170625.597        -805.203          29.000    20774476.629    81523545.827        -600.380          16.000  
J01  36577673.903   192217112.628         231.578          24.000  
R04  19485124.729   104341957.8971      -1883.599          20.000  
> 2021  9 30 11 19 59.9999242  0  7
C06  36572993.244   190445271.407         -96.740          24.000  
C36  22513680.903   117234636.134       -1682.384          28.000  
G25  23524812.811   123623767.387       -4074.207          36.000    23524820.606    92316445.6311      -3041.447          31.000  
G26  20547250.734   107976524.214        1031.482          32.000  
G32  20774471.533   109170642.475        -804.235          26.000    20774480.526    81523557.564        -599.630          17.000  
J01  36577481.437   192216093.251         231.772          26.000  
R04  19485326.489   104343037.823       -1886.132          19.000  
> 2021  9 30 11 20  0.9999240  0  6
C06  36572947.675   190445055.138         -94.721          23.000  
C36  22513945.620   117236006.376       -1683.448          27.000  
G25  23525529.615   123627527.559       -4074.786          37.000    23525537.110    92319253.583       -3041.601          32.000  
G26  20546992.613   107975178.181        1032.502          32.000  
G32  20774566.567   109171131.698        -806.165          24.000    20774573.762    81523922.137        -600.396          18.000  
J01  36577379.507   192215546.413         231.579          26.000  
> 2021  9 30 11 20  1.9999235  0  5
C36  22514119.499   117236909.367       -1683.263          27.000  
G25  23526156.781   123630815.164       -4075.473          37.000    23526162.477    92321708.571       -3043.042          31.000  
G26  20546648.151   107973359.988        1029.684          32.000  
G32  20774568.965   109171150.293        -806.153          25.000    20774577.060    81523934.445        -601.132          18.000  
J01  36577187.340   192214527.452         230.972          25.000  
> 2021  9 30 11 20  2.9999229  0  7
C06  36572655.677   190443532.9531        -99.825          23.000  
C36  22514264.299   117237655.901       -1683.215          27.000  
G25  23526753.967   123633945.538       -4075.763          37.000    23526758.164    92324046.227       -3043.307          31.000  
G26  20546269.214   107971384.810        1029.859          32.000  
G32  20774541.684   109171011.522        -806.739          25.000    20774550.678    81523829.900        -601.634          19.000  
J01  36576965.194   192213350.331         231.304          24.000  
R04  19485961.450   104346438.2771      -1888.223          19.000  
> 2021  9 30 11 20  3.9999227  0  5
C06  36572615.205   190443320.241         -99.292          22.000  
G25  23527470.771   123637706.259       -4075.848          37.000    23527473.769    92326854.589       -3043.196          31.000  
G26  20546010.193   107970040.506        1029.238          31.000  
G29  23780344.810   124966453.1551        116.148          29.000  
G32  20774636.418   109171502.801        -805.142          23.000    20774644.513    81524196.388        -602.033          20.000  
> 2021  9 30 11 20  4.9999222  0  6
C06  36572482.097   190442639.278         -99.664          21.000  
C36  22514704.394   117239930.2971      -1684.164          24.000  
G25  23528093.740   123640994.490       -4076.599          38.000    23528099.136    92329310.085       -3043.144          31.000  
G26  20545666.931   107968224.124        1027.908          31.000  
G32  20774645.112   109171520.699        -806.159          17.000    20774648.110    81524210.374        -602.587          20.000  
R04  19486470.797   104349165.9821      -1889.026          18.000  
> 2021  9 30 11 20  5.9999219  0  4
C19  22021792.830   114673228.4221      -2479.758          18.000  
G25  23528779.665   123644598.133       -4076.627          38.000    23528784.461    92332001.094       -3045.565          32.000  
G26  20545386.925   107966723.568        1028.650          31.000  
G32  20774701.473   109171854.657        -806.187          16.000    20774712.866    81524459.894        -602.835          20.000  
> 2021  9 30 11 20  6.9999217  0  4
G25  23529492.271   123648359.631       -4077.737          38.000    23529500.366    92334810.022       -3044.921          32.000  
G26  20545133.000   107965381.195        1029.317          31.000  
G29  23779984.759   124964532.2391        114.215          25.000  
G32  20774781.218   109172346.315        -807.994          18.000    20774807.300    81524827.783        -603.490          21.000  
> 2021  9 30 11 20  7.9999212  0  4
C19  22022542.011   114677096.4081      -2483.820          17.000  
G25  23530120.337   123651648.716       -4076.631          38.000    23530125.733    92337266.147       -3045.202          31.000  
G26  20544781.644   107963566.850        1027.537          29.000  
J02  38907718.147   204461450.4561      -1430.034          25.000  
> 2021  9 30 11 20  8.9999209  0  4
G25  23530805.362   123655253.015       -4076.974          38.000    23530811.058    92339957.659       -3044.103          31.000  
G26  20544491.145   107962068.061        1027.271          28.000  
G32  20774839.678   109172703.3441       -809.556          19.000  
J02  38907897.423   204462408.468       -1430.875          26.000  
> 2021  9 30 11 20  9.9999204  0  5
G25  23531430.130   123658542.400       -4076.977          38.000    23531438.224    92342414.072       -3043.257          32.000  
G26  20544151.480   107960254.718        1025.897          30.000  
G29  23779533.571   124962143.4021        114.395          19.000  
G32  20774842.975   109172725.146        -809.677          20.000  
J02  38908016.741   204463051.297       -1430.666          28.000  
> 2021  9 30 11 20 10.9999199  0  6
C06  36571905.597   190439643.0461        -94.536          20.000  
G25  23532056.996   123661832.143       -4077.428          38.000    23532064.191    92344870.712       -3046.519          32.000  
G26  20543807.018   107958442.189        1022.417          29.000  
G29  23779367.786   124961241.361         112.547          12.000  
G32  20774844.175   109172747.165        -809.818          23.000  
J02  38908137.557   204463693.406       -1429.275          28.000  
> 2021  9 30 11 20 11.9999196  0  6
C06  36571835.145   190439270.029         -95.991          22.000  
G25  23532742.022   123665437.090       -4077.837          38.000    23532750.116    92347562.708       -3044.604          32.000  
G26  20543522.515   107956945.237        1022.893          30.000  
G29  23779268.855   124960657.584         109.150          20.000  
J01  36575577.155   192206077.2931        228.042          20.000  
J02  38908318.931   204464650.000       -1429.119          28.000  
> 2021  9 30 11 20 12.9999191  0  4
C06  36571704.736   190438586.304         -97.412          25.000  
G25  23533369.487   123668727.078       -4077.961          37.000    23533376.083    92350019.503       -3046.013          31.000  
G26  20543176.555   107955133.730        1022.646          30.000  
G29  23779103.069   124960029.929         110.416          21.000  
> 2021  9 30 11 20 13.9999188  0  6
G25  23534055.113   123672332.421       -4078.995          37.000    23534062.308    92352711.833       -3044.463          31.000  
G26  20542886.356   107953637.917        1024.949          30.000  
G29  23778987.350   124959446.123         110.969          22.000  
G32  20774989.874   109173444.8511       -810.564          24.000  
J01  36575251.280   192204356.4081        229.803          18.000  
J02  38908626.518   204466249.1271      -1428.908          28.000  
> 2021  9 30 11 20 14.9999183  0  5
G25  23534683.478   123675623.011       -4078.287          38.000    23534687.975    92355169.057       -3044.533          31.000  
G26  20542547.590   107951827.790        1021.954          29.000  
G32  20774996.169   109173468.183        -811.610          22.000  
J01  36575057.914   192203339.443         228.784          17.000  
J02  38908749.133   204466890.547       -1430.235          28.000  
> 2021  9 30 11 20 15.9999183  0  8
C06  36571523.361   190437628.0921        -95.865          22.000  
C16  36953193.337   192425030.2551        -49.953          24.000  
G25  23535460.240   123679701.259       -4078.427          38.000    23535463.837    92358214.533       -3044.470          31.000  
G26  20542355.123   107950805.779        1020.366          29.000  
G29  23778588.626   124957326.6151        109.820          25.000  
G32  20775153.860   109174279.370        -811.792          21.000  
J01  36575015.644   192203111.465         227.897          18.000  
J02  38909023.444   204468321.000       -1431.109          28.000  
> 2021  9 30 11 20 16.9999178  0  5
G25  23536086.806   123682991.985       -4077.892          38.000    23536090.404    92360671.918       -3044.752          31.000  
G26  20542012.161   107948996.487        1020.013          29.000  
G32  20775158.657   109174303.313        -811.795          23.000  
J01  36574824.376   192202096.721         226.830          18.000  
J02  38909148.757   204468964.731       -1431.854          28.000  
> 2021  9 30 11 20 17.9999173  0  5
G25  23536713.372   123686282.958       -4078.633          38.000    23536716.670    92363129.488       -3046.336          30.000  
G26  20541664.402   107947187.956        1018.583          29.000  
G29  23778254.657   124955531.3651        109.647          26.000  
G32  20775164.053   109174327.633        -812.774          26.000  
J02  38909271.072   204469608.043       -1430.905          28.000  
> 2021  9 30 11 20 18.9999171  0  6
C06  36571224.768   190436045.6591        -97.007          23.000  
G25  23537431.675   123690046.671       -4078.589          38.000    23537431.975    92365940.057       -3045.557          31.000  
G26  20541409.278   107945852.530        1020.508          29.000  
G29  23778176.711   124955107.344         108.815          26.000  
G32  20775259.087   109174826.513        -815.054          24.000  
J02  38909482.126   204470722.728       -1429.568          29.000  
> 2021  9 30 11 20 19.9999165  0  7
C06  36571063.779   190435206.611         -99.152          23.000  
