$GPGGA,105944.000,2218.822196,N,11410.192536,E,1,19,0.8,43.2,M,,M,,*7A
$GPRMC,105944.000,A,2218.822196,N,11410.192536,E,0.0,103.278895494,120921,,E,A*2D
$GPGGA,105945.000,2218.822207,N,11410.192529,E,1,19,0.8,43.1,M,,M,,*7D
$GPRMC,105945.000,A,2218.822207,N,11410.192529,E,0.1,105.340731553,120921,,E,A*2F
$GPGGA,105946.000,2218.822249,N,11410.192531,E,1,19,0.8,43.2,M,,M,,*7E
$GPRMC,105946.000,A,2218.822249,N,11410.192531,E,0.2,103.286886816,120921,,E,A*2E
$GPGGA,105947.000,2218.822298,N,11410.192526,E,1,19,0.8,43.9,M,,M,,*7E
$GPRMC,105947.000,A,2218.822298,N,11410.192526,E,0.2,0.0,120921,,E,A*22
$GPGGA,105948.000,2218.822334,N,11410.192510,E,1,19,0.8,44.3,M,,M,,*7E
$GPRMC,105948.000,A,2218.822334,N,11410.192510,E,0.1,107.008520334,120921,,E,A*21
$GPGGA,105949.000,2218.822312,N,11410.192518,E,1,19,0.8,44.1,M,,M,,*71
$GPRMC,105949.000,A,2218.822312,N,11410.192518,E,0.1,105.43754948600001,120921,,E,A*16
$GPGGA,105950.000,2218.822300,N,11410.192509,E,1,19,0.8,44.4,M,,M,,*7F
$GPRMC,105950.000,A,2218.822300,N,11410.192509,E,0.0,105.353196649,120921,,E,A*2F
$GPGGA,105951.000,2218.822289,N,11410.192457,E,1,19,0.8,44.8,M,,M,,*78
$GPRMC,105951.000,A,2218.822289,N,11410.192457,E,0.2,0.0,120921,,E,A*22
$GPGGA,105952.000,2218.822273,N,11410.192438,E,1,19,0.8,44.8,M,,M,,*77
$GPRMC,105952.000,A,2218.822273,N,11410.192438,E,0.1,0.0,120921,,E,A*2E
$GPGGA,105953.000,2218.822290,N,11410.192450,E,1,19,0.8,44.3,M,,M,,*7E
$GPRMC,105953.000,A,2218.822290,N,11410.192450,E,0.1,103.313469912,120921,,E,A*2E
$GPGGA,105954.000,2218.823053,N,11410.191662,E,1,19,0.8,49.8,M,,M,,*73
$GPRMC,105954.000,A,2218.823053,N,11410.191662,E,0.2,0.0,120921,,E,A*24
$GPGGA,105955.000,2218.823135,N,11410.191712,E,1,19,0.8,49.9,M,,M,,*74
$GPRMC,105955.000,A,2218.823135,N,11410.191712,E,0.4,0.0,120921,,E,A*24
$GPGGA,105956.000,2218.823167,N,11410.191898,E,1,19,0.8,49.9,M,,M,,*7D
$GPRMC,105956.000,A,2218.823167,N,11410.191898,E,0.8,0.0,120921,,E,A*21
$GPGGA,105957.000,2218.823172,N,11410.192115,E,1,19,0.8,49.6,M,,M,,*78
$GPRMC,105957.000,A,2218.823172,N,11410.192115,E,0.7,114.17311565,120921,,E,A*13
$GPGGA,105958.000,2218.823166,N,11410.192090,E,1,19,0.8,49.1,M,,M,,*79
$GPRMC,105958.000,A,2218.823166,N,11410.192090,E,0.0,108.241567569,120921,,E,A*25
$GPGGA,105959.000,2218.823184,N,11410.192047,E,1,19,0.8,48.8,M,,M,,*76
$GPRMC,105959.000,A,2218.823184,N,11410.192047,E,0.2,95.02269933299999,120921,,E,A*21
$GPGGA,110000.000,2218.823257,N,11410.192054,E,1,19,0.8,49.0,M,,M,,*71
$GPRMC,110000.000,A,2218.823257,N,11410.192054,E,0.3,0.0,120921,,E,A*2F
$GPGGA,110001.000,2218.823283,N,11410.192057,E,1,19,0.8,49.3,M,,M,,*79
$GPRMC,110001.000,A,2218.823283,N,11410.192057,E,0.1,0.0,120921,,E,A*26
$GPGGA,110002.000,2218.823277,N,11410.192187,E,1,19,0.8,49.2,M,,M,,*7C
$GPRMC,110002.000,A,2218.823277,N,11410.192187,E,0.4,0.0,120921,,E,A*27
$GPGGA,110003.000,2218.822460,N,11410.193027,E,1,19,0.8,47.6,M,,M,,*7C
$GPRMC,110003.000,A,2218.822460,N,11410.193027,E,0.3,0.0,120921,,E,A*2A
$GPGGA,110004.000,2218.822486,N,11410.192832,E,1,19,0.8,47.8,M,,M,,*70
$GPRMC,110004.000,A,2218.822486,N,11410.192832,E,1.0,119.773379061,120921,,E,A*2A
$GPGGA,110005.000,2218.822497,N,11410.192733,E,1,19,0.8,48.0,M,,M,,*78
$GPRMC,110005.000,A,2218.822497,N,11410.192733,E,0.2,127.102568277,120921,,E,A*28
$GPGGA,110006.000,2218.822472,N,11410.192783,E,1,19,0.8,48.2,M,,M,,*79
$GPRMC,110006.000,A,2218.822472,N,11410.192783,E,0.3,123.096826206,120921,,E,A*23
$GPGGA,110007.000,2218.822388,N,11410.192850,E,1,19,0.8,48.2,M,,M,,*7B
$GPRMC,110007.000,A,2218.822388,N,11410.192850,E,0.4,0.0,120921,,E,A*21
$GPGGA,110008.000,2218.822210,N,11410.192835,E,1,19,0.8,48.0,M,,M,,*75
$GPRMC,110008.000,A,2218.822210,N,11410.192835,E,0.8,0.0,120921,,E,A*21
$GPGGA,110009.000,2218.822081,N,11410.192834,E,1,19,0.8,47.9,M,,M,,*79
$GPRMC,110009.000,A,2218.822081,N,11410.192834,E,0.2,119.466280092,120921,,E,A*2D
$GPGGA,110010.000,2218.822053,N,11410.192827,E,1,19,0.8,48.0,M,,M,,*7A
$GPRMC,110010.000,A,2218.822053,N,11410.192827,E,0.0,0.0,120921,,E,A*26
$GPGGA,110011.000,2218.822045,N,11410.192775,E,1,19,0.8,48.1,M,,M,,*75
$GPRMC,110011.000,A,2218.822045,N,11410.192775,E,0.2,0.0,120921,,E,A*2A
$GPGGA,110012.000,2218.822039,N,11410.192731,E,1,19,0.8,48.1,M,,M,,*7D
$GPRMC,110012.000,A,2218.822039,N,11410.192731,E,0.1,0.0,120921,,E,A*21
$GPGGA,110013.000,2218.822332,N,11410.193466,E,1,19,0.8,42.3,M,,M,,*7C
$GPRMC,110013.000,A,2218.822332,N,11410.193466,E,0.4,0.0,120921,,E,A*2D
$GPGGA,110014.000,2218.822250,N,11410.193409,E,1,19,0.8,41.9,M,,M,,*7E
$GPRMC,110014.000,A,2218.822250,N,11410.193409,E,0.3,0.0,120921,,E,A*21
$GPGGA,110015.000,2218.822211,N,11410.193374,E,1,19,0.8,41.9,M,,M,,*77
$GPRMC,110015.000,A,2218.822211,N,11410.193374,E,0.3,0.0,120921,,E,A*28
$GPGGA,110016.000,2218.822211,N,11410.193336,E,1,19,0.8,41.9,M,,M,,*72
$GPRMC,110016.000,A,2218.822211,N,11410.193336,E,0.2,0.0,120921,,E,A*2C
$GPGGA,110017.000,2218.822222,N,11410.193305,E,1,19,0.8,42.1,M,,M,,*78
$GPRMC,110017.000,A,2218.822222,N,11410.193305,E,0.1,0.0,120921,,E,A*2E
$GPGGA,110018.000,2218.822235,N,11410.193292,E,1,19,0.8,42.5,M,,M,,*7A
$GPRMC,110018.000,A,2218.822235,N,11410.193292,E,0.1,0.0,120921,,E,A*28
$GPGGA,110019.000,2218.822223,N,11410.193386,E,1,19,0.8,42.7,M,,M,,*7A
$GPRMC,110019.000,A,2218.822223,N,11410.193386,E,0.4,0.0,120921,,E,A*2F
$GPGGA,110020.000,2218.822261,N,11410.193447,E,1,19,0.8,43.0,M,,M,,*7A
$GPRMC,110020.000,A,2218.822261,N,11410.193447,E,0.2,114.892238955,120921,,E,A*28
$GPGGA,110021.000,2218.815996,N,11410.186165,E,1,19,0.8,121.9,M,,M,,*41
$GPRMC,110021.000,A,2218.815996,N,11410.186165,E,0.3,103.41084109,120921,,E,A*1A
$GPGGA,110022.000,2218.815933,N,11410.186095,E,1,19,0.8,121.9,M,,M,,*43
$GPRMC,110022.000,A,2218.815933,N,11410.186095,E,0.3,114.885763936,120921,,E,A*24
$GPGGA,110023.000,2218.815869,N,11410.185945,E,1,19,0.8,121.9,M,,M,,*4B
$GPRMC,110023.000,A,2218.815869,N,11410.185945,E,0.7,114.87950748200001,120921,,E,A*18
$GPGGA,110024.000,2218.815813,N,11410.185975,E,1,19,0.8,122.1,M,,M,,*49
$GPRMC,110024.000,A,2218.815813,N,11410.185975,E,0.4,0.0,120921,,E,A*2D
$GPGGA,110025.000,2218.815863,N,11410.186014,E,1,19,0.8,122.0,M,,M,,*43
$GPRMC,110025.000,A,2218.815863,N,11410.186014,E,0.3,114.90064008799999,120921,,E,A*18
$GPGGA,110026.000,2218.815863,N,11410.185957,E,1,19,0.8,121.5,M,,M,,*4B
$GPRMC,110026.000,A,2218.815863,N,11410.185957,E,0.4,103.42750675200001,120921,,E,A*19
$GPGGA,110027.000,2218.815828,N,11410.185841,E,1,19,0.8,121.3,M,,M,,*45
$GPRMC,110027.000,A,2218.815828,N,11410.185841,E,0.4,118.30055803200001,120921,,E,A*13
$GPGGA,110028.000,2218.817175,N,11410.187509,E,1,19,0.8,107.9,M,,M,,*44
$GPRMC,110028.000,A,2218.817175,N,11410.187509,E,0.2,116.38658874,120921,,E,A*14
$GPGGA,110029.000,2218.817181,N,11410.187517,E,1,19,0.8,107.9,M,,M,,*41
$GPRMC,110029.000,A,2218.817181,N,11410.187517,E,0.1,0.0,120921,,E,A*2F
$GPGGA,110030.000,2218.817181,N,11410.187491,E,1,19,0.8,107.6,M,,M,,*49
$GPRMC,110030.000,A,2218.817181,N,11410.187491,E,0.1,135.20388306700002,120921,,E,A*1E
$GPGGA,110031.000,2218.817177,N,11410.187448,E,1,19,0.8,107.3,M,,M,,*40
$GPRMC,110031.000,A,2218.817177,N,11410.187448,E,0.1,109.866838422,120921,,E,A*23
$GPGGA,110032.000,2218.817144,N,11410.187414,E,1,19,0.8,107.0,M,,M,,*49
$GPRMC,110032.000,A,2218.817144,N,11410.187414,E,0.2,0.0,120921,,E,A*2D
$GPGGA,110033.000,2218.817138,N,11410.187324,E,1,19,0.8,106.6,M,,M,,*40
$GPRMC,110033.000,A,2218.817138,N,11410.187324,E,0.3,0.0,120921,,E,A*22
$GPGGA,110034.000,2218.817080,N,11410.187231,E,1,19,0.8,106.4,M,,M,,*42
$GPRMC,110034.000,A,2218.817080,N,11410.187231,E,0.4,120.31240393600001,120921,,E,A*1C
$GPGGA,110035.000,2218.817081,N,11410.187504,E,1,19,0.8,106.0,M,,M,,*47
$GPRMC,110035.000,A,2218.817081,N,11410.187504,E,0.8,111.910144178,120921,,E,A*2E
$GPGGA,110036.000,2218.818057,N,11410.188773,E,1,19,0.8,94.3,M,,M,,*74
$GPRMC,110036.000,A,2218.818057,N,11410.188773,E,0.3,114.272501733,120921,,E,A*29
$GPGGA,110037.000,2218.817996,N,11410.188884,E,1,19,0.8,94.4,M,,M,,*7E
$GPRMC,110037.000,A,2218.817996,N,11410.188884,E,0.5,108.908863399,120921,,E,A*24
$GPGGA,110038.000,2218.817887,N,11410.188917,E,1,19,0.8,94.8,M,,M,,*77
$GPRMC,110038.000,A,2218.817887,N,11410.188917,E,0.4,103.471438529,120921,,E,A*27
$GPGGA,110039.000,2218.817811,N,11410.188925,E,1,19,0.8,94.8,M,,M,,*78
$GPRMC,110039.000,A,2218.817811,N,11410.188925,E,0.3,120.287787934,120921,,E,A*26
$GPGGA,110040.000,2218.817737,N,11410.188925,E,1,19,0.8,94.5,M,,M,,*70
$GPRMC,110040.000,A,2218.817737,N,11410.188925,E,0.3,120.29680378399999,120921,,E,A*1B
$GPGGA,110041.000,2218.817639,N,11410.189033,E,1,19,0.8,94.3,M,,M,,*77
$GPRMC,110041.000,A,2218.817639,N,11410.189033,E,0.5,130.239646878,120921,,E,A*25
$GPGGA,110042.000,2218.817549,N,11410.189128,E,1,19,0.8,94.2,M,,M,,*7A
$GPRMC,110042.000,A,2218.817549,N,11410.189128,E,0.5,121.134048382,120921,,E,A*21
$GPGGA,110043.000,2218.817630,N,11410.189540,E,1,19,0.8,94.6,M,,M,,*78
$GPRMC,110043.000,A,2218.817630,N,11410.189540,E,1.0,0.0,120921,,E,A*22
$GPGGA,110044.000,2218.817803,N,11410.190543,E,1,19,0.8,87.9,M,,M,,*77
$GPRMC,110044.000,A,2218.817803,N,11410.190543,E,1.3,0.0,120921,,E,A*23
$GPGGA,110045.000,2218.817852,N,11410.190886,E,1,19,0.8,87.8,M,,M,,*77
$GPRMC,110045.000,A,2218.817852,N,11410.190886,E,1.1,0.0,120921,,E,A*20
$GPGGA,110046.000,2218.817866,N,11410.190874,E,1,19,0.8,87.8,M,,M,,*7E
$GPRMC,110046.000,A,2218.817866,N,11410.190874,E,0.4,119.074459455,120921,,E,A*2B
$GPGGA,110047.000,2218.817863,N,11410.191012,E,1,19,0.8,87.8,M,,M,,*73
$GPRMC,110047.000,A,2218.817863,N,11410.191012,E,0.6,132.293320861,120921,,E,A*24
$GPGGA,110048.000,2218.819693,N,11410.189647,E,1,19,0.8,102.6,M,,M,,*4E
$GPRMC,110048.000,A,2218.819693,N,11410.189647,E,0.2,133.966840171,120921,,E,A*2A
$GPGGA,110049.000,2218.819703,N,11410.189691,E,1,19,0.8,102.2,M,,M,,*48
$GPRMC,110049.000,A,2218.819703,N,11410.189691,E,0.2,135.032417996,120921,,E,A*29
$GPGGA,110050.000,2218.819743,N,11410.189776,E,1,19,0.8,101.9,M,,M,,*44
$GPRMC,110050.000,A,2218.819743,N,11410.189776,E,0.4,135.04820939299998,120921,,E,A*19
$GPGGA,110051.000,2218.819786,N,11410.189844,E,1,19,0.8,101.6,M,,M,,*4D
$GPRMC,110051.000,A,2218.819786,N,11410.189844,E,0.3,0.0,120921,,E,A*28
$GPGGA,110052.000,2218.819825,N,11410.189901,E,1,19,0.8,101.3,M,,M,,*4D
$GPRMC,110052.000,A,2218.819825,N,11410.189901,E,0.2,119.206691919,120921,,E,A*2E
$GPGGA,110053.000,2218.819848,N,11410.189936,E,1,19,0.8,101.4,M,,M,,*44
$GPRMC,110053.000,A,2218.819848,N,11410.189936,E,0.2,134.987434369,120921,,E,A*2D
$GPGGA,110054.000,2218.819820,N,11410.189938,E,1,19,0.8,101.4,M,,M,,*43
$GPRMC,110054.000,A,2218.819820,N,11410.189938,E,0.2,134.965755349,120921,,E,A*20
$GPGGA,110055.000,2218.819670,N,11410.189965,E,1,19,0.8,100.8,M,,M,,*4C
$GPRMC,110055.000,A,2218.819670,N,11410.189965,E,0.7,137.329205735,120921,,E,A*29
$GPGGA,110056.000,2218.819479,N,11410.189962,E,1,19,0.8,99.9,M,,M,,*73
$GPRMC,110056.000,A,2218.819479,N,11410.189962,E,0.7,132.21280659,120921,,E,A*1E
$GPGGA,110057.000,2218.819534,N,11410.190349,E,1,19,0.8,94.7,M,,M,,*72
$GPRMC,110057.000,A,2218.819534,N,11410.190349,E,0.7,0.0,120921,,E,A*2F
$GPGGA,110058.000,2218.819580,N,11410.190372,E,1,19,0.8,94.5,M,,M,,*78
$GPRMC,110058.000,A,2218.819580,N,11410.190372,E,0.1,0.0,120921,,E,A*21
$GPGGA,110059.000,2218.819533,N,11410.190353,E,1,19,0.8,93.8,M,,M,,*78
$GPRMC,110059.000,A,2218.819533,N,11410.190353,E,0.2,0.0,120921,,E,A*28
$GPGGA,110100.000,2218.819462,N,11410.190251,E,1,19,0.8,92.9,M,,M,,*73
$GPRMC,110100.000,A,2218.819462,N,11410.190251,E,0.4,0.0,120921,,E,A*25
$GPGGA,110101.000,2218.819395,N,11410.190170,E,1,19,0.8,92.2,M,,M,,*76
$GPRMC,110101.000,A,2218.819395,N,11410.190170,E,0.4,0.0,120921,,E,A*2B
$GPGGA,110102.000,2218.819327,N,11410.190091,E,1,19,0.8,92.2,M,,M,,*72
$GPRMC,110102.000,A,2218.819327,N,11410.190091,E,0.4,0.0,120921,,E,A*2F
$GPGGA,110103.000,2218.819260,N,11410.189900,E,1,19,0.8,92.4,M,,M,,*7E
$GPRMC,110103.000,A,2218.819260,N,11410.189900,E,0.5,0.0,120921,,E,A*24
$GPGGA,110104.000,2218.819140,N,11410.189850,E,1,19,0.8,92.5,M,,M,,*7D
$GPRMC,110104.000,A,2218.819140,N,11410.189850,E,0.5,0.0,120921,,E,A*26
$GPGGA,110105.000,2218.818975,N,11410.189807,E,1,19,0.8,92.7,M,,M,,*73
$GPRMC,110105.000,A,2218.818975,N,11410.189807,E,0.6,113.49602532899999,120921,,E,A*16
$GPGGA,110106.000,2218.818901,N,11410.190009,E,1,19,0.8,90.7,M,,M,,*7F
$GPRMC,110106.000,A,2218.818901,N,11410.190009,E,0.6,134.786940994,120921,,E,A*21
$GPGGA,110107.000,2218.819090,N,11410.188647,E,1,19,0.8,95.2,M,,M,,*7B
$GPRMC,110107.000,A,2218.819090,N,11410.188647,E,0.5,137.183872968,120921,,E,A*25
$GPGGA,110108.000,2218.819070,N,11410.188667,E,1,19,0.8,95.1,M,,M,,*7B
$GPRMC,110108.000,A,2218.819070,N,11410.188667,E,0.2,119.40665254,120921,,E,A*1F
$GPGGA,110109.000,2218.819096,N,11410.188721,E,1,19,0.8,94.7,M,,M,,*76
$GPRMC,110109.000,A,2218.819096,N,11410.188721,E,0.3,0.0,120921,,E,A*2F
$GPGGA,110110.000,2218.819091,N,11410.188740,E,1,19,0.8,94.3,M,,M,,*7A
$GPRMC,110110.000,A,2218.819091,N,11410.188740,E,0.2,96.44433492299999,120921,,E,A*29
$GPGGA,110111.000,2218.819108,N,11410.188822,E,1,19,0.8,94.3,M,,M,,*71
$GPRMC,110111.000,A,2218.819108,N,11410.188822,E,0.3,0.0,120921,,E,A*2C
$GPGGA,110112.000,2218.819100,N,11410.188833,E,1,19,0.8,94.3,M,,M,,*7A
$GPRMC,110112.000,A,2218.819100,N,11410.188833,E,0.1,0.0,120921,,E,A*25
$GPGGA,110113.000,2218.819149,N,11410.188893,E,1,19,0.8,94.1,M,,M,,*7E
$GPRMC,110113.000,A,2218.819149,N,11410.188893,E,0.4,0.0,120921,,E,A*26
$GPGGA,110114.000,2218.819187,N,11410.189036,E,1,19,0.8,93.7,M,,M,,*7C
$GPRMC,110114.000,A,2218.819187,N,11410.189036,E,0.5,0.0,120921,,E,A*24
$GPGGA,110115.000,2218.819163,N,11410.189133,E,1,19,0.8,93.6,M,,M,,*72
$GPRMC,110115.000,A,2218.819163,N,11410.189133,E,0.3,0.0,120921,,E,A*2D
$GPGGA,110116.000,2218.819554,N,11410.189380,E,1,19,0.8,91.5,M,,M,,*7A
$GPRMC,110116.000,A,2218.819554,N,11410.189380,E,0.5,0.0,120921,,E,A*22
$GPGGA,110117.000,2218.819517,N,11410.189320,E,1,19,0.8,91.6,M,,M,,*75
$GPRMC,110117.000,A,2218.819517,N,11410.189320,E,0.1,0.0,120921,,E,A*2A
$GPGGA,110118.000,2218.823874,N,11410.184281,E,1,19,0.8,101.0,M,,M,,*42
$GPRMC,110118.000,A,2218.823874,N,11410.184281,E,0.3,0.0,120921,,E,A*21
$GPGGA,110119.000,2218.823826,N,11410.184257,E,1,19,0.8,101.0,M,,M,,*4F
$GPRMC,110119.000,A,2218.823826,N,11410.184257,E,0.2,134.952135951,120921,,E,A*2F
$GPGGA,110120.000,2218.818945,N,11410.191304,E,1,19,0.8,120.4,M,,M,,*4D
$GPRMC,110120.000,A,2218.818945,N,11410.191304,E,0.1,121.070964754,120921,,E,A*23
$GPGGA,110121.000,2218.818869,N,11410.191386,E,1,19,0.8,120.5,M,,M,,*48
$GPRMC,110121.000,A,2218.818869,N,11410.191386,E,0.3,129.60263610799998,120921,,E,A*1E
$GPGGA,110122.000,2218.818838,N,11410.191402,E,1,19,0.8,120.5,M,,M,,*44
$GPRMC,110122.000,A,2218.818838,N,11410.191402,E,0.2,129.610968939,120921,,E,A*29
$GPGGA,110123.000,2218.818866,N,11410.191389,E,1,19,0.8,120.5,M,,M,,*4A
$GPRMC,110123.000,A,2218.818866,N,11410.191389,E,0.1,0.0,120921,,E,A*2D
$GPGGA,110124.000,2218.818860,N,11410.191373,E,1,19,0.8,120.4,M,,M,,*4F
$GPRMC,110124.000,A,2218.818860,N,11410.191373,E,0.0,0.0,120921,,E,A*28
$GPGGA,110125.000,2218.818907,N,11410.191415,E,1,19,0.8,120.4,M,,M,,*49
$GPRMC,110125.000,A,2218.818907,N,11410.191415,E,0.1,0.0,120921,,E,A*2F
$GPGGA,110126.000,2218.818899,N,11410.191414,E,1,19,0.8,120.4,M,,M,,*4D
$GPRMC,110126.000,A,2218.818899,N,11410.191414,E,0.0,115.988538971,120921,,E,A*27
$GPGGA,110127.000,2218.820201,N,11410.195195,E,1,19,0.8,110.3,M,,M,,*40
$GPRMC,110127.000,A,2218.820201,N,11410.195195,E,0.1,0.0,120921,,E,A*22
$GPGGA,110128.000,2218.821243,N,11410.196032,E,1,19,0.8,106.3,M,,M,,*40
$GPRMC,110128.000,A,2218.821243,N,11410.196032,E,0.2,120.535628181,120921,,E,A*22
$GPGGA,110129.000,2218.821699,N,11410.195371,E,1,19,0.8,100.7,M,,M,,*47
$GPRMC,110129.000,A,2218.821699,N,11410.195371,E,0.1,0.0,120921,,E,A*20
$GPGGA,110130.000,2218.821669,N,11410.195303,E,1,19,0.8,100.7,M,,M,,*45
$GPRMC,110130.000,A,2218.821669,N,11410.195303,E,0.0,0.0,120921,,E,A*23
$GPGGA,110131.000,2218.821561,N,11410.194179,E,1,19,0.8,99.9,M,,M,,*7E
$GPRMC,110131.000,A,2218.821561,N,11410.194179,E,1.1,109.31492498,120921,,E,A*17
$GPGGA,110132.000,2218.821550,N,11410.194196,E,1,19,0.8,98.7,M,,M,,*71
$GPRMC,110132.000,A,2218.821550,N,11410.194196,E,0.5,122.77065734899999,120921,,E,A*11
$GPGGA,110133.000,2218.821532,N,11410.194331,E,1,19,0.8,98.1,M,,M,,*7D
$GPRMC,110133.000,A,2218.821532,N,11410.194331,E,0.5,0.0,120921,,E,A*28
$GPGGA,110134.000,2218.821606,N,11410.194537,E,1,19,0.8,98.1,M,,M,,*7E
$GPRMC,110134.000,A,2218.821606,N,11410.194537,E,0.6,111.84356349299999,120921,,E,A*10
$GPGGA,110135.000,2218.821699,N,11410.194744,E,1,19,0.8,97.8,M,,M,,*79
$GPRMC,110135.000,A,2218.821699,N,11410.194744,E,0.8,133.20240539,120921,,E,A*1D
$GPGGA,110136.000,2218.821733,N,11410.194700,E,1,19,0.8,97.9,M,,M,,*7A
$GPRMC,110136.000,A,2218.821733,N,11410.194700,E,0.3,135.181944499,120921,,E,A*2C
$GPGGA,110137.000,2218.821759,N,11410.194558,E,1,19,0.8,96.1,M,,M,,*71
$GPRMC,110137.000,A,2218.821759,N,11410.194558,E,0.2,0.0,120921,,E,A*2D
$GPGGA,110138.000,2218.821825,N,11410.194505,E,1,19,0.8,95.6,M,,M,,*76
$GPRMC,110138.000,A,2218.821825,N,11410.194505,E,0.3,0.0,120921,,E,A*2F
$GPGGA,110139.000,2218.821850,N,11410.194444,E,1,19,0.8,95.5,M,,M,,*72
$GPRMC,110139.000,A,2218.821850,N,11410.194444,E,0.2,129.550125613,120921,,E,A*21
$GPGGA,110140.000,2218.821847,N,11410.194490,E,1,19,0.8,95.5,M,,M,,*73
$GPRMC,110140.000,A,2218.821847,N,11410.194490,E,0.1,0.0,120921,,E,A*2B
$GPGGA,110141.000,2218.821874,N,11410.194514,E,1,19,0.8,95.5,M,,M,,*7F
$GPRMC,110141.000,A,2218.821874,N,11410.194514,E,0.2,0.0,120921,,E,A*24
$GPGGA,110142.000,2218.821835,N,11410.194532,E,1,19,0.8,95.5,M,,M,,*7D
$GPRMC,110142.000,A,2218.821835,N,11410.194532,E,0.3,124.23316479200001,120921,,E,A*1C
$GPGGA,110143.000,2218.821835,N,11410.194532,E,1,19,0.8,95.5,M,,M,,*7C
$GPRMC,110143.000,A,2218.821835,N,11410.194532,E,0.0,0.0,120921,,E,A*25
$GPGGA,110144.000,2218.821819,N,11410.194532,E,1,19,0.8,95.3,M,,M,,*73
$GPRMC,110144.000,A,2218.821819,N,11410.194532,E,0.1,129.151447467,120921,,E,A*20
$GPGGA,110145.000,2218.821820,N,11410.194518,E,1,19,0.8,95.4,M,,M,,*77
$GPRMC,110145.000,A,2218.821820,N,11410.194518,E,0.1,0.0,120921,,E,A*2E
$GPGGA,110146.000,2218.821823,N,11410.194422,E,1,19,0.8,94.7,M,,M,,*7D
$GPRMC,110146.000,A,2218.821823,N,11410.194422,E,0.1,129.169807015,120921,,E,A*29
$GPGGA,110147.000,2218.821905,N,11410.194435,E,1,19,0.8,94.9,M,,M,,*71
$GPRMC,110147.000,A,2218.821905,N,11410.194435,E,0.4,124.272971135,120921,,E,A*29
$GPGGA,110148.000,2218.821966,N,11410.194456,E,1,19,0.8,95.1,M,,M,,*77
$GPRMC,110148.000,A,2218.821966,N,11410.194456,E,0.1,124.278599211,120921,,E,A*26
$GPGGA,110149.000,2218.821968,N,11410.194436,E,1,19,0.8,95.3,M,,M,,*7C
$GPRMC,110149.000,A,2218.821968,N,11410.194436,E,0.1,0.0,120921,,E,A*22
$GPGGA,110150.000,2218.821959,N,11410.194368,E,1,19,0.8,95.5,M,,M,,*7C
$GPRMC,110150.000,A,2218.821959,N,11410.194368,E,0.2,0.0,120921,,E,A*27
$GPGGA,110151.000,2218.821922,N,11410.194305,E,1,19,0.8,95.6,M,,M,,*79
$GPRMC,110151.000,A,2218.821922,N,11410.194305,E,0.3,124.280921475,120921,,E,A*21
$GPGGA,110152.000,2218.821422,N,11410.193108,E,1,19,0.8,102.1,M,,M,,*47
$GPRMC,110152.000,A,2218.821422,N,11410.193108,E,0.1,103.47470336,120921,,E,A*10
$GPGGA,110153.000,2218.821465,N,11410.193248,E,1,19,0.8,101.8,M,,M,,*48
$GPRMC,110153.000,A,2218.821465,N,11410.193248,E,0.5,135.058987432,120921,,E,A*2C
$GPGGA,110154.000,2218.821449,N,11410.193338,E,1,19,0.8,101.5,M,,M,,*4A
$GPRMC,110154.000,A,2218.821449,N,11410.193338,E,0.3,114.277965885,120921,,E,A*25
$GPGGA,110155.000,2218.821359,N,11410.193358,E,1,19,0.8,101.4,M,,M,,*4A
$GPRMC,110155.000,A,2218.821359,N,11410.193358,E,0.4,0.0,120921,,E,A*2A
$GPGGA,110156.000,2218.821264,N,11410.193389,E,1,19,0.8,100.9,M,,M,,*46
$GPRMC,110156.000,A,2218.821264,N,11410.193389,E,0.3,0.0,120921,,E,A*2D
$GPGGA,110157.000,2218.821172,N,11410.193403,E,1,19,0.8,100.6,M,,M,,*49
$GPRMC,110157.000,A,2218.821172,N,11410.193403,E,0.3,0.0,120921,,E,A*2D
$GPGGA,110158.000,2218.821072,N,11410.193464,E,1,19,0.8,100.8,M,,M,,*48
$GPRMC,110158.000,A,2218.821072,N,11410.193464,E,0.4,75.164258769,120921,,E,A*13
$GPGGA,110159.000,2218.820993,N,11410.193544,E,1,19,0.8,100.0,M,,M,,*45
$GPRMC,110159.000,A,2218.820993,N,11410.193544,E,0.4,0.0,120921,,E,A*20
$GPGGA,110200.000,2218.821029,N,11410.193508,E,1,19,0.8,100.3,M,,M,,*48
$GPRMC,110200.000,A,2218.821029,N,11410.193508,E,0.1,115.82756507100001,120921,,E,A*12
$GPGGA,110201.000,2218.821040,N,11410.193526,E,1,19,0.8,100.3,M,,M,,*4A
$GPRMC,110201.000,A,2218.821040,N,11410.193526,E,0.1,0.0,120921,,E,A*29
$GPGGA,110202.000,2218.821072,N,11410.193573,E,1,19,0.8,100.1,M,,M,,*4A
$GPRMC,110202.000,A,2218.821072,N,11410.193573,E,0.2,0.0,120921,,E,A*28
$GPGGA,110203.000,2218.821111,N,11410.193611,E,1,19,0.8,100.1,M,,M,,*48
$GPRMC,110203.000,A,2218.821111,N,11410.193611,E,0.2,0.0,120921,,E,A*2A
$GPGGA,110204.000,2218.821051,N,11410.193497,E,1,19,0.8,99.7,M,,M,,*71
$GPRMC,110204.000,A,2218.821051,N,11410.193497,E,0.2,0.0,120921,,E,A*24
$GPGGA,110205.000,2218.821034,N,11410.193407,E,1,19,0.8,99.1,M,,M,,*7C
$GPRMC,110205.000,A,2218.821034,N,11410.193407,E,0.3,0.0,120921,,E,A*2E
$GPGGA,110206.000,2218.820966,N,11410.193358,E,1,19,0.8,99.1,M,,M,,*7D
$GPRMC,110206.000,A,2218.820966,N,11410.193358,E,0.3,89.30101564799999,120921,,E,A*24
$GPGGA,110207.000,2218.820996,N,11410.193240,E,1,19,0.8,99.5,M,,M,,*7F
$GPRMC,110207.000,A,2218.820996,N,11410.193240,E,0.3,89.367671464,120921,,E,A*1C
$GPGGA,110208.000,2218.821047,N,11410.193255,E,1,19,0.8,98.0,M,,M,,*74
$GPRMC,110208.000,A,2218.821047,N,11410.193255,E,0.4,0.0,120921,,E,A*21
$GPGGA,110209.000,2218.821154,N,11410.193235,E,1,19,0.8,97.7,M,,M,,*78
$GPRMC,110209.000,A,2218.821154,N,11410.193235,E,0.4,0.0,120921,,E,A*25
$GPGGA,110210.000,2218.821030,N,11410.193214,E,1,19,0.8,97.7,M,,M,,*70
$GPRMC,110210.000,A,2218.821030,N,11410.193214,E,0.3,99.626021491,120921,,E,A*17
$GPGGA,110211.000,2218.820983,N,11410.193305,E,1,19,0.8,97.6,M,,M,,*71
$GPRMC,110211.000,A,2218.820983,N,11410.193305,E,0.2,0.0,120921,,E,A*2B
$GPGGA,110212.000,2218.820959,N,11410.193288,E,1,19,0.8,97.6,M,,M,,*71
$GPRMC,110212.000,A,2218.820959,N,11410.193288,E,0.1,0.0,120921,,E,A*28
$GPGGA,110213.000,2218.821005,N,11410.193287,E,1,19,0.8,97.1,M,,M,,*79
$GPRMC,110213.000,A,2218.821005,N,11410.193287,E,0.3,0.0,120921,,E,A*25
$GPGGA,110214.000,2218.821068,N,11410.193307,E,1,19,0.8,96.6,M,,M,,*7A
$GPRMC,110214.000,A,2218.821068,N,11410.193307,E,0.2,0.0,120921,,E,A*21
$GPGGA,110215.000,2218.821095,N,11410.193361,E,1,19,0.8,96.6,M,,M,,*79
$GPRMC,110215.000,A,2218.821095,N,11410.193361,E,0.2,0.0,120921,,E,A*22
$GPGGA,110216.000,2218.821117,N,11410.193502,E,1,19,0.8,95.2,M,,M,,*75
$GPRMC,110216.000,A,2218.821117,N,11410.193502,E,0.4,0.0,120921,,E,A*2F
$GPGGA,110217.000,2218.821141,N,11410.193638,E,1,19,0.8,95.5,M,,M,,*7A
$GPRMC,110217.000,A,2218.821141,N,11410.193638,E,0.5,0.0,120921,,E,A*26
$GPGGA,110218.000,2218.821129,N,11410.193678,E,1,19,0.8,96.2,M,,M,,*7B
$GPRMC,110218.000,A,2218.821129,N,11410.193678,E,0.3,0.0,120921,,E,A*25
$GPGGA,110219.000,2218.821116,N,11410.193685,E,1,19,0.8,96.7,M,,M,,*71
$GPRMC,110219.000,A,2218.821116,N,11410.193685,E,0.1,0.0,120921,,E,A*28
$GPGGA,110220.000,2218.821104,N,11410.193687,E,1,19,0.8,97.3,M,,M,,*7F
$GPRMC,110220.000,A,2218.821104,N,11410.193687,E,0.1,0.0,120921,,E,A*23
$GPGGA,110221.000,2218.821137,N,11410.193677,E,1,19,0.8,97.9,M,,M,,*7B
$GPRMC,110221.000,A,2218.821137,N,11410.193677,E,0.2,0.0,120921,,E,A*2E
$GPGGA,110222.000,2218.821190,N,11410.193675,E,1,19,0.8,98.0,M,,M,,*71
$GPRMC,110222.000,A,2218.821190,N,11410.193675,E,0.2,0.0,120921,,E,A*22
$GPGGA,110223.000,2218.821244,N,11410.193672,E,1,19,0.8,98.0,M,,M,,*7D
$GPRMC,110223.000,A,2218.821244,N,11410.193672,E,0.2,106.97003221799999,120921,,E,A*1B
$GPGGA,110224.000,2218.821246,N,11410.193625,E,1,19,0.8,97.9,M,,M,,*7C
$GPRMC,110224.000,A,2218.821246,N,11410.193625,E,0.3,110.50669738100001,120921,,E,A*18
$GPGGA,110225.000,2218.821272,N,11410.193517,E,1,19,0.8,97.8,M,,M,,*79
$GPRMC,110225.000,A,2218.821272,N,11410.193517,E,0.4,117.37912452100001,120921,,E,A*11
$GPGGA,110226.000,2218.821240,N,11410.193402,E,1,19,0.8,96.8,M,,M,,*7F
$GPRMC,110226.000,A,2218.821240,N,11410.193402,E,0.5,112.95579834,120921,,E,A*17
$GPGGA,110227.000,2218.821265,N,11410.193378,E,1,19,0.8,96.7,M,,M,,*7C
$GPRMC,110227.000,A,2218.821265,N,11410.193378,E,0.3,106.97600863299999,120921,,E,A*1E
$GPGGA,110228.000,2218.821314,N,11410.193291,E,1,19,0.8,97.1,M,,M,,*75
$GPRMC,110228.000,A,2218.821314,N,11410.193291,E,0.4,109.88280740399999,120921,,E,A*15
$GPGGA,110229.000,2218.821323,N,11410.193237,E,1,19,0.8,97.3,M,,M,,*7E
$GPRMC,110229.000,A,2218.821323,N,11410.193237,E,0.2,0.0,120921,,E,A*21
$GPGGA,110230.000,2218.821336,N,11410.193123,E,1,19,0.8,97.4,M,,M,,*73
$GPRMC,110230.000,A,2218.821336,N,11410.193123,E,0.3,109.88481548,120921,,E,A*16
$GPGGA,110231.000,2218.821376,N,11410.193034,E,1,19,0.8,97.3,M,,M,,*76
$GPRMC,110231.000,A,2218.821376,N,11410.193034,E,0.3,0.0,120921,,E,A*28
$GPGGA,110232.000,2218.821434,N,11410.193086,E,1,19,0.8,96.6,M,,M,,*79
$GPRMC,110232.000,A,2218.821434,N,11410.193086,E,0.2,120.376839941,120921,,E,A*2D
$GPGGA,110233.000,2218.821491,N,11410.193062,E,1,19,0.8,96.2,M,,M,,*79
$GPRMC,110233.000,A,2218.821491,N,11410.193062,E,0.2,106.985038144,120921,,E,A*2F
$GPGGA,110234.000,2218.821479,N,11410.193102,E,1,19,0.8,96.4,M,,M,,*79
$GPRMC,110234.000,A,2218.821479,N,11410.193102,E,0.1,0.0,120921,,E,A*23
$GPGGA,110235.000,2218.821452,N,11410.193156,E,1,19,0.8,95.3,M,,M,,*74
$GPRMC,110235.000,A,2218.821452,N,11410.193156,E,0.0,117.475293586,120921,,E,A*29
$GPGGA,110236.000,2218.821399,N,11410.193108,E,1,19,0.8,94.7,M,,M,,*79
$GPRMC,110236.000,A,2218.821399,N,11410.193108,E,0.2,109.152352815,120921,,E,A*27
$GPGGA,110237.000,2218.821339,N,11410.193028,E,1,19,0.8,94.6,M,,M,,*70
$GPRMC,110237.000,A,2218.821339,N,11410.193028,E,0.3,0.0,120921,,E,A*28
$GPGGA,110238.000,2218.821304,N,11410.192909,E,1,19,0.8,94.5,M,,M,,*79
$GPRMC,110238.000,A,2218.821304,N,11410.192909,E,0.3,112.675890355,120921,,E,A*26
$GPGGA,110239.000,2218.821310,N,11410.192807,E,1,19,0.8,94.0,M,,M,,*77
$GPRMC,110239.000,A,2218.821310,N,11410.192807,E,0.3,110.25908936,120921,,E,A*13
$GPGGA,110240.000,2218.821338,N,11410.192770,E,1,19,0.8,94.0,M,,M,,*7C
$GPRMC,110240.000,A,2218.821338,N,11410.192770,E,0.2,145.712675642,120921,,E,A*23
$GPGGA,110241.000,2218.821330,N,11410.192584,E,1,19,0.8,94.1,M,,M,,*7D
$GPRMC,110241.000,A,2218.821330,N,11410.192584,E,0.4,109.385590118,120921,,E,A*27
$GPGGA,110242.000,2218.821280,N,11410.192362,E,1,19,0.8,93.5,M,,M,,*79
$GPRMC,110242.000,A,2218.821280,N,11410.192362,E,0.7,111.627743173,120921,,E,A*26
$GPGGA,110243.000,2218.821246,N,11410.192360,E,1,19,0.8,93.1,M,,M,,*74
$GPRMC,110243.000,A,2218.821246,N,11410.192360,E,0.3,108.56600838899999,120921,,E,A*12
$GPGGA,110244.000,2218.821280,N,11410.192318,E,1,19,0.8,91.5,M,,M,,*70
$GPRMC,110244.000,A,2218.821280,N,11410.192318,E,0.0,0.0,120921,,E,A*2D
$GPGGA,110245.000,2218.821220,N,11410.192373,E,1,19,0.8,91.5,M,,M,,*76
$GPRMC,110245.000,A,2218.821220,N,11410.192373,E,0.3,0.0,120921,,E,A*28
$GPGGA,110246.000,2218.821148,N,11410.192403,E,1,19,0.8,91.7,M,,M,,*7A
$GPRMC,110246.000,A,2218.821148,N,11410.192403,E,0.3,0.0,120921,,E,A*26
$GPGGA,110247.000,2218.821135,N,11410.192427,E,1,19,0.8,91.9,M,,M,,*79
$GPRMC,110247.000,A,2218.821135,N,11410.192427,E,0.1,0.0,120921,,E,A*29
$GPGGA,110248.000,2218.821204,N,11410.192434,E,1,19,0.8,92.2,M,,M,,*7D
$GPRMC,110248.000,A,2218.821204,N,11410.192434,E,0.4,0.0,120921,,E,A*20
$GPGGA,110249.000,2218.821231,N,11410.192400,E,1,19,0.8,92.6,M,,M,,*79
$GPRMC,110249.000,A,2218.821231,N,11410.192400,E,0.1,0.0,120921,,E,A*25
$GPGGA,110250.000,2218.821204,N,11410.192369,E,1,19,0.8,92.8,M,,M,,*71
$GPRMC,110250.000,A,2218.821204,N,11410.192369,E,0.1,0.0,120921,,E,A*23
$GPGGA,110251.000,2218.821170,N,11410.192388,E,1,19,0.8,92.8,M,,M,,*7F
$GPRMC,110251.000,A,2218.821170,N,11410.192388,E,0.1,0.0,120921,,E,A*2D
$GPGGA,110252.000,2218.821110,N,11410.192405,E,1,19,0.8,92.6,M,,M,,*76
$GPRMC,110252.000,A,2218.821110,N,11410.192405,E,0.3,0.0,120921,,E,A*28
$GPGGA,110253.000,2218.821093,N,11410.192382,E,1,19,0.8,91.6,M,,M,,*76
$GPRMC,110253.000,A,2218.821093,N,11410.192382,E,0.2,0.0,120921,,E,A*2A
$GPGGA,110254.000,2218.821174,N,11410.192331,E,1,19,0.8,92.1,M,,M,,*75
$GPRMC,110254.000,A,2218.821174,N,11410.192331,E,0.5,0.0,120921,,E,A*2A
$GPGGA,110255.000,2218.821192,N,11410.190799,E,1,19,0.8,93.3,M,,M,,*7B
$GPRMC,110255.000,A,2218.821192,N,11410.190799,E,0.5,0.0,120921,,E,A*27
$GPGGA,110256.000,2218.821604,N,11410.189326,E,1,19,0.8,90.2,M,,M,,*7A
$GPRMC,110256.000,A,2218.821604,N,11410.189326,E,0.3,0.0,120921,,E,A*22
$GPGGA,110257.000,2218.821636,N,11410.189330,E,1,19,0.8,90.2,M,,M,,*7D
$GPRMC,110257.000,A,2218.821636,N,11410.189330,E,0.2,0.0,120921,,E,A*24
$GPGGA,110258.000,2218.821640,N,11410.189326,E,1,19,0.8,90.2,M,,M,,*74
$GPRMC,110258.000,A,2218.821640,N,11410.189326,E,0.1,0.0,120921,,E,A*2E
$GPGGA,110259.000,2218.821660,N,11410.189301,E,1,19,0.8,90.2,M,,M,,*72
$GPRMC,110259.000,A,2218.821660,N,11410.189301,E,0.1,0.0,120921,,E,A*28
$GPGGA,110300.000,2218.821677,N,11410.189318,E,1,19,0.8,90.2,M,,M,,*71
$GPRMC,110300.000,A,2218.821677,N,11410.189318,E,0.1,0.0,120921,,E,A*2B
$GPGGA,110301.000,2218.821657,N,11410.189322,E,1,19,0.8,90.2,M,,M,,*7B
$GPRMC,110301.000,A,2218.821657,N,11410.189322,E,0.0,0.0,120921,,E,A*20
$GPGGA,110302.000,2218.821671,N,11410.189262,E,1,19,0.8,90.2,M,,M,,*79
$GPRMC,110302.000,A,2218.821671,N,11410.189262,E,0.1,104.406703173,120921,,E,A*25
$GPGGA,110303.000,2218.821746,N,11410.189005,E,1,19,0.8,90.2,M,,M,,*7E
$GPRMC,110303.000,A,2218.821746,N,11410.189005,E,0.3,104.414537401,120921,,E,A*26
$GPGGA,110304.000,2218.821336,N,11410.187735,E,1,19,0.8,89.1,M,,M,,*7B
$GPRMC,110304.000,A,2218.821336,N,11410.187735,E,1.5,92.03115157399999,120921,,E,A*2B
$GPGGA,110305.000,2218.821363,N,11410.187640,E,1,19,0.8,88.9,M,,M,,*70
$GPRMC,110305.000,A,2218.821363,N,11410.187640,E,0.5,92.836724584,120921,,E,A*12
$GPGGA,110306.000,2218.821290,N,11410.187544,E,1,19,0.8,89.1,M,,M,,*70
$GPRMC,110306.000,A,2218.821290,N,11410.187544,E,1.1,102.83634021200001,120921,,E,A*19
$GPGGA,110307.000,2218.821191,N,11410.187217,E,1,19,0.8,89.1,M,,M,,*72
$GPRMC,110307.000,A,2218.821191,N,11410.187217,E,1.1,106.24080023200001,120921,,E,A*19
$GPGGA,110308.000,2218.821173,N,11410.186379,E,1,19,0.8,88.7,M,,M,,*7E
$GPRMC,110308.000,A,2218.821173,N,11410.186379,E,2.2,114.10066100200001,120921,,E,A*1E
$GPGGA,110309.000,2218.821150,N,11410.186017,E,1,19,0.8,88.6,M,,M,,*74
$GPRMC,110309.000,A,2218.821150,N,11410.186017,E,0.6,112.143477103,120921,,E,A*26
$GPGGA,110310.000,2218.820991,N,11410.185939,E,1,19,0.8,88.8,M,,M,,*70
$GPRMC,110310.000,A,2218.820991,N,11410.185939,E,0.4,290.612148953,120921,,E,A*20
$GPGGA,110311.000,2218.820734,N,11410.186092,E,1,19,0.8,89.0,M,,M,,*72
$GPRMC,110311.000,A,2218.820734,N,11410.186092,E,0.8,106.17583147200001,120921,,E,A*15
$GPGGA,110312.000,2218.820527,N,11410.186223,E,1,19,0.8,89.2,M,,M,,*7B
$GPRMC,110312.000,A,2218.820527,N,11410.186223,E,0.8,103.389366975,120921,,E,A*28
$GPGGA,110313.000,2218.820695,N,11410.186324,E,1,19,0.8,89.2,M,,M,,*76
$GPRMC,110313.000,A,2218.820695,N,11410.186324,E,0.4,296.08485175,120921,,E,A*1E
$GPGGA,110314.000,2218.820963,N,11410.186348,E,1,19,0.8,89.3,M,,M,,*7C
$GPRMC,110314.000,A,2218.820963,N,11410.186348,E,1.4,103.12641835,120921,,E,A*17
$GPGGA,110315.000,2218.821355,N,11410.186431,E,1,19,0.8,89.3,M,,M,,*7A
$GPRMC,110315.000,A,2218.821355,N,11410.186431,E,1.4,71.414519022,120921,,E,A*17
$GPGGA,110316.000,2218.821816,N,11410.186536,E,1,19,0.8,88.6,M,,M,,*77
$GPRMC,110316.000,A,2218.821816,N,11410.186536,E,1.5,100.217577352,120921,,E,A*21
$GPGGA,110317.000,2218.822281,N,11410.186629,E,1,19,0.8,88.7,M,,M,,*7D
$GPRMC,110317.000,A,2218.822281,N,11410.186629,E,1.6,98.344814592,120921,,E,A*1C
$GPGGA,110318.000,2218.822782,N,11410.186938,E,1,19,0.8,89.1,M,,M,,*7C
$GPRMC,110318.000,A,2218.822782,N,11410.186938,E,1.7,98.348338969,120921,,E,A*1A
$GPGGA,110319.000,2218.823244,N,11410.187083,E,1,19,0.8,89.5,M,,M,,*7F
$GPRMC,110319.000,A,2218.823244,N,11410.187083,E,1.7,98.35378263,120921,,E,A*21
$GPGGA,110320.000,2218.823431,N,11410.187393,E,1,19,0.8,89.7,M,,M,,*71
$GPRMC,110320.000,A,2218.823431,N,11410.187393,E,1.5,83.920588708,120921,,E,A*19
$GPGGA,110321.000,2218.823942,N,11410.186204,E,1,19,0.8,90.1,M,,M,,*79
$GPRMC,110321.000,A,2218.823942,N,11410.186204,E,1.6,113.239927383,120921,,E,A*29
$GPGGA,110322.000,2218.824012,N,11410.186295,E,1,19,0.8,90.4,M,,M,,*7C
$GPRMC,110322.000,A,2218.824012,N,11410.186295,E,1.0,111.22946800700001,120921,,E,A*14
$GPGGA,110323.000,2218.823472,N,11410.189034,E,1,19,0.8,97.1,M,,M,,*7C
$GPRMC,110323.000,A,2218.823472,N,11410.189034,E,0.9,110.704561133,120921,,E,A*2A
$GPGGA,110324.000,2218.823572,N,11410.189165,E,1,19,0.8,98.1,M,,M,,*70
$GPRMC,110324.000,A,2218.823572,N,11410.189165,E,0.9,97.684027933,120921,,E,A*11
$GPGGA,110325.000,2218.823646,N,11410.189260,E,1,19,0.8,99.5,M,,M,,*76
$GPRMC,110325.000,A,2218.823646,N,11410.189260,E,0.3,113.14355341299999,120921,,E,A*18
$GPGGA,110326.000,2218.823815,N,11410.189204,E,1,19,0.8,101.1,M,,M,,*4B
$GPRMC,110326.000,A,2218.823815,N,11410.189204,E,1.0,97.65434393,120921,,E,A*2C
$GPGGA,110327.000,2218.824027,N,11410.189173,E,1,19,0.8,101.9,M,,M,,*4F
$GPRMC,110327.000,A,2218.824027,N,11410.189173,E,0.5,105.74729173799999,120921,,E,A*13
$GPGGA,110328.000,2218.824180,N,11410.189129,E,1,19,0.8,102.1,M,,M,,*48
$GPRMC,110328.000,A,2218.824180,N,11410.189129,E,0.6,111.749805485,120921,,E,A*23
$GPGGA,110329.000,2218.824331,N,11410.189088,E,1,19,0.8,102.1,M,,M,,*4B
$GPRMC,110329.000,A,2218.824331,N,11410.189088,E,0.6,45.649808907,120921,,E,A*1B
$GPGGA,110330.000,2218.824846,N,11410.189205,E,1,19,0.8,102.0,M,,M,,*4E
$GPRMC,110330.000,A,2218.824846,N,11410.189205,E,1.0,111.771450355,120921,,E,A*2E
$GPGGA,110331.000,2218.825274,N,11410.189269,E,1,19,0.8,101.1,M,,M,,*4D
$GPRMC,110331.000,A,2218.825274,N,11410.189269,E,1.4,111.783027525,120921,,E,A*23
$GPGGA,110332.000,2218.825546,N,11410.189473,E,1,19,0.8,101.7,M,,M,,*43
$GPRMC,110332.000,A,2218.825546,N,11410.189473,E,1.0,105.762980683,120921,,E,A*2E
$GPGGA,110333.000,2218.825773,N,11410.189754,E,1,19,0.8,102.5,M,,M,,*41
$GPRMC,110333.000,A,2218.825773,N,11410.189754,E,0.8,115.84476348700001,120921,,E,A*1A
$GPGGA,110334.000,2218.826007,N,11410.189810,E,1,19,0.8,102.8,M,,M,,*43
$GPRMC,110334.000,A,2218.826007,N,11410.189810,E,0.9,95.979178545,120921,,E,A*10
$GPGGA,110335.000,2218.826298,N,11410.189946,E,1,19,0.8,102.8,M,,M,,*44
$GPRMC,110335.000,A,2218.826298,N,11410.189946,E,1.1,121.02425992,120921,,E,A*1E
$GPGGA,110336.000,2218.826534,N,11410.189604,E,1,19,0.8,103.4,M,,M,,*42
$GPRMC,110336.000,A,2218.826534,N,11410.189604,E,1.0,95.97695190299999,120921,,E,A*2E
$GPGGA,110337.000,2218.826791,N,11410.189461,E,1,19,0.8,103.9,M,,M,,*42
$GPRMC,110337.000,A,2218.826791,N,11410.189461,E,1.0,91.124218555,120921,,E,A*19
$GPGGA,110338.000,2218.827004,N,11410.189443,E,1,19,0.8,103.8,M,,M,,*46
$GPRMC,110338.000,A,2218.827004,N,11410.189443,E,0.9,111.708161821,120921,,E,A*26
$GPGGA,110339.000,2218.826887,N,11410.189842,E,1,19,0.8,104.3,M,,M,,*44
$GPRMC,110339.000,A,2218.826887,N,11410.189842,E,0.5,91.096774854,120921,,E,A*1D
$GPGGA,110340.000,2218.827018,N,11410.189608,E,1,19,0.8,104.5,M,,M,,*43
$GPRMC,110340.000,A,2218.827018,N,11410.189608,E,0.9,111.71243752,120921,,E,A*18
$GPGGA,110341.000,2218.827143,N,11410.189637,E,1,19,0.8,105.5,M,,M,,*40
$GPRMC,110341.000,A,2218.827143,N,11410.189637,E,0.6,91.130686744,120921,,E,A*12
$GPGGA,110342.000,2218.827155,N,11410.189833,E,1,19,0.8,106.3,M,,M,,*4B
$GPRMC,110342.000,A,2218.827155,N,11410.189833,E,1.1,105.33208453399999,120921,,E,A*19
$GPGGA,110343.000,2218.827217,N,11410.189977,E,1,19,0.8,107.3,M,,M,,*4F
$GPRMC,110343.000,A,2218.827217,N,11410.189977,E,0.5,111.71924038799999,120921,,E,A*12
$GPGGA,110344.000,2218.827240,N,11410.190071,E,1,19,0.8,108.1,M,,M,,*40
$GPRMC,110344.000,A,2218.827240,N,11410.190071,E,0.4,67.348384418,120921,,E,A*10
$GPGGA,110345.000,2218.827275,N,11410.190189,E,1,19,0.8,108.4,M,,M,,*44
$GPRMC,110345.000,A,2218.827275,N,11410.190189,E,0.4,125.143710981,120921,,E,A*2B
$GPGGA,110346.000,2218.827239,N,11410.190232,E,1,19,0.8,108.6,M,,M,,*4E
$GPRMC,110346.000,A,2218.827239,N,11410.190232,E,0.3,125.14864237799999,120921,,E,A*13
$GPGGA,110347.000,2218.827377,N,11410.189547,E,1,19,0.8,108.5,M,,M,,*4A
$GPRMC,110347.000,A,2218.827377,N,11410.189547,E,0.7,126.64326537,120921,,E,A*10
$GPGGA,110348.000,2218.828168,N,11410.184046,E,1,19,0.8,120.4,M,,M,,*44
$GPRMC,110348.000,A,2218.828168,N,11410.184046,E,2.3,132.578945715,120921,,E,A*23
$GPGGA,110349.000,2218.828255,N,11410.183323,E,1,19,0.8,120.2,M,,M,,*49
$GPRMC,110349.000,A,2218.828255,N,11410.183323,E,2.5,139.216400685,120921,,E,A*2E
$GPGGA,110350.000,2218.828372,N,11410.182598,E,1,19,0.8,120.2,M,,M,,*42
$GPRMC,110350.000,A,2218.828372,N,11410.182598,E,2.5,132.562922091,120921,,E,A*24
$GPGGA,110351.000,2218.828595,N,11410.182270,E,1,19,0.8,119.8,M,,M,,*4D
$GPRMC,110351.000,A,2218.828595,N,11410.182270,E,1.9,126.66049110799999,120921,,E,A*12
$GPGGA,110352.000,2218.828614,N,11410.182129,E,1,19,0.8,118.7,M,,M,,*45
$GPRMC,110352.000,A,2218.828614,N,11410.182129,E,0.6,125.313345561,120921,,E,A*2B
$GPGGA,110353.000,2218.828684,N,11410.181967,E,1,19,0.8,118.7,M,,M,,*4C
$GPRMC,110353.000,A,2218.828684,N,11410.181967,E,0.7,133.47152850700002,120921,,E,A*18
$GPGGA,110354.000,2218.828892,N,11410.182062,E,1,19,0.8,119.1,M,,M,,*4A
$GPRMC,110354.000,A,2218.828892,N,11410.182062,E,0.5,132.600938925,120921,,E,A*2D
$GPGGA,110355.000,2218.828958,N,11410.181967,E,1,19,0.8,119.3,M,,M,,*41
$GPRMC,110355.000,A,2218.828958,N,11410.181967,E,0.6,132.57910964,120921,,E,A*1C
$GPGGA,110356.000,2218.828919,N,11410.181916,E,1,19,0.8,119.6,M,,M,,*44
$GPRMC,110356.000,A,2218.828919,N,11410.181916,E,0.2,133.543914852,120921,,E,A*29
$GPGGA,110357.000,2218.828921,N,11410.181900,E,1,19,0.8,119.8,M,,M,,*47
$GPRMC,110357.000,A,2218.828921,N,11410.181900,E,0.2,121.98707071700001,120921,,E,A*17
$GPGGA,110358.000,2218.828945,N,11410.181833,E,1,19,0.8,119.9,M,,M,,*4A
$GPRMC,110358.000,A,2218.828945,N,11410.181833,E,0.2,121.98707071700001,120921,,E,A*1B
$GPGGA,110359.000,2218.828892,N,11410.182184,E,1,19,0.8,119.9,M,,M,,*46
$GPRMC,110359.000,A,2218.828892,N,11410.182184,E,0.5,106.870270474,120921,,E,A*29
$GPGGA,110400.000,2218.829599,N,11410.180984,E,1,19,0.8,120.4,M,,M,,*47
$GPRMC,110400.000,A,2218.829599,N,11410.180984,E,0.5,117.762475723,120921,,E,A*21
$GPGGA,110401.000,2218.829791,N,11410.180808,E,1,19,0.8,120.3,M,,M,,*4E
$GPRMC,110401.000,A,2218.829791,N,11410.180808,E,0.7,79.381381536,120921,,E,A*17
$GPGGA,110402.000,2218.829452,N,11410.181078,E,1,19,0.8,120.0,M,,M,,*4C
$GPRMC,110402.000,A,2218.829452,N,11410.181078,E,0.8,120.496231649,120921,,E,A*24
$GPGGA,110403.000,2218.829432,N,11410.181234,E,1,19,0.8,120.0,M,,M,,*41
$GPRMC,110403.000,A,2218.829432,N,11410.181234,E,0.7,131.874288751,120921,,E,A*2C
$GPGGA,110404.000,2218.829557,N,11410.181406,E,1,19,0.8,119.9,M,,M,,*40
$GPRMC,110404.000,A,2218.829557,N,11410.181406,E,0.7,131.874288751,120921,,E,A*2E
$GPGGA,110405.000,2218.829682,N,11410.181579,E,1,19,0.8,119.9,M,,M,,*43
$GPRMC,110405.000,A,2218.829682,N,11410.181579,E,0.7,131.874288751,120921,,E,A*2D
$GPGGA,110406.000,2218.829220,N,11410.178400,E,1,19,0.8,128.1,M,,M,,*4F
$GPRMC,110406.000,A,2218.829220,N,11410.178400,E,0.5,131.875668449,120921,,E,A*28
$GPGGA,110407.000,2218.835692,N,11410.196144,E,1,19,0.8,116.9,M,,M,,*4E
$GPRMC,110407.000,A,2218.835692,N,11410.196144,E,1.0,131.877936072,120921,,E,A*22
$GPGGA,110408.000,2218.835589,N,11410.197232,E,1,19,0.8,112.1,M,,M,,*47
$GPRMC,110408.000,A,2218.835589,N,11410.197232,E,1.6,133.897554731,120921,,E,A*25
$GPGGA,110409.000,2218.835932,N,11410.197090,E,1,19,0.8,112.1,M,,M,,*40
$GPRMC,110409.000,A,2218.835932,N,11410.197090,E,1.4,132.108263714,120921,,E,A*2A
$GPGGA,110410.000,2218.836296,N,11410.196931,E,1,19,0.8,112.1,M,,M,,*4D
$GPRMC,110410.000,A,2218.836296,N,11410.196931,E,1.4,120.785954617,120921,,E,A*2A
$GPGGA,110411.000,2218.836660,N,11410.196772,E,1,19,0.8,112.1,M,,M,,*48
$GPRMC,110411.000,A,2218.836660,N,11410.196772,E,1.4,120.785954617,120921,,E,A*2F
$GPGGA,110412.000,2218.835705,N,11410.203220,E,1,19,0.8,113.6,M,,M,,*41
$GPRMC,110412.000,A,2218.835705,N,11410.203220,E,1.7,132.144545679,120921,,E,A*2F
$GPGGA,110413.000,2218.840231,N,11410.199852,E,1,19,0.8,106.7,M,,M,,*4A
$GPRMC,110413.000,A,2218.840231,N,11410.199852,E,3.3,-25.641786335,120921,,E,A*3F
$GPGGA,110414.000,2218.844523,N,11410.197236,E,1,19,0.8,99.1,M,,M,,*7A
$GPRMC,110414.000,A,2218.844523,N,11410.197236,E,4.9,-25.768440454,120921,,E,A*30
$GPGGA,110418.000,2218.865075,N,11410.182635,E,1,19,0.8,62.4,M,,M,,*71
$GPRMC,110418.000,A,2218.865075,N,11410.182635,E,1.0,129.022247607,120921,,E,A*2A
$GPGGA,110419.000,2218.864991,N,11410.182258,E,1,19,0.8,63.0,M,,M,,*78
$GPRMC,110419.000,A,2218.864991,N,11410.182258,E,2.0,122.87166218700001,120921,,E,A*1D
$GPGGA,110420.000,2218.865086,N,11410.181839,E,1,19,0.8,63.4,M,,M,,*76
$GPRMC,110420.000,A,2218.865086,N,11410.181839,E,1.1,128.040407902,120921,,E,A*20
$GPGGA,110421.000,2218.864960,N,11410.181725,E,1,19,0.8,63.8,M,,M,,*79
$GPRMC,110421.000,A,2218.864960,N,11410.181725,E,1.0,132.49117778299998,120921,,E,A*1D
$GPGGA,110422.000,2218.864963,N,11410.181649,E,1,19,0.8,64.9,M,,M,,*74
$GPRMC,110422.000,A,2218.864963,N,11410.181649,E,0.6,21.828618899000002,120921,,E,A*1D
$GPGGA,110423.000,2218.865039,N,11410.181535,E,1,19,0.8,65.3,M,,M,,*71
$GPRMC,110423.000,A,2218.865039,N,11410.181535,E,0.6,119.11171130700001,120921,,E,A*1D
$GPGGA,110424.000,2218.865214,N,11410.181393,E,1,19,0.8,64.8,M,,M,,*7B
$GPRMC,110424.000,A,2218.865214,N,11410.181393,E,0.7,125.428967005,120921,,E,A*23
$GPGGA,110425.000,2218.865235,N,11410.181341,E,1,19,0.8,64.6,M,,M,,*78
$GPRMC,110425.000,A,2218.865235,N,11410.181341,E,0.4,119.11937478,120921,,E,A*17
$GPGGA,110426.000,2218.865309,N,11410.181240,E,1,19,0.8,64.7,M,,M,,*74
$GPRMC,110426.000,A,2218.865309,N,11410.181240,E,0.4,119.11937478,120921,,E,A*1A
$GPGGA,110427.000,2218.865589,N,11410.180872,E,1,19,0.8,65.0,M,,M,,*77
$GPRMC,110427.000,A,2218.865589,N,11410.180872,E,0.8,98.29053507799999,120921,,E,A*2C
$GPGGA,110428.000,2218.866265,N,11410.180527,E,1,19,0.8,65.2,M,,M,,*71
$GPRMC,110428.000,A,2218.866265,N,11410.180527,E,1.6,109.65637297,120921,,E,A*12
$GPGGA,110429.000,2218.866465,N,11410.180224,E,1,19,0.8,65.1,M,,M,,*71
$GPRMC,110429.000,A,2218.866465,N,11410.180224,E,1.0,109.149798324,120921,,E,A*25
$GPGGA,110430.000,2218.867188,N,11410.184786,E,1,19,0.8,72.4,M,,M,,*74
$GPRMC,110430.000,A,2218.867188,N,11410.184786,E,1.2,109.156341646,120921,,E,A*2E
$GPGGA,110431.000,2218.868207,N,11410.185336,E,1,19,0.8,74.7,M,,M,,*75
$GPRMC,110431.000,A,2218.868207,N,11410.185336,E,1.5,98.30226934299999,120921,,E,A*24
$GPGGA,110432.000,2218.868573,N,11410.185439,E,1,19,0.8,75.3,M,,M,,*7F
$GPRMC,110432.000,A,2218.868573,N,11410.185439,E,1.2,109.16362262700001,120921,,E,A*15
$GPGGA,110433.000,2218.869028,N,11410.185258,E,1,19,0.8,74.8,M,,M,,*7F
$GPRMC,110433.000,A,2218.869028,N,11410.185258,E,1.8,109.577545756,120921,,E,A*20
$GPGGA,110434.000,2218.869412,N,11410.185007,E,1,19,0.8,74.6,M,,M,,*73
$GPRMC,110434.000,A,2218.869412,N,11410.185007,E,1.6,109.149538777,120921,,E,A*2C
$GPGGA,110435.000,2218.869636,N,11410.184901,E,1,19,0.8,74.8,M,,M,,*76
$GPRMC,110435.000,A,2218.869636,N,11410.184901,E,1.0,95.479324805,120921,,E,A*12
$GPGGA,110436.000,2218.870063,N,11410.185019,E,1,19,0.8,75.0,M,,M,,*73
$GPRMC,110436.000,A,2218.870063,N,11410.185019,E,1.9,96.96993847700001,120921,,E,A*27
$GPGGA,110437.000,2218.870593,N,11410.185150,E,1,19,0.8,75.0,M,,M,,*74
$GPRMC,110437.000,A,2218.870593,N,11410.185150,E,2.0,110.778545743,120921,,E,A*28
$GPGGA,110438.000,2218.870771,N,11410.185501,E,1,19,0.8,75.3,M,,M,,*76
$GPRMC,110438.000,A,2218.870771,N,11410.185501,E,1.5,111.060830635,120921,,E,A*2F
$GPGGA,110439.000,2218.871065,N,11410.185684,E,1,19,0.8,75.3,M,,M,,*7A
$GPRMC,110439.000,A,2218.871065,N,11410.185684,E,1.1,109.092704772,120921,,E,A*29
$GPGGA,110440.000,2218.871417,N,11410.185902,E,1,19,0.8,76.8,M,,M,,*7C
$GPRMC,110440.000,A,2218.871417,N,11410.185902,E,1.6,68.665886943,120921,,E,A*11
$GPGGA,110441.000,2218.872854,N,11410.184723,E,1,19,0.8,76.7,M,,M,,*76
$GPRMC,110441.000,A,2218.872854,N,11410.184723,E,2.1,109.08291028100001,120921,,E,A*13
$GPGGA,110442.000,2218.873319,N,11410.184539,E,1,19,0.8,77.0,M,,M,,*79
$GPRMC,110442.000,A,2218.873319,N,11410.184539,E,1.7,91.854147219,120921,,E,A*16
$GPGGA,110443.000,2218.873579,N,11410.184250,E,1,19,0.8,77.8,M,,M,,*78
$GPRMC,110443.000,A,2218.873579,N,11410.184250,E,1.2,104.516505296,120921,,E,A*29
$GPGGA,110444.000,2218.873964,N,11410.183632,E,1,19,0.8,78.4,M,,M,,*7B
$GPRMC,110444.000,A,2218.873964,N,11410.183632,E,2.5,324.086988428,120921,,E,A*2B
$GPGGA,110445.000,2218.874232,N,11410.183601,E,1,19,0.8,79.3,M,,M,,*73
$GPRMC,110445.000,A,2218.874232,N,11410.183601,E,1.1,0.0,120921,,E,A*2E
$GPGGA,110446.000,2218.874689,N,11410.183723,E,1,19,0.8,80.2,M,,M,,*72
$GPRMC,110446.000,A,2218.874689,N,11410.183723,E,2.0,47.57640038899999,120921,,E,A*23
$GPGGA,110447.000,2218.875240,N,11410.183750,E,1,19,0.8,81.3,M,,M,,*77
$GPRMC,110447.000,A,2218.875240,N,11410.183750,E,1.9,88.205282537,120921,,E,A*1B
$GPGGA,110448.000,2218.875876,N,11410.183573,E,1,19,0.8,81.6,M,,M,,*71
$GPRMC,110448.000,A,2218.875876,N,11410.183573,E,2.1,60.152540986999995,120921,,E,A*17
$GPGGA,110449.000,2218.876499,N,11410.183411,E,1,19,0.8,81.5,M,,M,,*78
$GPRMC,110449.000,A,2218.876499,N,11410.183411,E,2.3,104.83686849200001,120921,,E,A*15
$GPGGA,110450.000,2218.877119,N,11410.183388,E,1,19,0.8,81.7,M,,M,,*79
$GPRMC,110450.000,A,2218.877119,N,11410.183388,E,2.3,91.76732868399999,120921,,E,A*25
$GPGGA,110451.000,2218.877414,N,11410.183874,E,1,19,0.8,82.4,M,,M,,*78
$GPRMC,110451.000,A,2218.877414,N,11410.183874,E,1.9,118.65064621200001,120921,,E,A*11
$GPGGA,110452.000,2218.877945,N,11410.183694,E,1,19,0.8,77.8,M,,M,,*74
$GPRMC,110452.000,A,2218.877945,N,11410.183694,E,1.3,105.202925655,120921,,E,A*22
$GPGGA,110453.000,2218.878088,N,11410.184026,E,1,19,0.8,79.3,M,,M,,*7F
$GPRMC,110453.000,A,2218.878088,N,11410.184026,E,1.2,104.21019862899999,120921,,E,A*12
$GPGGA,110454.000,2218.878366,N,11410.184106,E,1,19,0.8,79.6,M,,M,,*7D
$GPRMC,110454.000,A,2218.878366,N,11410.184106,E,1.0,105.204161919,120921,,E,A*21
$GPGGA,110455.000,2218.878758,N,11410.183806,E,1,19,0.8,79.9,M,,M,,*74
$GPRMC,110455.000,A,2218.878758,N,11410.183806,E,1.5,68.67169943399999,120921,,E,A*22
$GPGGA,110456.000,2218.879084,N,11410.183502,E,1,19,0.8,80.4,M,,M,,*72
$GPRMC,110456.000,A,2218.879084,N,11410.183502,E,1.6,105.20263195700001,120921,,E,A*13
$GPGGA,110457.000,2218.879752,N,11410.189851,E,1,19,0.8,147.4,M,,M,,*44
$GPRMC,110457.000,A,2218.879752,N,11410.189851,E,0.8,104.531197033,120921,,E,A*27
$GPGGA,110458.000,2218.879974,N,11410.189850,E,1,19,0.8,147.8,M,,M,,*4C
$GPRMC,110458.000,A,2218.879974,N,11410.189850,E,0.9,104.52989246700001,120921,,E,A*13
$GPGGA,110459.000,2218.880252,N,11410.189895,E,1,19,0.8,148.1,M,,M,,*4B
$GPRMC,110459.000,A,2218.880252,N,11410.189895,E,1.0,104.82341985,120921,,E,A*1B
$GPGGA,110500.000,2218.880607,N,11410.190127,E,1,19,0.8,148.0,M,,M,,*4B
$GPRMC,110500.000,A,2218.880607,N,11410.190127,E,1.3,105.238811469,120921,,E,A*2A
$GPGGA,110501.000,2218.880873,N,11410.190275,E,1,19,0.8,148.3,M,,M,,*40
$GPRMC,110501.000,A,2218.880873,N,11410.190275,E,1.1,104.523827259,120921,,E,A*2C
$GPGGA,110502.000,2218.880846,N,11410.190914,E,1,19,0.8,148.4,M,,M,,*4E
$GPRMC,110502.000,A,2218.880846,N,11410.190914,E,1.2,88.30475058299999,120921,,E,A*27
$GPGGA,110503.000,2218.880948,N,11410.191237,E,1,19,0.8,148.2,M,,M,,*4D
$GPRMC,110503.000,A,2218.880948,N,11410.191237,E,1.2,88.303739715,120921,,E,A*1F
$GPGGA,110504.000,2218.882029,N,11410.189533,E,1,19,0.8,125.0,M,,M,,*45
$GPRMC,110504.000,A,2218.882029,N,11410.189533,E,1.7,88.318301679,120921,,E,A*15
$GPGGA,110505.000,2218.882187,N,11410.189500,E,1,19,0.8,124.6,M,,M,,*46
$GPRMC,110505.000,A,2218.882187,N,11410.189500,E,0.9,88.31500269700001,120921,,E,A*22
$GPGGA,110506.000,2218.882305,N,11410.189713,E,1,19,0.8,124.1,M,,M,,*4A
$GPRMC,110506.000,A,2218.882305,N,11410.189713,E,0.9,104.50757140799999,120921,,E,A*1B
$GPGGA,110507.000,2218.882357,N,11410.189943,E,1,19,0.8,124.7,M,,M,,*41
$GPRMC,110507.000,A,2218.882357,N,11410.189943,E,0.8,104.503493785,120921,,E,A*2E
$GPGGA,110508.000,2218.882483,N,11410.190179,E,1,19,0.8,125.5,M,,M,,*4A
$GPRMC,110508.000,A,2218.882483,N,11410.190179,E,0.9,104.504695899,120921,,E,A*26
$GPGGA,110509.000,2218.883223,N,11410.187323,E,1,19,0.8,169.1,M,,M,,*41
$GPRMC,110509.000,A,2218.883223,N,11410.187323,E,1.0,100.714412148,120921,,E,A*26
$GPGGA,110510.000,2218.883495,N,11410.187408,E,1,19,0.8,169.5,M,,M,,*48
$GPRMC,110510.000,A,2218.883495,N,11410.187408,E,1.1,115.342444049,120921,,E,A*2A
$GPGGA,110511.000,2218.883786,N,11410.187499,E,1,19,0.8,169.8,M,,M,,*4D
$GPRMC,110511.000,A,2218.883786,N,11410.187499,E,1.1,87.982386141,120921,,E,A*1E
$GPGGA,110512.000,2218.884072,N,11410.187661,E,1,19,0.8,169.8,M,,M,,*40
$GPRMC,110512.000,A,2218.884072,N,11410.187661,E,1.1,105.10307511799999,120921,,E,A*1C
$GPGGA,110513.000,2218.884364,N,11410.187830,E,1,19,0.8,169.7,M,,M,,*40
$GPRMC,110513.000,A,2218.884364,N,11410.187830,E,1.2,93.813762666,120921,,E,A*1F
$GPGGA,110514.000,2218.884660,N,11410.187974,E,1,19,0.8,169.7,M,,M,,*47
$GPRMC,110514.000,A,2218.884660,N,11410.187974,E,1.2,105.078479607,120921,,E,A*2D
$GPGGA,110515.000,2218.884638,N,11410.188181,E,1,19,0.8,170.3,M,,M,,*4A
$GPRMC,110515.000,A,2218.884638,N,11410.188181,E,0.8,90.768891619,120921,,E,A*19
$GPGGA,110516.000,2218.889660,N,11410.173657,E,1,19,0.8,146.9,M,,M,,*4E
$GPRMC,110516.000,A,2218.889660,N,11410.173657,E,0.8,98.80949968700001,120921,,E,A*20
$GPGGA,110517.000,2218.889874,N,11410.173696,E,1,19,0.8,146.8,M,,M,,*48
$GPRMC,110517.000,A,2218.889874,N,11410.173696,E,0.8,89.337031236,120921,,E,A*18
$GPGGA,110518.000,2218.890011,N,11410.173651,E,1,19,0.8,146.8,M,,M,,*4F
$GPRMC,110518.000,A,2218.890011,N,11410.173651,E,0.6,115.611307619,120921,,E,A*2B
$GPGGA,110519.000,2218.890219,N,11410.173648,E,1,19,0.8,146.8,M,,M,,*4C
$GPRMC,110519.000,A,2218.890219,N,11410.173648,E,0.7,103.94533072,120921,,E,A*1F
$GPGGA,110520.000,2218.890422,N,11410.173645,E,1,19,0.8,146.8,M,,M,,*45
$GPRMC,110520.000,A,2218.890422,N,11410.173645,E,0.7,103.94240739899999,120921,,E,A*1C
$GPGGA,110521.000,2218.890434,N,11410.173551,E,1,19,0.8,147.2,M,,M,,*4E
$GPRMC,110521.000,A,2218.890434,N,11410.173551,E,0.3,101.91088372,120921,,E,A*13
$GPGGA,110522.000,2218.890484,N,11410.173480,E,1,19,0.8,147.5,M,,M,,*4C
$GPRMC,110522.000,A,2218.890484,N,11410.173480,E,0.3,92.534338446,120921,,E,A*1F
$GPGGA,110523.000,2218.893838,N,11410.167690,E,1,19,0.8,130.0,M,,M,,*46
$GPRMC,110523.000,A,2218.893838,N,11410.167690,E,0.7,101.87149401799999,120921,,E,A*1B
$GPGGA,110524.000,2218.902752,N,11410.160126,E,1,19,0.8,122.6,M,,M,,*43
$GPRMC,110524.000,A,2218.902752,N,11410.160126,E,0.8,101.86418571600001,120921,,E,A*1B
$GPGGA,110525.000,2218.902591,N,11410.159982,E,1,19,0.8,122.6,M,,M,,*43
$GPRMC,110525.000,A,2218.902591,N,11410.159982,E,0.8,101.877067453,120921,,E,A*27
$GPGGA,110526.000,2218.902423,N,11410.159844,E,1,19,0.8,122.6,M,,M,,*43
$GPRMC,110526.000,A,2218.902423,N,11410.159844,E,0.8,98.214071109,120921,,E,A*14
$GPGGA,110527.000,2218.902566,N,11410.159760,E,1,19,0.8,122.6,M,,M,,*4B
$GPRMC,110527.000,A,2218.902566,N,11410.159760,E,0.4,101.915487267,120921,,E,A*2D
$GPGGA,110528.000,2218.902611,N,11410.159675,E,1,19,0.8,122.6,M,,M,,*42
$GPRMC,110528.000,A,2218.902611,N,11410.159675,E,0.4,98.81349534799999,120921,,E,A*2B
$GPGGA,110529.000,2218.879175,N,11410.194942,E,1,19,0.8,340.4,M,,M,,*45
$GPRMC,110529.000,A,2218.879175,N,11410.194942,E,0.0,98.794521082,120921,,E,A*11
$GPGGA,110530.000,2218.879172,N,11410.194935,E,1,19,0.8,340.4,M,,M,,*4A
$GPRMC,110530.000,A,2218.879172,N,11410.194935,E,0.0,104.207862704,120921,,E,A*26
$GPGGA,110531.000,2218.879121,N,11410.195346,E,1,19,0.8,342.9,M,,M,,*4D
$GPRMC,110531.000,A,2218.879121,N,11410.195346,E,0.3,101.553268671,120921,,E,A*2D
$GPGGA,110532.000,2218.884872,N,11410.191615,E,1,19,0.8,293.7,M,,M,,*47
$GPRMC,110532.000,A,2218.884872,N,11410.191615,E,0.2,98.780935836,120921,,E,A*16
$GPGGA,110533.000,2218.884934,N,11410.191642,E,1,19,0.8,293.7,M,,M,,*47
$GPRMC,110533.000,A,2218.884934,N,11410.191642,E,0.2,113.472351893,120921,,E,A*2D
$GPGGA,110534.000,2218.884996,N,11410.191669,E,1,19,0.8,293.7,M,,M,,*41
$GPRMC,110534.000,A,2218.884996,N,11410.191669,E,0.2,113.48198929,120921,,E,A*11
$GPGGA,110535.000,2218.884757,N,11410.191898,E,1,19,0.8,293.7,M,,M,,*43
$GPRMC,110535.000,A,2218.884757,N,11410.191898,E,0.2,113.486142045,120921,,E,A*21
$GPGGA,110536.000,2218.884058,N,11410.192207,E,1,19,0.8,293.7,M,,M,,*47
$GPRMC,110536.000,A,2218.884058,N,11410.192207,E,0.8,113.46896411899999,120921,,E,A*13
$GPGGA,110537.000,2218.872997,N,11410.183483,E,1,19,0.8,397.8,M,,M,,*45
$GPRMC,110537.000,A,2218.872997,N,11410.183483,E,1.2,113.49043140399999,120921,,E,A*15
$GPGGA,110538.000,2218.872780,N,11410.183705,E,1,19,0.8,397.9,M,,M,,*4E
$GPRMC,110538.000,A,2218.872780,N,11410.183705,E,1.0,113.486148875,120921,,E,A*25
$GPGGA,110539.000,2218.881914,N,11410.179156,E,1,19,0.8,332.8,M,,M,,*4B
$GPRMC,110539.000,A,2218.881914,N,11410.179156,E,0.2,110.867666053,120921,,E,A*2A
$GPGGA,110540.000,2218.881917,N,11410.179549,E,1,19,0.8,332.8,M,,M,,*4C
$GPRMC,110540.000,A,2218.881917,N,11410.179549,E,0.4,107.313160435,120921,,E,A*20
$GPGGA,110541.000,2218.882049,N,11410.179655,E,1,19,0.8,332.8,M,,M,,*42
$GPRMC,110541.000,A,2218.882049,N,11410.179655,E,0.4,107.31775032200001,120921,,E,A*1F
$GPGGA,110542.000,2218.882232,N,11410.179768,E,1,19,0.8,332.8,M,,M,,*40
$GPRMC,110542.000,A,2218.882232,N,11410.179768,E,0.6,108.814688749,120921,,E,A*24
$GPGGA,110543.000,2218.882636,N,11410.179996,E,1,19,0.8,332.8,M,,M,,*4E
$GPRMC,110543.000,A,2218.882636,N,11410.179996,E,0.9,136.256907004,120921,,E,A*22
$GPGGA,110544.000,2218.870041,N,11410.191074,E,1,19,0.8,539.1,M,,M,,*45
$GPRMC,110544.000,A,2218.870041,N,11410.191074,E,1.9,91.016902621,120921,,E,A*12
$GPGGA,110545.000,2218.868736,N,11410.187315,E,1,19,0.8,441.7,M,,M,,*41
$GPRMC,110545.000,A,2218.868736,N,11410.187315,E,0.9,96.306126044,120921,,E,A*11
$GPGGA,110546.000,2218.868987,N,11410.187368,E,1,19,0.8,441.7,M,,M,,*4C
$GPRMC,110546.000,A,2218.868987,N,11410.187368,E,0.9,122.657180585,120921,,E,A*27
$GPGGA,110547.000,2218.869237,N,11410.187421,E,1,19,0.8,441.7,M,,M,,*46
$GPRMC,110547.000,A,2218.869237,N,11410.187421,E,0.9,106.545474484,120921,,E,A*25
$GPGGA,110548.000,2218.869115,N,11410.187244,E,1,19,0.8,441.7,M,,M,,*4F
$GPRMC,110548.000,A,2218.869115,N,11410.187244,E,0.5,129.912275908,120921,,E,A*2D
$GPGGA,110549.000,2218.869466,N,11410.187120,E,1,19,0.8,441.7,M,,M,,*4E
$GPRMC,110549.000,A,2218.869466,N,11410.187120,E,0.8,103.629844278,120921,,E,A*2A
$GPGGA,110550.000,2218.866131,N,11410.205446,E,1,19,0.8,414.3,M,,M,,*46
$GPRMC,110550.000,A,2218.866131,N,11410.205446,E,1.4,109.40684566700001,120921,,E,A*14
$GPGGA,110551.000,2218.866408,N,11410.205218,E,1,19,0.8,414.2,M,,M,,*44
$GPRMC,110551.000,A,2218.866408,N,11410.205218,E,0.9,37.003335732,120921,,E,A*1A
$GPGGA,110552.000,2218.866763,N,11410.204765,E,1,19,0.8,414.2,M,,M,,*47
$GPRMC,110552.000,A,2218.866763,N,11410.204765,E,2.0,100.818094421,120921,,E,A*2C
$GPGGA,110553.000,2218.866974,N,11410.204440,E,1,19,0.8,414.3,M,,M,,*4B
$GPRMC,110553.000,A,2218.866974,N,11410.204440,E,1.5,100.804878005,120921,,E,A*22
$GPGGA,110554.000,2218.866834,N,11410.203795,E,1,19,0.8,380.9,M,,M,,*45
$GPRMC,110554.000,A,2218.866834,N,11410.203795,E,1.7,90.68487346100001,120921,,E,A*2C
$GPGGA,110555.000,2218.867078,N,11410.203658,E,1,19,0.8,381.0,M,,M,,*4D
$GPRMC,110555.000,A,2218.867078,N,11410.203658,E,1.4,88.449905765,120921,,E,A*13
$GPGGA,110556.000,2218.867410,N,11410.203427,E,1,19,0.8,381.0,M,,M,,*4E
$GPRMC,110556.000,A,2218.867410,N,11410.203427,E,1.4,79.106309324,120921,,E,A*17
$GPGGA,110557.000,2218.867616,N,11410.203170,E,1,19,0.8,381.0,M,,M,,*4C
$GPRMC,110557.000,A,2218.867616,N,11410.203170,E,1.3,87.431032774,120921,,E,A*18
$GPGGA,110558.000,2218.867524,N,11410.202930,E,1,19,0.8,381.0,M,,M,,*4C
$GPRMC,110558.000,A,2218.867524,N,11410.202930,E,1.1,79.111541249,120921,,E,A*16
$GPGGA,110559.000,2218.867784,N,11410.202640,E,1,19,0.8,381.0,M,,M,,*4D
$GPRMC,110559.000,A,2218.867784,N,11410.202640,E,1.1,88.961876261,120921,,E,A*15
$GPGGA,110600.000,2218.868016,N,11410.202443,E,1,19,0.8,381.0,M,,M,,*40
$GPRMC,110600.000,A,2218.868016,N,11410.202443,E,1.1,194.75381694599997,120921,,E,A*17
$GPGGA,110601.000,2218.867049,N,11410.220417,E,1,19,0.8,365.4,M,,M,,*4B
$GPRMC,110601.000,A,2218.867049,N,11410.220417,E,0.0,87.41326745200001,120921,,E,A*27
$GPGGA,110602.000,2218.867219,N,11410.220134,E,1,19,0.8,365.4,M,,M,,*4B
$GPRMC,110602.000,A,2218.867219,N,11410.220134,E,0.6,146.933230461,120921,,E,A*21
$GPGGA,110603.000,2218.867527,N,11410.219915,E,1,19,0.8,365.4,M,,M,,*41
$GPRMC,110603.000,A,2218.867527,N,11410.219915,E,1.0,110.82782555899999,120921,,E,A*17
$GPGGA,110604.000,2218.867850,N,11410.219502,E,1,19,0.8,365.3,M,,M,,*46
$GPRMC,110604.000,A,2218.867850,N,11410.219502,E,1.3,110.81343435,120921,,E,A*18
$GPGGA,110605.000,2218.868170,N,11410.219201,E,1,19,0.8,365.3,M,,M,,*47
$GPRMC,110605.000,A,2218.868170,N,11410.219201,E,1.4,106.222631929,120921,,E,A*22
$GPGGA,110606.000,2218.868507,N,11410.218808,E,1,19,0.8,365.3,M,,M,,*42
$GPRMC,110606.000,A,2218.868507,N,11410.218808,E,1.5,44.897996316000004,120921,,E,A*15
$GPGGA,110607.000,2218.871439,N,11410.206557,E,1,19,0.8,341.3,M,,M,,*49
$GPRMC,110607.000,A,2218.871439,N,11410.206557,E,1.8,106.21390977700001,120921,,E,A*14
$GPGGA,110608.000,2218.871909,N,11410.206194,E,1,19,0.8,341.3,M,,M,,*43
$GPRMC,110608.000,A,2218.871909,N,11410.206194,E,1.9,44.653700936999996,120921,,E,A*1A
$GPGGA,110609.000,2218.872280,N,11410.205878,E,1,19,0.8,341.3,M,,M,,*43
$GPRMC,110609.000,A,2218.872280,N,11410.205878,E,1.8,44.583472931,120921,,E,A*1B
$GPGGA,110610.000,2218.872293,N,11410.205744,E,1,19,0.8,341.3,M,,M,,*49
$GPRMC,110610.000,A,2218.872293,N,11410.205744,E,1.4,44.514976379,120921,,E,A*1C
$GPGGA,110611.000,2218.872491,N,11410.205351,E,1,19,0.8,341.3,M,,M,,*4C
$GPRMC,110611.000,A,2218.872491,N,11410.205351,E,1.4,105.790212648,120921,,E,A*2D
$GPGGA,110612.000,2218.857440,N,11410.224208,E,1,19,0.8,383.4,M,,M,,*43
$GPRMC,110612.000,A,2218.857440,N,11410.224208,E,0.5,106.287744123,120921,,E,A*27
$GPGGA,110613.000,2218.857542,N,11410.224107,E,1,19,0.8,383.5,M,,M,,*4C
$GPRMC,110613.000,A,2218.857542,N,11410.224107,E,0.5,96.01735930299999,120921,,E,A*2A
$GPGGA,110614.000,2218.856832,N,11410.226931,E,1,19,0.8,399.2,M,,M,,*43
$GPRMC,110614.000,A,2218.856832,N,11410.226931,E,0.5,96.530852931,120921,,E,A*1A
$GPGGA,110615.000,2218.857818,N,11410.223460,E,1,19,0.8,388.4,M,,M,,*41
$GPRMC,110615.000,A,2218.857818,N,11410.223460,E,0.9,94.84370739399999,120921,,E,A*2D
$GPGGA,110616.000,2218.866933,N,11410.201248,E,1,19,0.8,359.6,M,,M,,*4A
$GPRMC,110616.000,A,2218.866933,N,11410.201248,E,4.7,-75.919550626,120921,,E,A*3C
$GPGGA,110617.000,2218.884200,N,11410.192074,E,1,19,0.8,323.3,M,,M,,*40
