     3.04           OBSERVATION DATA    M: Mixed            RINEX VERSION / TYPE
Higeo_Hi1105        Huawei CBG          20220126 062313 UTC PGM / RUN BY / DATE 
************************************************************COMMENT             
* If you have any problem,                                 *COMMENT             
*     please contact with LBS Technology Group, thanks.    *COMMENT             
*                                                          *COMMENT             
* Version Higeo2RinexV1.1 2020.07.21                       *COMMENT             
* Fuction:  Convert Higeo Log to Rinex file                *COMMENT             
*                                                          *COMMENT             
* Note that the verision support B1C B2A signal            *COMMENT             
*     BDS: C1D L1D D1D S1D indicate BDS B1C                *COMMENT             
*     BDS: C5D L5D D5D S5D indicate BDS B2A                *COMMENT             
*     Reference: RINEX V3.04                               *COMMENT             
*                                                          *COMMENT             
* Copyright(C) Huawei Technologies Co., Ltd. 2019 - 2020   *COMMENT             
*     All rights reserved.                                 *COMMENT             
************************************************************COMMENT             
                                                            MARKER NAME         
                                                            MARKER NUMBER       
                                                            MARKER TYPE         
                                                            OBSERVER / AGENCY   
                                                            REC # / TYPE / VERS 
                                                            ANT # / TYPE        
        0.0000        0.0000        0.0000                  APPROX POSITION XYZ 
        0.0000        0.0000        0.0000                  ANTENNA: DELTA H/E/N
G    8 C1C L1C D1C S1C C5I L5I D5I S5I                      SYS / # / OBS TYPES 
R    4 C1C L1C D1C S1C                                      SYS / # / OBS TYPES 
E    8 C1C L1C D1C S1C C5I L5I D5I S5I                      SYS / # / OBS TYPES 
J    8 C1C L1C D1C S1C C5I L5I D5I S5I                      SYS / # / OBS TYPES 
C   12 C2I L2I D2I S2I C1D L1D D1D S1D C5D L5D D5D S5D      SYS / # / OBS TYPES 
  2022     1    25     4     2   51.0000000     GPS         TIME OF FIRST OBS   
  2022     1    25     4    17   52.0000000     GPS         TIME OF LAST OBS    
G                                                           SYS / PHASE SHIFT   
R                                                           SYS / PHASE SHIFT   
E                                                           SYS / PHASE SHIFT   
J                                                           SYS / PHASE SHIFT   
C                                                           SYS / PHASE SHIFT   
  0                                                         GLONASS SLOT / FRQ #
 C1C    0.000 C1P    0.000 C2C    0.000 C2P    0.000        GLONASS COD/PHS/BIS 
                                                            END OF HEADER       
> 2022  1 25  4  2 51.0000000  0  2                     
G 3                     -5855.894        -730.393          34.000                                                                  
G31                      5537.080         582.753          33.000                                                                  
> 2022  1 25  4  2 52.0000000  0  2                     
G 3                     -9702.682        -734.046          30.000                                                                  
G31                      8594.107         582.886          34.000                                                                  
> 2022  1 25  4  2 53.0000000  0  3                     
G 3                    -13549.678        -731.957          26.000                                                                  
G31                     11647.951         580.977          29.000                                                                  
R 2                                                        26.000  
> 2022  1 25  4  2 54.0000000  0  6                     
G 3                    -17389.298        -729.931          28.000                                                                  
G26                     -3643.365        -779.647          25.000                                                                  
G31                     14707.591         582.455          33.000                                                                  
R 2                                                        28.000  
R 3                                                        30.000  
R12                                                        34.000  
> 2022  1 25  4  2 55.0000000  0  7                     
G 3                    -21218.135        -729.633          25.000                                                                  
G26                     -7720.109        -772.610          20.000                                                                  
G29                      3870.408         402.453          13.000                                                                  
G31                     17755.501         579.198          32.000                                                                  
R 2                                                        28.000  
R 3                                                        26.000  
R12                                                        29.000  
> 2022  1 25  4  2 56.0000000  0  8                     
G 3                    -25056.387        -731.727          25.000                                                                  
G26                    -11774.415        -771.274          20.000                                                                  
G29                      5975.499         399.644          14.000                                                                  
G31                     20807.804         581.328          25.000                                                                  
G32                     11748.785        2033.061          21.000                                                                  
R 2                                                        24.000  
R 3                                                        20.000  
R12                                                        23.000  
> 2022  1 25  4  2 58.0000000  0  7                     
G 3                    -28897.937        -731.114          27.000                                                                  
G26                    -15810.929        -765.997          20.000                                                                  
G31                     23864.466         584.728          22.000                                                                  
G32                     22443.560        2036.975          21.000                                                                  
R 2                                                        17.000  
R 3                                                        23.000  
R12                                                        24.000  
> 2022  1 25  4  2 59.0000000  0  7                     
G 3                    -32732.459        -729.526          33.000                       -6860.619        -521.043          17.000  
G26                    -19844.075        -767.284          24.000                                                                  
G31                     26926.575         579.883          33.000                                                                  
G32                     33143.053        2033.962          20.000                                                                  
R 2                                                        29.000  
R 3                                                        23.000  
R12                                                        34.000  
> 2022  1 25  4  3  0.0000000  0  8                     
G 3                    -36576.548        -729.071          26.000                       -8950.711        -537.780          22.000  
G26                    -23872.567        -764.682          30.000                                                                  
G31                     29977.372         579.481          35.000                                                                  
G32                     43829.303        2033.472          33.000                                                                  
R 2                                                        30.000  
R 3                                                        26.000  
R12                                                        34.000  
C26                     33871.382        1438.020          31.000                                                                                                                                  
> 2022  1 25  4  3  1.0000000  0  8                     
G 3                    -40412.255        -730.935          28.000                      -11075.870        -544.555          22.000  
G26                    -27889.034        -764.896          28.000                                                                  
G31                     33021.347         579.076          31.000                                                                  
G32                     54512.243        2032.961          26.000                                                                  
R 2                                                        28.000  
R 3                                                        27.000  
R12                                                        34.000  
C26                     41347.173        1434.471          31.000                                                                                                                                  
> 2022  1 25  4  3  2.0000000  0  8                     
G 3                    -44254.976        -730.343          32.000                      -13216.572        -545.833          26.000  
G26                    -31914.117        -766.758          26.000                                                                  
G31                     36068.508         580.128          34.000                                                                  
G32                     65193.248        2032.474          22.000                                                                  
R 2                                                        30.000  
R 3                                                        29.000  
R12                                                        33.000  
C26                     48815.792        1432.805          32.000                                                                                                                                  
> 2022  1 25  4  3  4.0000000  0 12                     
G 3                    -51877.656        -727.668          29.000                      -17471.964        -546.339          23.000  
G26                    -39912.067        -765.384          23.000                                                                  
G31                     42111.789         581.340          30.000                                                                  
G32                     86420.164        2036.434          17.000                                                                  
R 2                                                        27.000  
R 3                                                        23.000  
R12                                                        32.000  
E 7                    -15231.376       -2275.343          27.000                                                                  
C 6                     -1485.701        -161.759          23.000                                                                                                                                  
C14                      2173.369         370.681          27.000                                                                                                                                  
C26                     63659.558        1435.949          31.000                                                                                                                                  
C33                    -11075.540       -1168.544          33.000                                                                                                                                  
> 2022  1 25  4  3  5.0000000  0 12                     
G 3                    -55715.105        -734.087          32.000                      -19614.032        -545.518          26.000  
G26                    -43936.973        -765.392          20.000                                                                  
G31                     45156.885         577.576          31.000                                                                  
G32                     97119.139        2035.692          15.000                                                                  
R 2                                                        26.000  
R 3                                                        24.000  
R12                                                        33.000  
E 7                    -27193.762       -2276.443          30.000                       -2541.383       -1700.038          23.000  
C 6                     -2337.621        -163.127          23.000                                                                                                                                  
C14                      4095.235         368.166          27.000                                                                                                                                  
C26                     71124.243        1433.337          33.000                                                                                                                                  
C33                    -17166.191       -1170.223          35.000                                                                                       -1458.370        -880.605          27.000  
> 2022  1 25  4  3  6.0000000  0 13                     
G 3                    -59557.669        -730.325          32.000                      -21761.439        -547.282          23.000  
G26                    -47967.215        -767.584          23.000                                                                  
G31                     48189.569         578.706          33.000                                                                  
G32                    107819.715        2036.268          17.000                                                                  
R 2                                                        29.000  
R 3                                                        25.000  
R12                                                        33.000  
E 2                      6310.499        1085.881          24.000                                                                  
E 7                    -39160.014       -2277.265          29.000                       -9209.007       -1697.783          21.000  
C 6                     -3183.213        -162.397          27.000                                                                                                                                  
C14                      6012.072         368.003          27.000                                                                                                                                  
C26                     78586.280        1432.142          33.000                                                                                                                                  
C33                    -23259.517       -1171.413          35.000                                                                                       -4919.164        -881.968          25.000  
> 2022  1 25  4  3  7.0000000  0 14                     
G 3                    -63394.173        -730.110          30.000                      -23901.440        -545.688          25.000  
G26                    -51996.134        -766.832          20.000                                                                  
G31                     51228.843         578.878          32.000                                                                  
G32                    118509.092        2033.639          22.000                                                                  
R 2                                                        28.000  
R 3                                                        23.000  
R12                                                        30.000  
E 2                     12018.152        1086.052          30.000                                                                  
E 7                    -51124.294       -2276.987          29.000                      -15882.025       -1700.218          22.000  
C 6                     -4034.245        -162.413          29.000                                                                                                                                  
C14                      7930.419         371.043          30.000                                                                                                                                  
C24                     -1278.129        -480.050          34.000                                                                                                                                  
C26                     86048.359        1432.560          33.000                                                                                                                                  
C33                    -29346.827       -1166.968          35.000                                                                                       -8375.901        -881.125          26.000  
> 2022  1 25  4  3  8.0000000  0 17                     
G 3                    -67227.417        -727.306          28.000                      -26041.194        -544.972          20.000  
G26                    -56029.448        -767.113          22.000                                                                  
G31                     54256.314         574.691          28.000                                                                  
G32                    129199.046        2035.224          22.000                                                                  
R 2                                                        24.000  
R 3                                                        23.000  
R12                                                        26.000  
E 2                     17725.380        1086.034          23.000                                                                  
E 7                    -63088.564       -2277.039          24.000                      -22549.606       -1695.228          20.000  
E 8                     -1772.059        -368.088          24.000                                                                  
C 6                     -4882.156        -163.419          24.000                                                                                                                                  
C 7                     -4554.368        -580.885          16.000                                                                                                                                  
C14                      9859.786         369.045          26.000                                                                                                                                  
C24                     -3778.444        -478.739          30.000                                                                                                                                  
C26                     93514.871        1434.167          31.000                                                                                                                                  
C33                    -35428.403       -1169.956          32.000                                                                                      -11832.734        -880.952          24.000  
C35                     -8711.310       -1062.167          23.000                                                                                                                                  
> 2022  1 25  4  3  9.0000000  0 16                     
G 3                    -71054.101        -727.974          30.000                      -28175.867        -548.052          21.000  
G26                    -60057.114        -764.452          24.000                                                                  
G31                     57261.778         573.268          27.000                                                                  
G32                    139896.604        2036.225          19.000                                                                  
R 2                                                        24.000  
R 3                                                        19.000  
R12                                                        33.000  
E 2                     23429.004        1085.265          25.000                                                                  
E 7                    -75056.667       -2277.095          23.000                      -29214.807       -1698.592          18.000  
E 8                      -708.354        -364.836          21.000                                                                  
C 6                     -5729.028        -162.438          22.000                                                                                                                                  
C 7                     -7572.575        -578.309          14.000                                                                                                                                  
C14                     11774.098         367.504          23.000                                                                                                                                  
C24                     -1303.064        -479.719          28.000                                                                                                                                  
C26                    100973.525        1433.552          25.000                                                                                                                                  
C33                    -41516.575       -1169.503          32.000                                                                                      -15286.468        -880.036          20.000  
> 2022  1 25  4  3 10.0000000  0 18                     
G 3                    -74889.032        -728.664          30.000                      -30314.893        -543.312          23.000  
G16                    -22978.665       -2932.927          18.000                                                                  
G26                    -64074.416        -765.551          22.000                                                                  
G31                     60292.286         578.566          29.000                                                                  
G32                    150597.434        2037.337          18.000                                                                  
R 2                                                        23.000  
R 3                                                        26.000  
R12                                                        28.000  
E 2                     29135.525        1086.245          22.000                                                                  
E 7                    -87025.317       -2277.507          24.000                      -35886.189       -1699.418          20.000  
E 8                     -2636.222        -368.198          23.000                                                                  
C 6                     -6578.086        -161.943          25.000                                                                                                                                  
C 9                     -6463.154        -350.315          23.000                                                                                                                                  
C14                     13699.140         371.149          25.000                                                                                                                                  
C21                     28033.499        3601.980          16.000                                                                                                                                  
C24                     -3810.011        -480.093          33.000                                                                                                                                  
C26                    108432.912        1432.343          28.000                                                                                                                                  
C33                    -47601.792       -1168.249          32.000                                                                                      -18743.744        -881.764          22.000  
> 2022  1 25  4  3 11.0000000  0 19                     
G 3                    -78723.774        -730.502          31.000                      -32468.428        -548.441          22.000  
G16                    -38386.294       -2934.067          19.000                                                                  
G26                    -68102.941        -767.918          20.000                                                                  
G31                     63329.286         574.371          32.000                                                                  
G32                    161299.220        2034.713          16.000                                                                  
R 2                                                        22.000  
R 3                                                        25.000  
R12                                                        29.000  
E 2                     34837.147        1084.865          28.000                                                                  
E 7                    -98998.002       -2278.350          25.000                      -42559.940       -1698.661          19.000  
E 8                     -4573.881        -369.470          25.000                                                                  
C 6                     -7419.892        -162.505          25.000                                                                                                                                  
C 9                     -8287.101        -350.257          19.000                                                                                                                                  
C14                     15636.070         370.875          25.000                                                                                                                                  
C21                     46781.526        3598.879          15.000                                                                                                                                  
C24                     -6318.891        -484.232          33.000                                                                                                                                  
C26                    115889.697        1428.537          34.000                                                                                                                                  
C33                    -53683.122       -1168.178          35.000                                                                                      -22200.974        -881.003          25.000  
C35                    -25330.791       -1064.216          20.000                                                                                                                                  
> 2022  1 25  4  3 12.0000000  0 16                     
G 3                    -82563.701        -729.660          26.000                      -34610.436        -544.304          20.000  
G16                    -53805.808       -2935.873          17.000                                                                  
G26                    -72132.293        -766.515          23.000                                                                  
G31                     66346.335         574.294          26.000                                                                  
G32                    171990.108        2032.868          19.000                                                                  
R 2                                                        20.000  
R 3                                                        19.000  
R12                                                        29.000  
E 2                     40535.380        1084.318          24.000                                                                  
E 7                   -110975.006       -2279.401          24.000                      -49236.226       -1698.165          19.000  
E 8                     -6512.985        -366.957          19.000                                                                  
C 6                     -8277.982        -166.183          20.000                                                                                                                                  
C14                     17564.341         370.552          22.000                                                                                                                                  
C24                     -8838.247        -483.575          24.000                                                                                                                                  
C26                    123338.654        1431.159          28.000                                                                                                                                  
C33                    -59772.320       -1169.889          33.000                                                                                      -25659.927        -880.534          24.000  
> 2022  1 25  4  3 13.0000000  0 16                     
G 3                    -86397.330        -728.378          27.000                      -36752.761        -547.439          20.000  
G16                    -69228.723       -2934.274          17.000                                                                  
G26                    -76164.875        -767.696          23.000                                                                  
G31                     69366.869         574.416          28.000                                                                  
G32                    182677.966        2034.608          21.000                                                                  
R 2                                                        23.000  
R 3                                                        19.000  
R12                                                        31.000  
E 2                     46233.440        1084.053          24.000                                                                  
E 7                   -122955.450       -2280.688          25.000                      -55900.213       -1698.813          18.000  
E 8                     -8453.546        -369.770          24.000                                                                  
C 6                     -9136.438        -164.001          22.000                                                                                                                                  
C14                     19491.775         369.167          19.000                                                                                                                                  
C24                    -11349.040        -482.051          33.000                                                                                                                                  
C26                    130786.480        1430.527          23.000                                                                                                                                  
C33                    -65865.992       -1169.781          32.000                                                                                      -29123.893        -881.800          25.000  
> 2022  1 25  4  3 14.0000000  0 18                     
G 3                    -90237.837        -730.426          32.000                      -38905.617        -548.094          16.000  
G16                    -84647.336       -2935.013          15.000                                                                  
G26                    -80197.441        -766.635          35.000                                                                  
G31                     72378.740         572.845          23.000                                                                  
G32                    193367.384        2033.570          28.000                                                                  
R 2                                                        29.000  
R 3                                                        25.000  
R12                                                        25.000  
E 2                     51925.661        1083.547          24.000                                                                  
E 7                   -134949.093       -2281.059          22.000                      -62576.204       -1702.521          15.000  
E 8                    -10397.380        -369.147          26.000                       -4195.432        -275.068          20.000  
C 6                     -9996.632        -164.783          21.000                                                                                                                                  
C14                     21407.307         368.891          30.000                                                                                                                                  
C21                    103018.673        3600.854          15.000                                                                                                                                  
C24                    -13875.849        -482.304          29.000                                                                                       -1754.063        -358.312          19.000  
C26                    138225.647        1426.919          20.000                                                                                                                                  
C33                    -71961.212       -1168.783          28.000                                                                                      -32597.024        -886.266          18.000  
C35                                                                                                                                                     -4741.677        -801.124          17.000  
> 2022  1 25  4  3 15.0000000  0 18                     
G 3                    -94076.955        -730.924          29.000                      -41048.372        -542.411          21.000  
G16                   -100078.593       -2935.991          15.000                                                                  
G26                    -84227.222        -766.739          30.000                                                                  
G31                     75397.364         574.426          27.000                                                                  
G32                    204049.601        2033.195          29.000                                                                  
R 2                                                        31.000  
R 3                                                        24.000  
R12                                                        30.000  
E 2                     57625.818        1084.496          29.000                                                                  
E 7                   -146929.319       -2280.027          25.000                      -69265.127       -1704.211          17.000  
E 8                    -12338.411        -369.356          30.000                       -5274.443        -272.838          19.000  
C 6                    -10858.373        -165.345          27.000                                                                                                                                  
C 7                     -1549.143        -581.665          27.000                                                                                                                                  
C14                     23334.870         370.030          22.000                                                                                                                                  
C24                    -16390.643        -482.567          27.000                                                                                       -3167.101        -360.106          20.000  
C26                    145663.409        1430.177          28.000                                                                                                                                  
C33                    -78049.659       -1168.340          27.000                                                                                      -36067.374        -882.197          24.000  
C35                                                                                                                                                     -7880.200        -800.247          15.000  
> 2022  1 25  4  3 16.0000000  0 19                     
G 3                    -97914.969        -732.070          24.000                      -43190.739        -544.620          25.000  
G16                   -115502.185       -2933.345          16.000                                                                  
G26                    -88254.095        -768.873          28.000                                                                  
G31                     78413.206         570.835          27.000                                                                  
G32                    214725.914        2031.963          29.000                                                                  
R 2                                                        25.000  
R 3                                                        20.000  
R12                                                        27.000  
E 2                     63317.963        1081.984          24.000                                                                  
E 7                   -158917.738       -2282.573          19.000                      -75953.222       -1702.234          17.000  
E 8                    -14283.458        -371.285          27.000                       -6345.338        -273.596          18.000  
E30                     -7930.118       -1196.352          25.000                                                                  
C 6                    -11724.399        -166.671          24.000                                                                                                                                  
C 7                     -4574.920        -579.913          25.000                                                                                                                                  
C 9                     -2959.250        -352.328          24.000                                                                                                                                  
C14                     25259.529         369.433          21.000                                                                                                                                  
C24                    -18904.614        -478.100          29.000                                                                                       -4595.917        -364.897          20.000  
C26                    153099.299        1427.926          20.000                                                                                                                                  
C33                    -84131.818       -1168.011          23.000                                                                                      -39524.447        -879.787          18.000  
> 2022  1 25  4  3 17.0000000  0 20                     
G 3                   -101761.461        -732.810          24.000                      -45336.074        -548.809          18.000  
G16                   -130922.658       -2935.610          16.000                                                                  
G26                    -92274.273        -765.461          20.000                                                                  
G31                     81423.787         575.800          20.000                                                                  
G32                    225400.543        2031.078          29.000                                                                  
R 2                                                        28.000  
R 3                                                        20.000  
R12                                                        25.000  
E 2                     69004.108        1078.501          19.000                       12018.617         813.202          17.000  
E 7                   -170903.773       -2282.113          19.000                      -82638.429       -1704.818          19.000  
E 8                    -16227.049        -370.253          26.000                       -7430.841        -277.340          20.000  
E30                    -14218.214       -1194.622          19.000                                                                  
C 6                    -12600.683        -169.828          20.000                                                                                                                                  
C 7                     -7602.686        -582.769          23.000                                                                                                                                  
C 9                     -4802.961        -355.029          24.000                                                                                                                                  
C14                     27185.585         368.247          27.000                                                                                                                                  
C24                    -21417.050        -487.019          34.000                                                                                       -6029.024        -365.133          25.000  
C26                    160540.129        1426.579          19.000                                                                                                                                  
C33                    -90220.216       -1170.199          25.000                                                                                      -42982.575        -882.297          27.000  
C35                    -10821.629       -1063.758          25.000                                                                                      -14161.406        -800.142          21.000  
> 2022  1 25  4  3 18.0000000  0 20                     
G 3                   -105596.947        -729.887          18.000                      -47475.716        -543.165          19.000  
G16                   -146348.279       -2933.976          13.000                                                                  
G26                    -96303.358        -767.235          31.000                                                                  
G31                     84456.973          -0.005          19.000                                                                  
G32                    236085.837        2035.657          30.000                                                                  
R 2                                                        23.000  
R 3                                                        24.000  
R12                                                        21.000  
E 2                     74688.548        1084.229          19.000                       15201.311         809.743          16.000  
E 7                   -182899.313       -2283.322          18.000                      -89328.296       -1704.078          17.000  
E 8                    -18170.903        -369.505          19.000                       -8515.537        -274.706          18.000  
E30                    -20506.268       -1196.941          20.000                        -477.402        -893.735          24.000  
C 6                    -13469.057        -164.236          19.000                                                                                                                                  
C 7                    -10644.215        -584.388          25.000                                                                                                                                  
C 9                     -6648.856        -353.604          18.000                                                                                                                                  
C14                     29104.725         369.076          28.000                                                                                                                                  
C24                    -23946.076        -484.101          25.000                                                                                       -7460.741        -363.326          19.000  
C26                    167976.891        1429.770          18.000                                                                                                                                  
C33                    -96313.460       -1171.193          23.000                                                                                      -46443.624        -880.990          20.000  
C35                    -16362.459       -1063.387          25.000                                                                                      -17304.409        -801.763          20.000  
> 2022  1 25  4  3 19.0000000  0 20                     
G 3                   -109444.343        -730.878          19.000                      -49608.239        -542.575          19.000  
G16                   -161765.946       -2932.005          18.000                                                                  
G26                   -100320.982        -765.679          25.000                                                                  
G31                     87469.770         573.118          23.000                                                                  
G32                    246770.716        2032.771          25.000                                                                  
R 2                                                        23.000  
R 3                                                        24.000  
R12                                                        23.000  
E 2                     80382.971        1082.382          19.000                       18378.960         810.377          17.000  
E 7                   -194895.121       -2280.152          15.000                      -96018.937       -1704.806          17.000  
E 8                    -20120.978        -373.305          18.000                       -9598.984        -275.577          16.000  
E30                    -26794.671       -1198.050          20.000                                                                  
C 6                    -14324.398        -164.017          18.000                                                                                                                                  
C 7                    -13687.402        -584.613          23.000                                                                                                                                  
C 9                     -8492.900        -353.470          17.000                                                                                                                                  
C14                     31017.248         368.727          19.000                                                                                                                                  
C24                    -26466.711           0.001          20.000                                                                                                                                  
C26                    175423.795          -0.009          20.000                                                                                                                                  
C33                   -102410.289           0.000          20.000                                                                                      -49886.723        -877.142          19.000  
C35                    -21901.561       -1061.969          25.000                                                                                      -20447.684        -799.595          16.000  
> 2022  1 25  4  3 20.0000000  0 20                     
G 3                   -113276.390        -728.175          17.000                      -51744.431        -544.643          17.000  
G16                   -177181.106       -2935.834          17.000                                                                  
G26                   -104353.506        -767.259          26.000                                                                  
G31                     90479.518         572.591          23.000                                                                  
G32                    257458.539        2034.765          26.000                                                                  
R 2                                                        21.000  
R 3                                                        27.000  
R12                                                        24.000  
E 2                     86066.872        1080.119          18.000                       21559.147         811.871          18.000  
E 7                   -206883.942       -2283.830          18.000                     -102707.012       -1705.737          17.000  
E 8                    -22070.154        -370.157          19.000                      -10677.824        -274.720          18.000  
E30                    -33102.413       -1197.948          25.000                       -7492.194        -890.300          20.000  
C 6                    -15183.297        -166.252          18.000                                                                                                                                  
C 7                    -16730.642        -584.091          22.000                                                                                                                                  
C 9                    -10333.678          -0.050          20.000                                                                                                                                  
C14                     32932.677         368.565          22.000                                                                                                                                  
C24                    -28993.012        -482.416          19.000                                                                                      -10307.325        -364.424          16.000  
C26                    182863.167        1427.127          19.000                                                                                                                                  
C33                   -108512.724       -1174.824          20.000                                                                                      -53338.855        -881.038          20.000  
C35                    -27427.298       -1060.976          25.000                                                                                      -23586.462        -800.231          20.000  
> 2022  1 25  4  3 21.0000000  0 21                     
G 3                   -117108.120        -727.327          14.000                      -53878.860        -543.059          16.000  
G16                   -192609.638       -2936.031          15.000                                                                  
G26                   -108398.530        -765.784          23.000                                                                  
G29                      3453.295         412.015          17.000                                                                  
G31                     93492.286         573.187          20.000                                                                  
G32                    268151.280        2034.789          27.000                                                                  
R 2                                                        24.000  
R 3                                                        24.000  
R12                                                        25.000  
E 2                     91754.415        1084.160          19.000                       24738.019         810.242          18.000  
E 7                   -218881.761       -2283.825          18.000                     -109395.767       -1702.909          19.000  
E 8                    -24006.776        -367.979          20.000                      -11758.925        -275.521          19.000  
E30                    -39410.499       -1196.270          22.000                      -10990.327        -891.143          18.000  
C 6                    -16049.978        -167.209          19.000                                                                                                                                  
C 7                    -19783.590        -585.704          22.000                                                                                                                                  
C 9                    -12178.105        -354.792          19.000                                                                                                                                  
C14                     34843.171         366.156          21.000                                                                                                                                  
C24                    -31500.794        -482.000          20.000                                                                                      -11746.486        -367.478          16.000  
C26                    190293.523        1425.106          21.000                                                                                                                                  
C33                   -114627.369       -1173.554          20.000                                                                                      -56805.241        -884.130          18.000  
C35                    -32953.577       -1060.637          23.000                                                                                      -26730.581        -800.458          20.000  
> 2022  1 25  4  3 22.0000000  0 21                     
G 3                   -120922.451        -726.924          15.000                      -56010.487        -542.154          12.000  
G16                   -208037.324       -2935.759          15.000                                                                  
G26                   -112436.123        -770.573          23.000                                                                  
G29                      5616.881         411.654          18.000                                                                  
G31                     96510.566         575.299          22.000                                                                  
G32                    278839.947        2036.048          26.000                                                                  
R 2                                                        22.000  
R 3                                                        25.000  
R12                                                        25.000  
E 2                     97451.998        1085.283          20.000                       27914.817         809.363          18.000  
E 7                   -230872.735       -2281.437          18.000                     -116076.612       -1701.836          16.000  
E 8                    -25955.058        -368.695          21.000                      -12837.060        -275.787          17.000  
E30                    -45714.153       -1195.881          23.000                      -14495.556        -892.868          18.000  
C 6                    -16934.432        -171.400          20.000                                                                                                                                  
C 7                    -22841.332        -586.369          19.000                                                                                                                                  
C 9                    -14032.795        -356.644          20.000                                                                                                                                  
C14                     36755.450         370.973          23.000                                                                                                                                  
C24                    -34028.563        -488.636          19.000                                                                                      -13184.178        -365.439          14.000  
