$GPGGA,065129.000,3114.468338,N,12129.152052,E,1,19,0.8,-29.6,M,,M,,*56
$GPRMC,065129.000,A,3114.468338,N,12129.152052,E,40.5,-101.576509004,250122,,E,A*39
$GPGGA,065130.000,3114.465535,N,12129.143022,E,1,19,0.8,-25.5,M,,M,,*50
$GPRMC,065130.000,A,3114.465535,N,12129.143022,E,36.1,-124.738205669,250122,,E,A*3C
$GPGGA,065131.000,3114.464325,N,12129.143960,E,1,19,0.8,-24.1,M,,M,,*5D
$GPRMC,065131.000,A,3114.464325,N,12129.143960,E,12.1,-153.610691841,250122,,E,A*34
$GPGGA,065132.000,3114.468158,N,12129.147046,E,1,19,0.8,-19.3,M,,M,,*5F
$GPRMC,065132.000,A,3114.468158,N,12129.147046,E,9.3,44.975500365,250122,,E,A*12
$GPGGA,065133.000,3114.471034,N,12129.148891,E,1,19,0.8,-17.2,M,,M,,*5F
$GPRMC,065133.000,A,3114.471034,N,12129.148891,E,9.1,46.942928435,250122,,E,A*1D
$GPGGA,065134.000,3114.472410,N,12129.149988,E,1,19,0.8,-15.0,M,,M,,*51
$GPRMC,065134.000,A,3114.472410,N,12129.149988,E,7.2,47.503708905,250122,,E,A*14
$GPGGA,065135.000,3114.466912,N,12129.143791,E,1,19,0.8,-8.4,M,,M,,*6E
$GPRMC,065135.000,A,3114.466912,N,12129.143791,E,6.1,-131.55780143200002,250122,,E,A*30
$GPGGA,065136.000,3114.465266,N,12129.142656,E,1,19,0.8,-5.2,M,,M,,*66
$GPRMC,065136.000,A,3114.465266,N,12129.142656,E,6.1,-141.352859825,250122,,E,A*02
$GPGGA,065137.000,3114.463441,N,12129.142368,E,1,19,0.8,-3.1,M,,M,,*6F
$GPRMC,065137.000,A,3114.463441,N,12129.142368,E,5.1,-156.34835072799999,250122,,E,A*36
$GPGGA,065138.000,3114.462886,N,12129.142432,E,1,19,0.8,-0.4,M,,M,,*68
$GPRMC,065138.000,A,3114.462886,N,12129.142432,E,3.7,-163.391372098,250122,,E,A*0F
$GPGGA,065139.000,3114.462242,N,12129.142330,E,1,19,0.8,1.1,M,,M,,*47
$GPRMC,065139.000,A,3114.462242,N,12129.142330,E,3.1,-172.513238817,250122,,E,A*03
$GPGGA,065140.000,3114.462950,N,12129.142912,E,1,19,0.8,3.7,M,,M,,*4F
$GPRMC,065140.000,A,3114.462950,N,12129.142912,E,1.7,169.01311494700002,250122,,E,A*12
$GPGGA,065141.000,3114.463008,N,12129.142743,E,1,19,0.8,5.2,M,,M,,*42
$GPRMC,065141.000,A,3114.463008,N,12129.142743,E,1.1,169.01311494700002,250122,,E,A*1A
$GPGGA,065142.000,3114.462944,N,12129.142835,E,1,19,0.8,5.6,M,,M,,*4B
$GPRMC,065142.000,A,3114.462944,N,12129.142835,E,0.5,169.01311494700002,250122,,E,A*12
$GPGGA,065143.000,3114.462667,N,12129.142093,E,1,19,0.8,6.8,M,,M,,*4D
$GPRMC,065143.000,A,3114.462667,N,12129.142093,E,0.6,169.01311494700002,250122,,E,A*1A
$GPGGA,065144.000,3114.462476,N,12129.142235,E,1,19,0.8,7.5,M,,M,,*4A
$GPRMC,065144.000,A,3114.462476,N,12129.142235,E,0.5,169.01311494700002,250122,,E,A*12
$GPGGA,065145.000,3114.462435,N,12129.142080,E,1,19,0.8,7.7,M,,M,,*42
$GPRMC,065145.000,A,3114.462435,N,12129.142080,E,0.4,169.01311494700002,250122,,E,A*19
$GPGGA,065146.000,3114.461770,N,12129.140975,E,1,19,0.8,8.7,M,,M,,*4E
$GPRMC,065146.000,A,3114.461770,N,12129.140975,E,1.1,169.01311494700002,250122,,E,A*1E
$GPGGA,065147.000,3114.461061,N,12129.140023,E,1,19,0.8,9.6,M,,M,,*42
$GPRMC,065147.000,A,3114.461061,N,12129.140023,E,1.5,169.01311494700002,250122,,E,A*16
$GPGGA,065148.000,3114.461204,N,12129.140024,E,1,19,0.8,10.4,M,,M,,*71
$GPRMC,065148.000,A,3114.461204,N,12129.140024,E,1.0,169.01311494700002,250122,,E,A*1A
$GPGGA,065149.000,3114.461042,N,12129.139517,E,1,19,0.8,11.9,M,,M,,*77
$GPRMC,065149.000,A,3114.461042,N,12129.139517,E,0.9,169.01311494700002,250122,,E,A*18
$GPGGA,065150.000,3114.461020,N,12129.138954,E,1,19,0.8,12.4,M,,M,,*7F
$GPRMC,065150.000,A,3114.461020,N,12129.138954,E,1.0,169.01311494700002,250122,,E,A*16
$GPGGA,065151.000,3114.460426,N,12129.137989,E,1,19,0.8,13.4,M,,M,,*73
$GPRMC,065151.000,A,3114.460426,N,12129.137989,E,1.4,169.01311494700002,250122,,E,A*1F
$GPGGA,065152.000,3114.460635,N,12129.138264,E,1,19,0.8,13.9,M,,M,,*7A
$GPRMC,065152.000,A,3114.460635,N,12129.138264,E,0.9,169.01311494700002,250122,,E,A*17
$GPGGA,065153.000,3114.460066,N,12129.138053,E,1,19,0.8,14.8,M,,M,,*7B
$GPRMC,065153.000,A,3114.460066,N,12129.138053,E,1.0,169.01311494700002,250122,,E,A*18
$GPGGA,065154.000,3114.459939,N,12129.137953,E,1,19,0.8,14.9,M,,M,,*72
$GPRMC,065154.000,A,3114.459939,N,12129.137953,E,0.8,169.01311494700002,250122,,E,A*19
$GPGGA,065155.000,3114.459833,N,12129.138439,E,1,19,0.8,15.2,M,,M,,*7C
$GPRMC,065155.000,A,3114.459833,N,12129.138439,E,0.7,169.01311494700002,250122,,E,A*12
$GPGGA,065156.000,3114.459770,N,12129.139661,E,1,19,0.8,15.6,M,,M,,*7D
$GPRMC,065156.000,A,3114.459770,N,12129.139661,E,1.0,140.450971052,250122,,E,A*2D
$GPGGA,065157.000,3114.459409,N,12129.140506,E,1,19,0.8,15.8,M,,M,,*73
$GPRMC,065157.000,A,3114.459409,N,12129.140506,E,1.7,135.24478224,250122,,E,A*18
$GPGGA,065158.000,3114.459526,N,12129.142946,E,1,19,0.8,15.1,M,,M,,*73
$GPRMC,065158.000,A,3114.459526,N,12129.142946,E,2.0,141.935540006,250122,,E,A*27
$GPGGA,065159.000,3114.459051,N,12129.144571,E,1,19,0.8,14.8,M,,M,,*71
$GPRMC,065159.000,A,3114.459051,N,12129.144571,E,2.3,136.27482942,250122,,E,A*12
$GPGGA,065200.000,3114.458706,N,12129.145813,E,1,19,0.8,14.5,M,,M,,*7F
$GPRMC,065200.000,A,3114.458706,N,12129.145813,E,2.6,136.362570031,250122,,E,A*27
$GPGGA,065201.000,3114.457896,N,12129.146877,E,1,19,0.8,14.9,M,,M,,*7A
$GPRMC,065201.000,A,3114.457896,N,12129.146877,E,2.7,136.362570031,250122,,E,A*2F
$GPGGA,065202.000,3114.457469,N,12129.147687,E,1,19,0.8,14.8,M,,M,,*74
$GPRMC,065202.000,A,3114.457469,N,12129.147687,E,2.6,136.362570031,250122,,E,A*21
$GPGGA,065203.000,3114.457208,N,12129.148348,E,1,19,0.8,14.7,M,,M,,*72
$GPRMC,065203.000,A,3114.457208,N,12129.148348,E,2.4,136.362570031,250122,,E,A*2A
$GPGGA,065204.000,3114.456846,N,12129.148714,E,1,19,0.8,14.8,M,,M,,*76
$GPRMC,065204.000,A,3114.456846,N,12129.148714,E,2.2,136.362570031,250122,,E,A*27
$GPGGA,065205.000,3114.456688,N,12129.149135,E,1,19,0.8,14.8,M,,M,,*7F
$GPRMC,065205.000,A,3114.456688,N,12129.149135,E,2.1,136.362570031,250122,,E,A*2D
$GPGGA,065206.000,3114.457203,N,12129.149631,E,1,19,0.8,14.6,M,,M,,*77
$GPRMC,065206.000,A,3114.457203,N,12129.149631,E,1.8,136.362570031,250122,,E,A*21
$GPGGA,065207.000,3114.457133,N,12129.149202,E,1,19,0.8,14.8,M,,M,,*7C
$GPRMC,065207.000,A,3114.457133,N,12129.149202,E,1.3,136.362570031,250122,,E,A*2F
$GPGGA,065208.000,3114.456763,N,12129.147506,E,1,19,0.8,15.7,M,,M,,*72
$GPRMC,065208.000,A,3114.456763,N,12129.147506,E,0.6,136.362570031,250122,,E,A*2B
$GPGGA,065209.000,3114.456808,N,12129.147068,E,1,19,0.8,15.8,M,,M,,*73
$GPRMC,065209.000,A,3114.456808,N,12129.147068,E,0.6,136.362570031,250122,,E,A*25
$GPGGA,065210.000,3114.456938,N,12129.146292,E,1,19,0.8,16.1,M,,M,,*75
$GPRMC,065210.000,A,3114.456938,N,12129.146292,E,1.1,136.362570031,250122,,E,A*2F
$GPGGA,065211.000,3114.457785,N,12129.146439,E,1,19,0.8,16.3,M,,M,,*78
$GPRMC,065211.000,A,3114.457785,N,12129.146439,E,0.6,136.362570031,250122,,E,A*26
$GPGGA,065212.000,3114.458301,N,12129.146564,E,1,19,0.8,16.4,M,,M,,*72
$GPRMC,065212.000,A,3114.458301,N,12129.146564,E,0.5,136.362570031,250122,,E,A*28
$GPGGA,065213.000,3114.459139,N,12129.147256,E,1,19,0.8,16.7,M,,M,,*7F
$GPRMC,065213.000,A,3114.459139,N,12129.147256,E,0.9,136.362570031,250122,,E,A*2A
$GPGGA,065214.000,3114.459298,N,12129.146057,E,1,19,0.8,16.7,M,,M,,*72
$GPRMC,065214.000,A,3114.459298,N,12129.146057,E,0.8,136.362570031,250122,,E,A*26
$GPGGA,065215.000,3114.459270,N,12129.146106,E,1,19,0.8,16.9,M,,M,,*7E
$GPRMC,065215.000,A,3114.459270,N,12129.146106,E,0.4,136.362570031,250122,,E,A*28
$GPGGA,065216.000,3114.458860,N,12129.146138,E,1,19,0.8,16.8,M,,M,,*7B
$GPRMC,065216.000,A,3114.458860,N,12129.146138,E,0.3,136.362570031,250122,,E,A*2B
$GPGGA,065217.000,3114.458713,N,12129.145919,E,1,19,0.8,17.1,M,,M,,*71
$GPRMC,065217.000,A,3114.458713,N,12129.145919,E,0.5,136.362570031,250122,,E,A*2F
$GPGGA,065218.000,3114.458730,N,12129.146716,E,1,19,0.8,17.3,M,,M,,*7F
$GPRMC,065218.000,A,3114.458730,N,12129.146716,E,0.2,136.362570031,250122,,E,A*24
$GPGGA,065219.000,3114.458879,N,12129.147364,E,1,19,0.8,17.7,M,,M,,*78
$GPRMC,065219.000,A,3114.458879,N,12129.147364,E,0.5,136.362570031,250122,,E,A*20
$GPGGA,065220.000,3114.458880,N,12129.146819,E,1,19,0.8,17.7,M,,M,,*74
$GPRMC,065220.000,A,3114.458880,N,12129.146819,E,0.0,136.362570031,250122,,E,A*29
$GPGGA,065221.000,3114.459188,N,12129.147309,E,1,19,0.8,17.9,M,,M,,*70
$GPRMC,065221.000,A,3114.459188,N,12129.147309,E,0.4,136.362570031,250122,,E,A*27
$GPGGA,065222.000,3114.459642,N,12129.147679,E,1,19,0.8,18.2,M,,M,,*74
$GPRMC,065222.000,A,3114.459642,N,12129.147679,E,0.2,136.362570031,250122,,E,A*21
$GPGGA,065223.000,3114.459703,N,12129.147598,E,1,19,0.8,18.2,M,,M,,*7D
$GPRMC,065223.000,A,3114.459703,N,12129.147598,E,0.2,136.362570031,250122,,E,A*28
$GPGGA,065224.000,3114.459689,N,12129.147358,E,1,19,0.8,18.0,M,,M,,*71
$GPRMC,065224.000,A,3114.459689,N,12129.147358,E,0.2,136.362570031,250122,,E,A*26
$GPGGA,065225.000,3114.459634,N,12129.147268,E,1,19,0.8,18.0,M,,M,,*74
$GPRMC,065225.000,A,3114.459634,N,12129.147268,E,0.1,136.362570031,250122,,E,A*20
$GPGGA,065226.000,3114.459604,N,12129.147057,E,1,19,0.8,18.2,M,,M,,*78
$GPRMC,065226.000,A,3114.459604,N,12129.147057,E,0.2,136.362570031,250122,,E,A*2D
$GPGGA,065227.000,3114.459589,N,12129.147115,E,1,19,0.8,18.1,M,,M,,*7B
$GPRMC,065227.000,A,3114.459589,N,12129.147115,E,0.1,136.362570031,250122,,E,A*2E
$GPGGA,065228.000,3114.459789,N,12129.147251,E,1,19,0.8,17.6,M,,M,,*7D
$GPRMC,065228.000,A,3114.459789,N,12129.147251,E,0.1,136.362570031,250122,,E,A*20
$GPGGA,065229.000,3114.459491,N,12129.147897,E,1,19,0.8,17.5,M,,M,,*75
$GPRMC,065229.000,A,3114.459491,N,12129.147897,E,0.2,136.362570031,250122,,E,A*28
$GPGGA,065230.000,3114.460791,N,12129.147373,E,1,19,0.8,16.5,M,,M,,*74
$GPRMC,065230.000,A,3114.460791,N,12129.147373,E,0.6,136.362570031,250122,,E,A*2C
$GPGGA,065231.000,3114.460795,N,12129.147198,E,1,19,0.8,16.9,M,,M,,*7A
$GPRMC,065231.000,A,3114.460795,N,12129.147198,E,0.5,136.362570031,250122,,E,A*2D
$GPGGA,065232.000,3114.461118,N,12129.146276,E,1,19,0.8,16.3,M,,M,,*73
$GPRMC,065232.000,A,3114.461118,N,12129.146276,E,0.7,136.362570031,250122,,E,A*2C
$GPGGA,065233.000,3114.460699,N,12129.145933,E,1,19,0.8,16.5,M,,M,,*72
$GPRMC,065233.000,A,3114.460699,N,12129.145933,E,0.6,136.362570031,250122,,E,A*2A
$GPGGA,065234.000,3114.459757,N,12129.145996,E,1,19,0.8,16.0,M,,M,,*76
$GPRMC,065234.000,A,3114.459757,N,12129.145996,E,0.6,136.362570031,250122,,E,A*2B
$GPGGA,065235.000,3114.459279,N,12129.145913,E,1,19,0.8,15.2,M,,M,,*72
$GPRMC,065235.000,A,3114.459279,N,12129.145913,E,0.5,136.362570031,250122,,E,A*2D
$GPGGA,065236.000,3114.459096,N,12129.145550,E,1,19,0.8,14.8,M,,M,,*72
$GPRMC,065236.000,A,3114.459096,N,12129.145550,E,0.5,136.362570031,250122,,E,A*26
$GPGGA,065237.000,3114.458798,N,12129.145565,E,1,19,0.8,14.6,M,,M,,*73
$GPRMC,065237.000,A,3114.458798,N,12129.145565,E,0.3,136.362570031,250122,,E,A*2F
$GPGGA,065238.000,3114.458578,N,12129.145580,E,1,19,0.8,14.8,M,,M,,*75
$GPRMC,065238.000,A,3114.458578,N,12129.145580,E,0.3,136.362570031,250122,,E,A*27
$GPGGA,065239.000,3114.458600,N,12129.145778,E,1,19,0.8,15.0,M,,M,,*74
$GPRMC,065239.000,A,3114.458600,N,12129.145778,E,0.2,136.362570031,250122,,E,A*2E
$GPGGA,065240.000,3114.458728,N,12129.146117,E,1,19,0.8,14.9,M,,M,,*75
$GPRMC,065240.000,A,3114.458728,N,12129.146117,E,0.1,136.362570031,250122,,E,A*24
$GPGGA,065241.000,3114.458543,N,12129.146343,E,1,19,0.8,15.7,M,,M,,*77
$GPRMC,065241.000,A,3114.458543,N,12129.146343,E,0.1,136.362570031,250122,,E,A*29
$GPGGA,065242.000,3114.458405,N,12129.146358,E,1,19,0.8,15.9,M,,M,,*73
$GPRMC,065242.000,A,3114.458405,N,12129.146358,E,0.1,136.362570031,250122,,E,A*23
$GPGGA,065243.000,3114.458288,N,12129.146261,E,1,19,0.8,15.5,M,,M,,*76
$GPRMC,065243.000,A,3114.458288,N,12129.146261,E,0.3,136.362570031,250122,,E,A*28
$GPGGA,065244.000,3114.458029,N,12129.145780,E,1,19,0.8,14.4,M,,M,,*71
$GPRMC,065244.000,A,3114.458029,N,12129.145780,E,0.3,136.362570031,250122,,E,A*2F
$GPGGA,065245.000,3114.457793,N,12129.145081,E,1,19,0.8,12.7,M,,M,,*7A
$GPRMC,065245.000,A,3114.457793,N,12129.145081,E,0.4,136.362570031,250122,,E,A*26
$GPGGA,065246.000,3114.457796,N,12129.145127,E,1,19,0.8,12.5,M,,M,,*73
$GPRMC,065246.000,A,3114.457796,N,12129.145127,E,0.2,136.362570031,250122,,E,A*2B
$GPGGA,065247.000,3114.457747,N,12129.144995,E,1,19,0.8,12.4,M,,M,,*7F
$GPRMC,065247.000,A,3114.457747,N,12129.144995,E,0.2,136.362570031,250122,,E,A*26
$GPGGA,065248.000,3114.457742,N,12129.144992,E,1,19,0.8,12.1,M,,M,,*77
$GPRMC,065248.000,A,3114.457742,N,12129.144992,E,0.2,136.362570031,250122,,E,A*2B
$GPGGA,065249.000,3114.457755,N,12129.144829,E,1,19,0.8,12.0,M,,M,,*70
$GPRMC,065249.000,A,3114.457755,N,12129.144829,E,0.4,136.362570031,250122,,E,A*2B
$GPGGA,065250.000,3114.457755,N,12129.144874,E,1,19,0.8,11.8,M,,M,,*7B
$GPRMC,065250.000,A,3114.457755,N,12129.144874,E,0.1,136.362570031,250122,,E,A*2E
$GPGGA,065251.000,3114.457631,N,12129.145679,E,1,19,0.8,11.9,M,,M,,*7A
$GPRMC,065251.000,A,3114.457631,N,12129.145679,E,0.2,136.362570031,250122,,E,A*2D
$GPGGA,065252.000,3114.457566,N,12129.146202,E,1,19,0.8,11.5,M,,M,,*7F
$GPRMC,065252.000,A,3114.457566,N,12129.146202,E,0.2,136.362570031,250122,,E,A*24
$GPGGA,065253.000,3114.457351,N,12129.145880,E,1,19,0.8,12.1,M,,M,,*78
$GPRMC,065253.000,A,3114.457351,N,12129.145880,E,0.1,136.362570031,250122,,E,A*27
$GPGGA,065254.000,3114.457090,N,12129.145686,E,1,19,0.8,12.5,M,,M,,*7D
$GPRMC,065254.000,A,3114.457090,N,12129.145686,E,0.1,136.362570031,250122,,E,A*26
$GPGGA,065255.000,3114.457050,N,12129.145705,E,1,19,0.8,13.0,M,,M,,*7E
$GPRMC,065255.000,A,3114.457050,N,12129.145705,E,0.3,136.362570031,250122,,E,A*23
$GPGGA,065256.000,3114.457053,N,12129.145650,E,1,19,0.8,13.3,M,,M,,*7C
$GPRMC,065256.000,A,3114.457053,N,12129.145650,E,0.1,136.362570031,250122,,E,A*20
$GPGGA,065257.000,3114.457054,N,12129.145451,E,1,19,0.8,13.8,M,,M,,*72
$GPRMC,065257.000,A,3114.457054,N,12129.145451,E,0.1,136.362570031,250122,,E,A*25
$GPGGA,065258.000,3114.456983,N,12129.144846,E,1,19,0.8,14.8,M,,M,,*73
$GPRMC,065258.000,A,3114.456983,N,12129.144846,E,0.2,136.362570031,250122,,E,A*20
$GPGGA,065259.000,3114.457167,N,12129.144852,E,1,19,0.8,15.2,M,,M,,*7F
$GPRMC,065259.000,A,3114.457167,N,12129.144852,E,0.2,136.362570031,250122,,E,A*27
$GPGGA,065300.000,3114.457166,N,12129.144785,E,1,19,0.8,15.6,M,,M,,*72
$GPRMC,065300.000,A,3114.457166,N,12129.144785,E,0.2,136.362570031,250122,,E,A*2E
$GPGGA,065301.000,3114.457120,N,12129.144049,E,1,19,0.8,17.6,M,,M,,*74
$GPRMC,065301.000,A,3114.457120,N,12129.144049,E,0.5,136.362570031,250122,,E,A*2D
$GPGGA,065302.000,3114.457162,N,12129.143488,E,1,19,0.8,19.0,M,,M,,*77
$GPRMC,065302.000,A,3114.457162,N,12129.143488,E,0.8,136.362570031,250122,,E,A*2B
$GPGGA,065303.000,3114.457192,N,12129.143274,E,1,19,0.8,19.4,M,,M,,*78
$GPRMC,065303.000,A,3114.457192,N,12129.143274,E,0.3,136.362570031,250122,,E,A*2B
$GPGGA,065304.000,3114.457207,N,12129.143262,E,1,19,0.8,19.5,M,,M,,*76
$GPRMC,065304.000,A,3114.457207,N,12129.143262,E,0.3,136.362570031,250122,,E,A*24
$GPGGA,065305.000,3114.457288,N,12129.143207,E,1,19,0.8,20.0,M,,M,,*7C
$GPRMC,065305.000,A,3114.457288,N,12129.143207,E,0.1,136.362570031,250122,,E,A*23
$GPGGA,065306.000,3114.457225,N,12129.142802,E,1,19,0.8,21.0,M,,M,,*77
$GPRMC,065306.000,A,3114.457225,N,12129.142802,E,0.3,136.362570031,250122,,E,A*2B
$GPGGA,065307.000,3114.457269,N,12129.142780,E,1,19,0.8,21.6,M,,M,,*7D
$GPRMC,065307.000,A,3114.457269,N,12129.142780,E,0.1,136.362570031,250122,,E,A*25
$GPGGA,065308.000,3114.457281,N,12129.142780,E,1,19,0.8,21.6,M,,M,,*74
$GPRMC,065308.000,A,3114.457281,N,12129.142780,E,0.1,136.362570031,250122,,E,A*2C
$GPGGA,065309.000,3114.457259,N,12129.142794,E,1,19,0.8,21.9,M,,M,,*7A
$GPRMC,065309.000,A,3114.457259,N,12129.142794,E,0.1,136.362570031,250122,,E,A*2D
$GPGGA,065310.000,3114.457302,N,12129.142841,E,1,19,0.8,22.6,M,,M,,*76
$GPRMC,065310.000,A,3114.457302,N,12129.142841,E,0.1,136.362570031,250122,,E,A*2D
$GPGGA,065311.000,3114.457307,N,12129.142856,E,1,19,0.8,22.7,M,,M,,*75
$GPRMC,065311.000,A,3114.457307,N,12129.142856,E,0.1,136.362570031,250122,,E,A*2F
$GPGGA,065312.000,3114.457257,N,12129.142881,E,1,19,0.8,22.8,M,,M,,*77
$GPRMC,065312.000,A,3114.457257,N,12129.142881,E,0.3,136.362570031,250122,,E,A*20
$GPGGA,065313.000,3114.457253,N,12129.143001,E,1,19,0.8,22.9,M,,M,,*72
$GPRMC,065313.000,A,3114.457253,N,12129.143001,E,0.4,136.362570031,250122,,E,A*23
$GPGGA,065314.000,3114.457283,N,12129.143090,E,1,19,0.8,23.0,M,,M,,*78
$GPRMC,065314.000,A,3114.457283,N,12129.143090,E,0.3,136.362570031,250122,,E,A*26
$GPGGA,065315.000,3114.457225,N,12129.143022,E,1,19,0.8,22.9,M,,M,,*74
$GPRMC,065315.000,A,3114.457225,N,12129.143022,E,0.2,136.362570031,250122,,E,A*23
$GPGGA,065316.000,3114.457351,N,12129.143793,E,1,19,0.8,21.8,M,,M,,*7A
$GPRMC,065316.000,A,3114.457351,N,12129.143793,E,0.2,136.362570031,250122,,E,A*2F
$GPGGA,065317.000,3114.457437,N,12129.144282,E,1,19,0.8,20.9,M,,M,,*7E
$GPRMC,065317.000,A,3114.457437,N,12129.144282,E,0.4,136.362570031,250122,,E,A*2D
$GPGGA,065318.000,3114.457402,N,12129.144680,E,1,19,0.8,20.4,M,,M,,*7C
$GPRMC,065318.000,A,3114.457402,N,12129.144680,E,0.2,136.362570031,250122,,E,A*24
$GPGGA,065319.000,3114.457360,N,12129.144839,E,1,19,0.8,20.2,M,,M,,*74
$GPRMC,065319.000,A,3114.457360,N,12129.144839,E,0.3,136.362570031,250122,,E,A*2B
$GPGGA,065320.000,3114.457287,N,12129.144772,E,1,19,0.8,20.4,M,,M,,*70
$GPRMC,065320.000,A,3114.457287,N,12129.144772,E,0.3,136.362570031,250122,,E,A*29
$GPGGA,065321.000,3114.457221,N,12129.144758,E,1,19,0.8,20.3,M,,M,,*72
$GPRMC,065321.000,A,3114.457221,N,12129.144758,E,0.3,136.362570031,250122,,E,A*2C
$GPGGA,065322.000,3114.457128,N,12129.144754,E,1,19,0.8,20.4,M,,M,,*70
$GPRMC,065322.000,A,3114.457128,N,12129.144754,E,0.3,136.362570031,250122,,E,A*29
$GPGGA,065323.000,3114.457009,N,12129.144833,E,1,19,0.8,20.3,M,,M,,*7A
$GPRMC,065323.000,A,3114.457009,N,12129.144833,E,0.2,136.362570031,250122,,E,A*25
$GPGGA,065324.000,3114.456745,N,12129.145428,E,1,19,0.8,19.6,M,,M,,*7B
$GPRMC,065324.000,A,3114.456745,N,12129.145428,E,0.4,136.362570031,250122,,E,A*2D
$GPGGA,065325.000,3114.456691,N,12129.145666,E,1,19,0.8,19.7,M,,M,,*7B
$GPRMC,065325.000,A,3114.456691,N,12129.145666,E,0.4,136.362570031,250122,,E,A*2C
$GPGGA,065326.000,3114.456742,N,12129.145807,E,1,19,0.8,20.1,M,,M,,*72
$GPRMC,065326.000,A,3114.456742,N,12129.145807,E,0.4,136.362570031,250122,,E,A*29
$GPGGA,065327.000,3114.456786,N,12129.145936,E,1,19,0.8,20.2,M,,M,,*7B
$GPRMC,065327.000,A,3114.456786,N,12129.145936,E,0.3,136.362570031,250122,,E,A*24
$GPGGA,065328.000,3114.456992,N,12129.146111,E,1,19,0.8,19.9,M,,M,,*70
$GPRMC,065328.000,A,3114.456992,N,12129.146111,E,0.1,136.362570031,250122,,E,A*2C
$GPGGA,065329.000,3114.457057,N,12129.145915,E,1,19,0.8,20.5,M,,M,,*79
$GPRMC,065329.000,A,3114.457057,N,12129.145915,E,0.1,136.362570031,250122,,E,A*23
$GPGGA,065330.000,3114.456957,N,12129.146087,E,1,19,0.8,20.2,M,,M,,*7F
$GPRMC,065330.000,A,3114.456957,N,12129.146087,E,0.0,136.362570031,250122,,E,A*23
$GPGGA,065331.000,3114.456903,N,12129.146184,E,1,19,0.8,20.0,M,,M,,*7F
$GPRMC,065331.000,A,3114.456903,N,12129.146184,E,0.0,136.362570031,250122,,E,A*21
$GPGGA,065332.000,3114.457069,N,12129.146403,E,1,19,0.8,19.8,M,,M,,*70
$GPRMC,065332.000,A,3114.457069,N,12129.146403,E,0.2,136.362570031,250122,,E,A*2E
$GPGGA,065333.000,3114.457080,N,12129.146654,E,1,19,0.8,20.4,M,,M,,*70
$GPRMC,065333.000,A,3114.457080,N,12129.146654,E,0.3,136.362570031,250122,,E,A*29
$GPGGA,065334.000,3114.457222,N,12129.146828,E,1,19,0.8,20.6,M,,M,,*7A
$GPRMC,065334.000,A,3114.457222,N,12129.146828,E,0.4,136.362570031,250122,,E,A*26
$GPGGA,065335.000,3114.457232,N,12129.146968,E,1,19,0.8,20.6,M,,M,,*7F
$GPRMC,065335.000,A,3114.457232,N,12129.146968,E,0.4,136.362570031,250122,,E,A*23
$GPGGA,065336.000,3114.457379,N,12129.147099,E,1,19,0.8,20.4,M,,M,,*76
$GPRMC,065336.000,A,3114.457379,N,12129.147099,E,0.5,136.362570031,250122,,E,A*29
$GPGGA,065337.000,3114.457389,N,12129.147398,E,1,19,0.8,20.1,M,,M,,*7F
$GPRMC,065337.000,A,3114.457389,N,12129.147398,E,0.6,136.362570031,250122,,E,A*26
$GPGGA,065338.000,3114.457429,N,12129.147724,E,1,19,0.8,19.6,M,,M,,*73
$GPRMC,065338.000,A,3114.457429,N,12129.147724,E,0.8,136.362570031,250122,,E,A*29
$GPGGA,065339.000,3114.457308,N,12129.147872,E,1,19,0.8,19.1,M,,M,,*7D
$GPRMC,065339.000,A,3114.457308,N,12129.147872,E,0.7,136.362570031,250122,,E,A*2F
$GPGGA,065340.000,3114.457225,N,12129.147888,E,1,19,0.8,18.8,M,,M,,*70
$GPRMC,065340.000,A,3114.457225,N,12129.147888,E,0.5,136.362570031,250122,,E,A*28
$GPGGA,065341.000,3114.457220,N,12129.148089,E,1,19,0.8,18.7,M,,M,,*7D
$GPRMC,065341.000,A,3114.457220,N,12129.148089,E,0.5,136.362570031,250122,,E,A*2A
$GPGGA,065342.000,3114.457262,N,12129.148210,E,1,19,0.8,18.8,M,,M,,*75
$GPRMC,065342.000,A,3114.457262,N,12129.148210,E,0.4,136.362570031,250122,,E,A*2C
$GPGGA,065343.000,3114.457277,N,12129.148310,E,1,19,0.8,18.6,M,,M,,*7F
$GPRMC,065343.000,A,3114.457277,N,12129.148310,E,0.1,136.362570031,250122,,E,A*2D
$GPGGA,065344.000,3114.457269,N,12129.148486,E,1,19,0.8,18.4,M,,M,,*7D
$GPRMC,065344.000,A,3114.457269,N,12129.148486,E,0.3,136.362570031,250122,,E,A*2F
$GPGGA,065345.000,3114.457253,N,12129.148518,E,1,19,0.8,17.9,M,,M,,*71
$GPRMC,065345.000,A,3114.457253,N,12129.148518,E,0.3,136.362570031,250122,,E,A*21
$GPGGA,065346.000,3114.457351,N,12129.148160,E,1,19,0.8,17.1,M,,M,,*72
$GPRMC,065346.000,A,3114.457351,N,12129.148160,E,0.5,136.362570031,250122,,E,A*2C
$GPGGA,065347.000,3114.457594,N,12129.147784,E,1,19,0.8,16.5,M,,M,,*7A
$GPRMC,065347.000,A,3114.457594,N,12129.147784,E,0.6,136.362570031,250122,,E,A*22
$GPGGA,065348.000,3114.457764,N,12129.147178,E,1,19,0.8,16.3,M,,M,,*7B
$GPRMC,065348.000,A,3114.457764,N,12129.147178,E,1.0,136.362570031,250122,,E,A*22
$GPGGA,065349.000,3114.458012,N,12129.144032,E,1,19,0.8,15.9,M,,M,,*76
$GPRMC,065349.000,A,3114.458012,N,12129.144032,E,1.8,312.560907465,250122,,E,A*27
$GPGGA,065350.000,3114.458304,N,12129.143381,E,1,19,0.8,15.7,M,,M,,*78
$GPRMC,065350.000,A,3114.458304,N,12129.143381,E,2.0,306.298498188,250122,,E,A*24
$GPGGA,065351.000,3114.458697,N,12129.142685,E,1,19,0.8,15.7,M,,M,,*76
$GPRMC,065351.000,A,3114.458697,N,12129.142685,E,2.3,296.261753651,250122,,E,A*20
$GPGGA,065352.000,3114.459117,N,12129.141929,E,1,19,0.8,15.6,M,,M,,*70
$GPRMC,065352.000,A,3114.459117,N,12129.141929,E,2.3,291.231783722,250122,,E,A*2D
$GPGGA,065353.000,3114.461156,N,12129.140030,E,1,19,0.8,15.8,M,,M,,*71
$GPRMC,065353.000,A,3114.461156,N,12129.140030,E,3.5,-47.142627992,250122,,E,A*3C
$GPGGA,065354.000,3114.462105,N,12129.139159,E,1,19,0.8,15.4,M,,M,,*7F
$GPRMC,065354.000,A,3114.462105,N,12129.139159,E,2.8,305.96073166900004,250122,,E,A*1B
$GPGGA,065355.000,3114.462789,N,12129.137681,E,1,19,0.8,15.4,M,,M,,*70
$GPRMC,065355.000,A,3114.462789,N,12129.137681,E,3.5,-59.386529017,250122,,E,A*3D
$GPGGA,065356.000,3114.462763,N,12129.136199,E,1,19,0.8,16.9,M,,M,,*76
$GPRMC,065356.000,A,3114.462763,N,12129.136199,E,3.5,-77.739001761,250122,,E,A*30
$GPGGA,065357.000,3114.463168,N,12129.135525,E,1,19,0.8,17.2,M,,M,,*71
$GPRMC,065357.000,A,3114.463168,N,12129.135525,E,3.1,-69.188970204,250122,,E,A*33
$GPGGA,065358.000,3114.463391,N,12129.134720,E,1,19,0.8,17.5,M,,M,,*7B
$GPRMC,065358.000,A,3114.463391,N,12129.134720,E,3.0,-75.768785535,250122,,E,A*3B
$GPGGA,065359.000,3114.463928,N,12129.133838,E,1,19,0.8,17.8,M,,M,,*7E
$GPRMC,065359.000,A,3114.463928,N,12129.133838,E,3.0,-65.635515434,250122,,E,A*30
$GPGGA,065400.000,3114.464168,N,12129.132750,E,1,19,0.8,18.0,M,,M,,*79
$GPRMC,065400.000,A,3114.464168,N,12129.132750,E,3.1,-73.954931525,250122,,E,A*35
$GPGGA,065401.000,3114.464373,N,12129.131713,E,1,19,0.8,18.0,M,,M,,*74
$GPRMC,065401.000,A,3114.464373,N,12129.131713,E,3.1,-72.472605437,250122,,E,A*3A
$GPGGA,065402.000,3114.464452,N,12129.130842,E,1,19,0.8,18.1,M,,M,,*78
$GPRMC,065402.000,A,3114.464452,N,12129.130842,E,3.1,-74.353794206,250122,,E,A*38
$GPGGA,065403.000,3114.463577,N,12129.128660,E,1,19,0.8,19.6,M,,M,,*79
$GPRMC,065403.000,A,3114.463577,N,12129.128660,E,3.6,-89.50086505799999,250122,,E,A*04
$GPGGA,065404.000,3114.462777,N,12129.126639,E,1,19,0.8,20.6,M,,M,,*75
$GPRMC,065404.000,A,3114.462777,N,12129.126639,E,4.2,-98.36470726700001,250122,,E,A*07
$GPGGA,065405.000,3114.462576,N,12129.125321,E,1,19,0.8,20.8,M,,M,,*76
$GPRMC,065405.000,A,3114.462576,N,12129.125321,E,4.1,-99.748768508,250122,,E,A*34
$GPGGA,065406.000,3114.462148,N,12129.122948,E,1,19,0.8,21.2,M,,M,,*75
$GPRMC,065406.000,A,3114.462148,N,12129.122948,E,4.8,-101.519498655,250122,,E,A*04
$GPGGA,065407.000,3114.462392,N,12129.121614,E,1,19,0.8,21.7,M,,M,,*71
$GPRMC,065407.000,A,3114.462392,N,12129.121614,E,4.5,-96.66985442299999,250122,,E,A*04
$GPGGA,065408.000,3114.462565,N,12129.120697,E,1,19,0.8,21.9,M,,M,,*74
$GPRMC,065408.000,A,3114.462565,N,12129.120697,E,4.1,-92.856360072,250122,,E,A*39
$GPGGA,065409.000,3114.462739,N,12129.119906,E,1,19,0.8,22.0,M,,M,,*79
$GPRMC,065409.000,A,3114.462739,N,12129.119906,E,3.7,-90.31546122200001,250122,,E,A*01
$GPGGA,065410.000,3114.463064,N,12129.120059,E,1,19,0.8,22.8,M,,M,,*7E
$GPRMC,065410.000,A,3114.463064,N,12129.120059,E,2.8,278.438046955,250122,,E,A*2A
$GPGGA,065411.000,3114.462605,N,12129.118841,E,1,19,0.8,22.6,M,,M,,*7B
$GPRMC,065411.000,A,3114.462605,N,12129.118841,E,3.0,-92.857466942,250122,,E,A*36
$GPGGA,065412.000,3114.462006,N,12129.118254,E,1,19,0.8,22.3,M,,M,,*76
$GPRMC,065412.000,A,3114.462006,N,12129.118254,E,2.8,278.438046955,250122,,E,A*29
$GPGGA,065413.000,3114.461787,N,12129.117077,E,1,19,0.8,22.1,M,,M,,*74
$GPRMC,065413.000,A,3114.461787,N,12129.117077,E,3.0,-101.73898293,250122,,E,A*31
$GPGGA,065414.000,3114.461441,N,12129.115939,E,1,19,0.8,21.9,M,,M,,*70
$GPRMC,065414.000,A,3114.461441,N,12129.115939,E,3.1,-103.567432988,250122,,E,A*00
$GPGGA,065415.000,3114.460865,N,12129.115593,E,1,19,0.8,22.1,M,,M,,*7D
$GPRMC,065415.000,A,3114.460865,N,12129.115593,E,2.9,242.938657424,250122,,E,A*28
$GPGGA,065416.000,3114.460159,N,12129.115194,E,1,19,0.8,22.3,M,,M,,*79
$GPRMC,065416.000,A,3114.460159,N,12129.115194,E,2.8,240.129236661,250122,,E,A*25
$GPGGA,065417.000,3114.459290,N,12129.114681,E,1,19,0.8,22.3,M,,M,,*76
$GPRMC,065417.000,A,3114.459290,N,12129.114681,E,2.8,245.83263593,250122,,E,A*10
$GPGGA,065418.000,3114.458306,N,12129.114514,E,1,19,0.8,22.5,M,,M,,*7F
$GPRMC,065418.000,A,3114.458306,N,12129.114514,E,2.8,237.81399375,250122,,E,A*12
$GPGGA,065419.000,3114.457502,N,12129.114037,E,1,19,0.8,22.7,M,,M,,*75
$GPRMC,065419.000,A,3114.457502,N,12129.114037,E,2.9,240.338923471,250122,,E,A*22
$GPGGA,065420.000,3114.457167,N,12129.113386,E,1,19,0.8,23.0,M,,M,,*70
$GPRMC,065420.000,A,3114.457167,N,12129.113386,E,2.8,239.518508459,250122,,E,A*25
$GPGGA,065421.000,3114.456423,N,12129.112633,E,1,19,0.8,23.2,M,,M,,*7D
$GPRMC,065421.000,A,3114.456423,N,12129.112633,E,2.9,-133.141275759,250122,,E,A*09
$GPGGA,065422.000,3114.456040,N,12129.111772,E,1,19,0.8,23.3,M,,M,,*79
$GPRMC,065422.000,A,3114.456040,N,12129.111772,E,2.9,-130.167386174,250122,,E,A*0F
$GPGGA,065423.000,3114.456021,N,12129.110704,E,1,19,0.8,23.9,M,,M,,*75
$GPRMC,065423.000,A,3114.456021,N,12129.110704,E,3.1,-119.86694126399999,250122,,E,A*3E
$GPGGA,065424.000,3114.455613,N,12129.110260,E,1,19,0.8,24.6,M,,M,,*79
$GPRMC,065424.000,A,3114.455613,N,12129.110260,E,3.0,-118.99419744,250122,,E,A*3B
$GPGGA,065425.000,3114.455219,N,12129.109550,E,1,19,0.8,24.7,M,,M,,*7B
$GPRMC,065425.000,A,3114.455219,N,12129.109550,E,2.9,-119.159307955,250122,,E,A*0A
$GPGGA,065426.000,3114.454771,N,12129.108814,E,1,19,0.8,24.9,M,,M,,*70
$GPRMC,065426.000,A,3114.454771,N,12129.108814,E,2.9,258.07050457400004,250122,,E,A*10
$GPGGA,065427.000,3114.454162,N,12129.108274,E,1,19,0.8,25.0,M,,M,,*71
$GPRMC,065427.000,A,3114.454162,N,12129.108274,E,2.9,250.20649788,250122,,E,A*1B
$GPGGA,065428.000,3114.454706,N,12129.107146,E,1,19,0.8,25.5,M,,M,,*72
$GPRMC,065428.000,A,3114.454706,N,12129.107146,E,3.2,-103.728924512,250122,,E,A*05
$GPGGA,065429.000,3114.455051,N,12129.106352,E,1,19,0.8,26.1,M,,M,,*76
$GPRMC,065429.000,A,3114.455051,N,12129.106352,E,2.9,260.478911266,250122,,E,A*23
$GPGGA,065430.000,3114.455036,N,12129.105676,E,1,19,0.8,26.2,M,,M,,*7C
$GPRMC,065430.000,A,3114.455036,N,12129.105676,E,2.5,257.59176294900004,250122,,E,A*1C
$GPGGA,065431.000,3114.455084,N,12129.105085,E,1,19,0.8,26.3,M,,M,,*7F
$GPRMC,065431.000,A,3114.455084,N,12129.105085,E,2.3,266.942018825,250122,,E,A*2D
$GPGGA,065432.000,3114.454645,N,12129.104786,E,1,19,0.8,26.1,M,,M,,*71
$GPRMC,065432.000,A,3114.454645,N,12129.104786,E,2.0,262.789209119,250122,,E,A*2B
$GPGGA,065433.000,3114.454231,N,12129.104642,E,1,19,0.8,25.9,M,,M,,*75
$GPRMC,065433.000,A,3114.454231,N,12129.104642,E,1.7,239.645468017,250122,,E,A*21
$GPGGA,065434.000,3114.454376,N,12129.103897,E,1,19,0.8,25.7,M,,M,,*7F
$GPRMC,065434.000,A,3114.454376,N,12129.103897,E,1.9,264.668795239,250122,,E,A*23
$GPGGA,065435.000,3114.454538,N,12129.103075,E,1,19,0.8,25.5,M,,M,,*74
$GPRMC,065435.000,A,3114.454538,N,12129.103075,E,2.0,270.98371501099996,250122,,E,A*18
$GPGGA,065436.000,3114.454658,N,12129.102078,E,1,19,0.8,25.5,M,,M,,*7E
$GPRMC,065436.000,A,3114.454658,N,12129.102078,E,2.3,269.46998114900003,250122,,E,A*1B
$GPGGA,065437.000,3114.455060,N,12129.101098,E,1,19,0.8,25.3,M,,M,,*78
$GPRMC,065437.000,A,3114.455060,N,12129.101098,E,2.4,244.041896912,250122,,E,A*2F
$GPGGA,065438.000,3114.455158,N,12129.100003,E,1,19,0.8,24.8,M,,M,,*74
$GPRMC,065438.000,A,3114.455158,N,12129.100003,E,2.6,258.574927711,250122,,E,A*23
$GPGGA,065439.000,3114.455032,N,12129.099228,E,1,19,0.8,24.4,M,,M,,*7E
$GPRMC,065439.000,A,3114.455032,N,12129.099228,E,2.5,263.372643885,250122,,E,A*21
$GPGGA,065440.000,3114.455844,N,12129.098326,E,1,19,0.8,24.9,M,,M,,*7A
$GPRMC,065440.000,A,3114.455844,N,12129.098326,E,2.5,234.60563529400002,250122,,E,A*16
$GPGGA,065441.000,3114.455779,N,12129.097653,E,1,19,0.8,24.9,M,,M,,*72
$GPRMC,065441.000,A,3114.455779,N,12129.097653,E,2.2,260.437684244,250122,,E,A*2E
$GPGGA,065442.000,3114.455779,N,12129.096376,E,1,19,0.8,25.5,M,,M,,*7F
$GPRMC,065442.000,A,3114.455779,N,12129.096376,E,2.6,229.325680438,250122,,E,A*2A
$GPGGA,065443.000,3114.454425,N,12129.095843,E,1,19,0.8,26.3,M,,M,,*7E
$GPRMC,065443.000,A,3114.454425,N,12129.095843,E,2.7,267.502668079,250122,,E,A*21
$GPGGA,065444.000,3114.454399,N,12129.094760,E,1,19,0.8,26.7,M,,M,,*72
$GPRMC,065444.000,A,3114.454399,N,12129.094760,E,2.8,253.09290853599998,250122,,E,A*11
$GPGGA,065445.000,3114.454454,N,12129.093551,E,1,19,0.8,26.9,M,,M,,*7C
$GPRMC,065445.000,A,3114.454454,N,12129.093551,E,2.9,-102.45595997,250122,,E,A*34
$GPGGA,065446.000,3114.454929,N,12129.092268,E,1,19,0.8,27.0,M,,M,,*7C
$GPRMC,065446.000,A,3114.454929,N,12129.092268,E,3.0,-95.70882557799999,250122,,E,A*08
$GPGGA,065447.000,3114.454727,N,12129.091253,E,1,19,0.8,26.8,M,,M,,*7F
$GPRMC,065447.000,A,3114.454727,N,12129.091253,E,3.1,-99.77792497200001,250122,,E,A*06
$GPGGA,065448.000,3114.454319,N,12129.090254,E,1,19,0.8,26.6,M,,M,,*71
$GPRMC,065448.000,A,3114.454319,N,12129.090254,E,3.1,-102.37077551700001,250122,,E,A*33
$GPGGA,065449.000,3114.454936,N,12129.088936,E,1,19,0.8,26.8,M,,M,,*7F
$GPRMC,065449.000,A,3114.454936,N,12129.088936,E,3.2,-95.015514126,250122,,E,A*3D
$GPGGA,065450.000,3114.454694,N,12129.087949,E,1,19,0.8,26.8,M,,M,,*77
$GPRMC,065450.000,A,3114.454694,N,12129.087949,E,3.2,-96.42544983200001,250122,,E,A*05
$GPGGA,065451.000,3114.454653,N,12129.087153,E,1,19,0.8,26.8,M,,M,,*7E
$GPRMC,065451.000,A,3114.454653,N,12129.087153,E,3.1,-95.39857168799999,250122,,E,A*0F
$GPGGA,065452.000,3114.454617,N,12129.086149,E,1,19,0.8,27.1,M,,M,,*7F
$GPRMC,065452.000,A,3114.454617,N,12129.086149,E,3.1,-96.417448219,250122,,E,A*34
$GPGGA,065453.000,3114.455531,N,12129.085199,E,1,19,0.8,27.6,M,,M,,*71
$GPRMC,065453.000,A,3114.455531,N,12129.085199,E,3.1,-84.95054607,250122,,E,A*02
$GPGGA,065454.000,3114.456197,N,12129.084036,E,1,19,0.8,27.9,M,,M,,*77
$GPRMC,065454.000,A,3114.456197,N,12129.084036,E,3.1,-79.646359209,250122,,E,A*35
$GPGGA,065455.000,3114.456449,N,12129.083588,E,1,19,0.8,28.5,M,,M,,*74
$GPRMC,065455.000,A,3114.456449,N,12129.083588,E,2.8,268.38146754900004,250122,,E,A*11
$GPGGA,065456.000,3114.456113,N,12129.082657,E,1,19,0.8,28.6,M,,M,,*7E
$GPRMC,065456.000,A,3114.456113,N,12129.082657,E,2.8,257.73541549,250122,,E,A*1B
$GPGGA,065457.000,3114.456105,N,12129.081473,E,1,19,0.8,29.5,M,,M,,*7D
$GPRMC,065457.000,A,3114.456105,N,12129.081473,E,2.9,-88.609065338,250122,,E,A*3E
$GPGGA,065458.000,3114.455800,N,12129.080470,E,1,19,0.8,29.9,M,,M,,*73
$GPRMC,065458.000,A,3114.455800,N,12129.080470,E,3.0,-92.802611952,250122,,E,A*39
$GPGGA,065459.000,3114.455448,N,12129.079548,E,1,19,0.8,30.4,M,,M,,*7B
$GPRMC,065459.000,A,3114.455448,N,12129.079548,E,2.9,-97.397963811,250122,,E,A*32
$GPGGA,065500.000,3114.454340,N,12129.078875,E,1,19,0.8,31.3,M,,M,,*7C
$GPRMC,065500.000,A,3114.454340,N,12129.078875,E,2.9,-108.631640041,250122,,E,A*0E
$GPGGA,065501.000,3114.453567,N,12129.078298,E,1,19,0.8,32.1,M,,M,,*71
$GPRMC,065501.000,A,3114.453567,N,12129.078298,E,2.8,252.942507769,250122,,E,A*24
$GPGGA,065502.000,3114.452561,N,12129.077860,E,1,19,0.8,32.5,M,,M,,*73
$GPRMC,065502.000,A,3114.452561,N,12129.077860,E,2.7,276.04835498200003,250122,,E,A*10
$GPGGA,065503.000,3114.452449,N,12129.077138,E,1,19,0.8,32.7,M,,M,,*7F
$GPRMC,065503.000,A,3114.452449,N,12129.077138,E,2.6,272.559248426,250122,,E,A*22
$GPGGA,065504.000,3114.452041,N,12129.076713,E,1,19,0.8,33.1,M,,M,,*7D
$GPRMC,065504.000,A,3114.452041,N,12129.076713,E,2.5,246.35058284099998,250122,,E,A*19
$GPGGA,065505.000,3114.449459,N,12129.076715,E,1,19,0.8,33.7,M,,M,,*7B
$GPRMC,065505.000,A,3114.449459,N,12129.076715,E,3.1,-142.00172957,250122,,E,A*34
$GPGGA,065506.000,3114.449717,N,12129.075658,E,1,19,0.8,34.2,M,,M,,*78
$GPRMC,065506.000,A,3114.449717,N,12129.075658,E,2.7,247.402459306,250122,,E,A*2D
$GPGGA,065507.000,3114.449453,N,12129.074573,E,1,19,0.8,34.6,M,,M,,*75
$GPRMC,065507.000,A,3114.449453,N,12129.074573,E,2.8,250.981942926,250122,,E,A*24
$GPGGA,065508.000,3114.449799,N,12129.073437,E,1,19,0.8,34.9,M,,M,,*76
$GPRMC,065508.000,A,3114.449799,N,12129.073437,E,2.7,261.48319497299997,250122,,E,A*1F
$GPGGA,065509.000,3114.451264,N,12129.071972,E,1,19,0.8,35.4,M,,M,,*7B
$GPRMC,065509.000,A,3114.451264,N,12129.071972,E,2.9,250.258981054,250122,,E,A*24
$GPGGA,065510.000,3114.452059,N,12129.070584,E,1,19,0.8,35.7,M,,M,,*7B
$GPRMC,065510.000,A,3114.452059,N,12129.070584,E,3.4,-66.035227522,250122,,E,A*3B
$GPGGA,065511.000,3114.452320,N,12129.069375,E,1,19,0.8,35.8,M,,M,,*78
$GPRMC,065511.000,A,3114.452320,N,12129.069375,E,2.9,245.644423235,250122,,E,A*26
$GPGGA,065512.000,3114.447539,N,12129.068629,E,1,19,0.8,36.9,M,,M,,*7E
$GPRMC,065512.000,A,3114.447539,N,12129.068629,E,5.9,-148.216123376,250122,,E,A*06
$GPGGA,065513.000,3114.448577,N,12129.067296,E,1,19,0.8,38.0,M,,M,,*72
$GPRMC,065513.000,A,3114.448577,N,12129.067296,E,3.4,-110.287883013,250122,,E,A*00
$GPGGA,065514.000,3114.450081,N,12129.065897,E,1,19,0.8,38.9,M,,M,,*70
$GPRMC,065514.000,A,3114.450081,N,12129.065897,E,4.3,-50.738287678,250122,,E,A*3A
$GPGGA,065515.000,3114.446423,N,12129.065331,E,1,19,0.8,39.7,M,,M,,*72
$GPRMC,065515.000,A,3114.446423,N,12129.065331,E,4.0,-131.86442798,250122,,E,A*30
$GPGGA,065516.000,3114.444439,N,12129.064638,E,1,19,0.8,40.2,M,,M,,*7E
$GPRMC,065516.000,A,3114.444439,N,12129.064638,E,3.1,-111.384113808,250122,,E,A*05
$GPGGA,065517.000,3114.444994,N,12129.063567,E,1,19,0.8,40.2,M,,M,,*7B
$GPRMC,065517.000,A,3114.444994,N,12129.063567,E,3.1,-75.383550284,250122,,E,A*39
$GPGGA,065518.000,3114.444390,N,12129.062773,E,1,19,0.8,40.4,M,,M,,*7A
$GPRMC,065518.000,A,3114.444390,N,12129.062773,E,3.0,-93.825448569,250122,,E,A*3C
$GPGGA,065519.000,3114.445202,N,12129.061826,E,1,19,0.8,40.5,M,,M,,*7D
$GPRMC,065519.000,A,3114.445202,N,12129.061826,E,3.0,-75.198280288,250122,,E,A*37
$GPGGA,065520.000,3114.446898,N,12129.061469,E,1,19,0.8,40.1,M,,M,,*7E
$GPRMC,065520.000,A,3114.446898,N,12129.061469,E,3.7,-44.32523278,250122,,E,A*05
$GPGGA,065521.000,3114.445737,N,12129.061298,E,1,19,0.8,41.0,M,,M,,*7E
$GPRMC,065521.000,A,3114.445737,N,12129.061298,E,2.5,250.99710594599998,250122,,E,A*17
$GPGGA,065522.000,3114.445928,N,12129.060497,E,1,19,0.8,41.8,M,,M,,*7D
$GPRMC,065522.000,A,3114.445928,N,12129.060497,E,2.6,282.431276119,250122,,E,A*2F
$GPGGA,065523.000,3114.444695,N,12129.060764,E,1,19,0.8,42.5,M,,M,,*75
$GPRMC,065523.000,A,3114.444695,N,12129.060764,E,2.3,256.30659454,250122,,E,A*15
$GPGGA,065524.000,3114.444217,N,12129.060666,E,1,19,0.8,43.2,M,,M,,*79
$GPRMC,065524.000,A,3114.444217,N,12129.060666,E,2.5,252.323064245,250122,,E,A*22
$GPGGA,065525.000,3114.443876,N,12129.059251,E,1,19,0.8,44.1,M,,M,,*7C
$GPRMC,065525.000,A,3114.443876,N,12129.059251,E,3.2,-129.33451565200002,250122,,E,A*32
$GPGGA,065526.000,3114.444623,N,12129.058422,E,1,19,0.8,44.8,M,,M,,*7C
$GPRMC,065526.000,A,3114.444623,N,12129.058422,E,3.2,-102.57005284,250122,,E,A*3D
$GPGGA,065527.000,3114.445897,N,12129.057952,E,1,19,0.8,45.2,M,,M,,*73
$GPRMC,065527.000,A,3114.445897,N,12129.057952,E,2.7,254.853867928,250122,,E,A*2D
$GPGGA,065528.000,3114.445768,N,12129.057257,E,1,19,0.8,45.3,M,,M,,*7C
$GPRMC,065528.000,A,3114.445768,N,12129.057257,E,2.4,260.760041856,250122,,E,A*2C
$GPGGA,065529.000,3114.446106,N,12129.056554,E,1,19,0.8,45.8,M,,M,,*7E
$GPRMC,065529.000,A,3114.446106,N,12129.056554,E,2.4,270.228378043,250122,,E,A*28
$GPGGA,065530.000,3114.446326,N,12129.055514,E,1,19,0.8,46.2,M,,M,,*78
$GPRMC,065530.000,A,3114.446326,N,12129.055514,E,2.5,268.789530375,250122,,E,A*2D
$GPGGA,065531.000,3114.446866,N,12129.054002,E,1,19,0.8,46.5,M,,M,,*72
$GPRMC,065531.000,A,3114.446866,N,12129.054002,E,3.0,-77.264351046,250122,,E,A*31
$GPGGA,065532.000,3114.447716,N,12129.052546,E,1,19,0.8,46.7,M,,M,,*79
$GPRMC,065532.000,A,3114.447716,N,12129.052546,E,3.4,-70.841991135,250122,,E,A*35
$GPGGA,065533.000,3114.448622,N,12129.051256,E,1,19,0.8,46.8,M,,M,,*7B
$GPRMC,065533.000,A,3114.448622,N,12129.051256,E,3.4,-67.342135648,250122,,E,A*3D
$GPGGA,065534.000,3114.449548,N,12129.049357,E,1,19,0.8,46.6,M,,M,,*75
$GPRMC,065534.000,A,3114.449548,N,12129.049357,E,3.9,-65.29018857199999,250122,,E,A*0A
$GPGGA,065535.000,3114.451082,N,12129.047503,E,1,19,0.8,46.5,M,,M,,*74
$GPRMC,065535.000,A,3114.451082,N,12129.047503,E,4.6,-60.072579655,250122,,E,A*3D
$GPGGA,065536.000,3114.452108,N,12129.045687,E,1,19,0.8,46.1,M,,M,,*7E
$GPRMC,065536.000,A,3114.452108,N,12129.045687,E,5.0,-59.715489532,250122,,E,A*34
$GPGGA,065537.000,3114.451974,N,12129.044376,E,1,19,0.8,46.4,M,,M,,*70
$GPRMC,065537.000,A,3114.451974,N,12129.044376,E,4.4,-66.67446445600001,250122,,E,A*01
$GPGGA,065538.000,3114.452724,N,12129.043066,E,1,19,0.8,46.5,M,,M,,*73
$GPRMC,065538.000,A,3114.452724,N,12129.043066,E,4.4,-66.551884431,250122,,E,A*35
$GPGGA,065539.000,3114.453271,N,12129.041501,E,1,19,0.8,46.3,M,,M,,*76
$GPRMC,065539.000,A,3114.453271,N,12129.041501,E,4.6,-66.867451288,250122,,E,A*3C
$GPGGA,065540.000,3114.453968,N,12129.040297,E,1,19,0.8,46.1,M,,M,,*70
$GPRMC,065540.000,A,3114.453968,N,12129.040297,E,4.6,-64.774063405,250122,,E,A*31
$GPGGA,065541.000,3114.453879,N,12129.039033,E,1,19,0.8,45.7,M,,M,,*77
$GPRMC,065541.000,A,3114.453879,N,12129.039033,E,4.3,-70.92609402800001,250122,,E,A*08
$GPGGA,065542.000,3114.453331,N,12129.037380,E,1,19,0.8,45.7,M,,M,,*76
$GPRMC,065542.000,A,3114.453331,N,12129.037380,E,4.3,-85.778136036,250122,,E,A*31
$GPGGA,065543.000,3114.453900,N,12129.035788,E,1,19,0.8,45.5,M,,M,,*73
$GPRMC,065543.000,A,3114.453900,N,12129.035788,E,4.4,-81.41691041,250122,,E,A*02
$GPGGA,065544.000,3114.454354,N,12129.034398,E,1,19,0.8,45.3,M,,M,,*7A
$GPRMC,065544.000,A,3114.454354,N,12129.034398,E,4.4,-78.449333877,250122,,E,A*37
$GPGGA,065545.000,3114.453743,N,12129.033626,E,1,19,0.8,44.8,M,,M,,*73
$GPRMC,065545.000,A,3114.453743,N,12129.033626,E,4.0,-88.532277209,250122,,E,A*30
$GPGGA,065546.000,3114.451409,N,12129.032574,E,1,19,0.8,44.4,M,,M,,*76
$GPRMC,065546.000,A,3114.451409,N,12129.032574,E,4.2,-112.328617723,250122,,E,A*0B
$GPGGA,065547.000,3114.451112,N,12129.031987,E,1,19,0.8,44.8,M,,M,,*77
$GPRMC,065547.000,A,3114.451112,N,12129.031987,E,3.5,-90.09297840100001,250122,,E,A*0B
$GPGGA,065548.000,3114.450755,N,12129.031363,E,1,19,0.8,45.8,M,,M,,*7D
$GPRMC,065548.000,A,3114.450755,N,12129.031363,E,3.2,-96.678143204,250122,,E,A*31
$GPGGA,065549.000,3114.447192,N,12129.031756,E,1,19,0.8,46.8,M,,M,,*76
$GPRMC,065549.000,A,3114.447192,N,12129.031756,E,5.1,-151.72837541200002,250122,,E,A*36
$GPGGA,065550.000,3114.443025,N,12129.031513,E,1,19,0.8,47.4,M,,M,,*79
$GPRMC,065550.000,A,3114.443025,N,12129.031513,E,8.0,-166.621451895,250122,,E,A*04
$GPGGA,065551.000,3114.438836,N,12129.031596,E,1,19,0.8,47.8,M,,M,,*7F
$GPRMC,065551.000,A,3114.438836,N,12129.031596,E,9.4,-172.073993704,250122,,E,A*0B
$GPGGA,065552.000,3114.438143,N,12129.031413,E,1,19,0.8,48.3,M,,M,,*7F
$GPRMC,065552.000,A,3114.438143,N,12129.031413,E,5.8,-169.432487828,250122,,E,A*0D
$GPGGA,065553.000,3114.439096,N,12129.030458,E,1,19,0.8,48.1,M,,M,,*7A
$GPRMC,065553.000,A,3114.439096,N,12129.030458,E,2.0,250.760180341,250122,,E,A*23
$GPGGA,065554.000,3114.437330,N,12129.029576,E,1,19,0.8,48.3,M,,M,,*7B
$GPRMC,065554.000,A,3114.437330,N,12129.029576,E,2.3,255.62163584099997,250122,,E,A*16
$GPGGA,065555.000,3114.436361,N,12129.028498,E,1,19,0.8,48.0,M,,M,,*7C
$GPRMC,065555.000,A,3114.436361,N,12129.028498,E,2.9,-119.66028663700001,250122,,E,A*3F
$GPGGA,065556.000,3114.436281,N,12129.027616,E,1,19,0.8,48.0,M,,M,,*7B
$GPRMC,065556.000,A,3114.436281,N,12129.027616,E,2.9,243.663176579,250122,,E,A*2E
$GPGGA,065557.000,3114.436705,N,12129.026740,E,1,19,0.8,47.7,M,,M,,*78
$GPRMC,065557.000,A,3114.436705,N,12129.026740,E,2.7,247.09796946900002,250122,,E,A*16
$GPGGA,065558.000,3114.435666,N,12129.025477,E,1,19,0.8,48.2,M,,M,,*7E
$GPRMC,065558.000,A,3114.435666,N,12129.025477,E,3.2,-116.37244177,250122,,E,A*32
$GPGGA,065559.000,3114.435450,N,12129.024760,E,1,19,0.8,48.4,M,,M,,*7A
$GPRMC,065559.000,A,3114.435450,N,12129.024760,E,3.0,-111.912750282,250122,,E,A*02
$GPGGA,065600.000,3114.435600,N,12129.023973,E,1,19,0.8,48.6,M,,M,,*7B
$GPRMC,065600.000,A,3114.435600,N,12129.023973,E,2.8,264.91749609,250122,,E,A*19
$GPGGA,065601.000,3114.435508,N,12129.023330,E,1,19,0.8,48.8,M,,M,,*72
$GPRMC,065601.000,A,3114.435508,N,12129.023330,E,2.6,270.000331684,250122,,E,A*23
$GPGGA,065602.000,3114.435302,N,12129.022482,E,1,19,0.8,48.9,M,,M,,*73
$GPRMC,065602.000,A,3114.435302,N,12129.022482,E,2.6,270.000331684,250122,,E,A*23
$GPGGA,065603.000,3114.436490,N,12129.021206,E,1,19,0.8,48.8,M,,M,,*75
$GPRMC,065603.000,A,3114.436490,N,12129.021206,E,2.7,260.900661792,250122,,E,A*2B
$GPGGA,065604.000,3114.436349,N,12129.020612,E,1,19,0.8,48.7,M,,M,,*7E
$GPRMC,065604.000,A,3114.436349,N,12129.020612,E,2.6,259.079979225,250122,,E,A*2C
$GPGGA,065605.000,3114.436486,N,12129.019869,E,1,19,0.8,48.7,M,,M,,*73
$GPRMC,065605.000,A,3114.436486,N,12129.019869,E,2.5,259.73403814700004,250122,,E,A*13
$GPGGA,065606.000,3114.436757,N,12129.019109,E,1,19,0.8,48.6,M,,M,,*71
$GPRMC,065606.000,A,3114.436757,N,12129.019109,E,2.4,267.230006924,250122,,E,A*29
$GPGGA,065607.000,3114.436577,N,12129.018572,E,1,19,0.8,48.9,M,,M,,*76
$GPRMC,065607.000,A,3114.436577,N,12129.018572,E,2.3,251.528576632,250122,,E,A*27
$GPGGA,065608.000,3114.436528,N,12129.017501,E,1,19,0.8,49.3,M,,M,,*73
$GPRMC,065608.000,A,3114.436528,N,12129.017501,E,2.5,249.926050309,250122,,E,A*28
$GPGGA,065609.000,3114.436829,N,12129.016540,E,1,19,0.8,49.5,M,,M,,*7C
$GPRMC,065609.000,A,3114.436829,N,12129.016540,E,2.5,267.801283953,250122,,E,A*20
$GPGGA,065610.000,3114.437220,N,12129.016202,E,1,19,0.8,49.7,M,,M,,*75
$GPRMC,065610.000,A,3114.437220,N,12129.016202,E,2.3,270.71733763099996,250122,,E,A*11
$GPGGA,065611.000,3114.437530,N,12129.015572,E,1,19,0.8,49.8,M,,M,,*7E
$GPRMC,065611.000,A,3114.437530,N,12129.015572,E,2.3,265.571964824,250122,,E,A*22
$GPGGA,065612.000,3114.437533,N,12129.014717,E,1,19,0.8,49.9,M,,M,,*7F
$GPRMC,065612.000,A,3114.437533,N,12129.014717,E,2.5,259.31922709400004,250122,,E,A*18
$GPGGA,065613.000,3114.437898,N,12129.013782,E,1,19,0.8,50.1,M,,M,,*79
$GPRMC,065613.000,A,3114.437898,N,12129.013782,E,2.6,252.604987137,250122,,E,A*22
$GPGGA,065614.000,3114.437992,N,12129.012868,E,1,19,0.8,50.4,M,,M,,*7A
$GPRMC,065614.000,A,3114.437992,N,12129.012868,E,2.6,255.43470722200001,250122,,E,A*12
$GPGGA,065615.000,3114.437655,N,12129.011960,E,1,19,0.8,50.8,M,,M,,*79
$GPRMC,065615.000,A,3114.437655,N,12129.011960,E,2.7,256.485654782,250122,,E,A*2C
$GPGGA,065616.000,3114.437481,N,12129.011216,E,1,19,0.8,50.9,M,,M,,*7A
$GPRMC,065616.000,A,3114.437481,N,12129.011216,E,2.6,266.533163696,250122,,E,A*27
$GPGGA,065617.000,3114.437419,N,12129.010177,E,1,19,0.8,50.7,M,,M,,*71
$GPRMC,065617.000,A,3114.437419,N,12129.010177,E,2.7,264.00367141,250122,,E,A*1F
$GPGGA,065618.000,3114.437395,N,12129.009345,E,1,19,0.8,50.8,M,,M,,*79
$GPRMC,065618.000,A,3114.437395,N,12129.009345,E,2.8,261.460628027,250122,,E,A*2F
$GPGGA,065619.000,3114.437562,N,12129.008186,E,1,19,0.8,50.7,M,,M,,*75
$GPRMC,065619.000,A,3114.437562,N,12129.008186,E,2.9,264.396680499,250122,,E,A*25
$GPGGA,065620.000,3114.437643,N,12129.007366,E,1,19,0.8,50.5,M,,M,,*7E
$GPRMC,065620.000,A,3114.437643,N,12129.007366,E,2.9,275.063059201,250122,,E,A*20
$GPGGA,065621.000,3114.437937,N,12129.006038,E,1,19,0.8,50.1,M,,M,,*7E
$GPRMC,065621.000,A,3114.437937,N,12129.006038,E,3.1,-87.197072832,250122,,E,A*36
$GPGGA,065622.000,3114.438365,N,12129.004687,E,1,19,0.8,49.4,M,,M,,*72
$GPRMC,065622.000,A,3114.438365,N,12129.004687,E,3.1,-84.923390603,250122,,E,A*30
$GPGGA,065623.000,3114.438529,N,12129.003417,E,1,19,0.8,49.0,M,,M,,*75
$GPRMC,065623.000,A,3114.438529,N,12129.003417,E,3.2,-85.000319888,250122,,E,A*35
$GPGGA,065624.000,3114.438598,N,12129.002255,E,1,19,0.8,48.5,M,,M,,*7D
$GPRMC,065624.000,A,3114.438598,N,12129.002255,E,3.2,-87.032022564,250122,,E,A*3E
$GPGGA,065625.000,3114.438529,N,12129.000981,E,1,19,0.8,47.9,M,,M,,*75
$GPRMC,065625.000,A,3114.438529,N,12129.000981,E,3.3,-88.24360063299999,250122,,E,A*00
$GPGGA,065626.000,3114.438420,N,12128.999735,E,1,19,0.8,47.5,M,,M,,*7B
$GPRMC,065626.000,A,3114.438420,N,12128.999735,E,3.3,-89.774654642,250122,,E,A*3D
$GPGGA,065627.000,3114.438138,N,12128.998736,E,1,19,0.8,46.9,M,,M,,*79
$GPRMC,065627.000,A,3114.438138,N,12128.998736,E,3.3,-91.634181216,250122,,E,A*34
$GPGGA,065628.000,3114.438033,N,12128.997616,E,1,19,0.8,46.8,M,,M,,*71
$GPRMC,065628.000,A,3114.438033,N,12128.997616,E,3.3,-92.368177086,250122,,E,A*30
$GPGGA,065629.000,3114.438043,N,12128.996970,E,1,19,0.8,46.6,M,,M,,*77
$GPRMC,065629.000,A,3114.438043,N,12128.996970,E,3.0,-92.60414808700001,250122,,E,A*08
$GPGGA,065630.000,3114.437729,N,12128.996446,E,1,19,0.8,46.5,M,,M,,*70
$GPRMC,065630.000,A,3114.437729,N,12128.996446,E,2.8,272.358577466,250122,,E,A*2A
$GPGGA,065631.000,3114.437559,N,12128.996014,E,1,19,0.8,46.4,M,,M,,*76
$GPRMC,065631.000,A,3114.437559,N,12128.996014,E,2.5,272.358577466,250122,,E,A*20
$GPGGA,065632.000,3114.437681,N,12128.995662,E,1,19,0.8,46.2,M,,M,,*71
$GPRMC,065632.000,A,3114.437681,N,12128.995662,E,2.2,272.358577466,250122,,E,A*26
$GPGGA,065633.000,3114.437545,N,12128.996149,E,1,19,0.8,45.2,M,,M,,*75
$GPRMC,065633.000,A,3114.437545,N,12128.996149,E,1.4,272.358577466,250122,,E,A*24
$GPGGA,065634.000,3114.436548,N,12128.996746,E,1,19,0.8,44.1,M,,M,,*75
$GPRMC,065634.000,A,3114.436548,N,12128.996746,E,0.8,272.358577466,250122,,E,A*2B
$GPGGA,065635.000,3114.436413,N,12128.997054,E,1,19,0.8,43.7,M,,M,,*7F
$GPRMC,065635.000,A,3114.436413,N,12128.997054,E,0.5,272.358577466,250122,,E,A*2D
$GPGGA,065636.000,3114.436213,N,12128.997093,E,1,19,0.8,43.0,M,,M,,*76
$GPRMC,065636.000,A,3114.436213,N,12128.997093,E,0.5,272.358577466,250122,,E,A*23
$GPGGA,065637.000,3114.435335,N,12128.997111,E,1,19,0.8,41.9,M,,M,,*71
$GPRMC,065637.000,A,3114.435335,N,12128.997111,E,0.8,272.358577466,250122,,E,A*22
$GPGGA,065638.000,3114.434966,N,12128.997090,E,1,19,0.8,41.4,M,,M,,*76
$GPRMC,065638.000,A,3114.434966,N,12128.997090,E,0.8,272.358577466,250122,,E,A*28
$GPGGA,065639.000,3114.434249,N,12128.997012,E,1,19,0.8,40.5,M,,M,,*7B
$GPRMC,065639.000,A,3114.434249,N,12128.997012,E,1.0,272.358577466,250122,,E,A*2C
$GPGGA,065640.000,3114.433548,N,12128.996714,E,1,19,0.8,39.9,M,,M,,*76
$GPRMC,065640.000,A,3114.433548,N,12128.996714,E,1.3,272.358577466,250122,,E,A*20
$GPGGA,065641.000,3114.432733,N,12128.996223,E,1,19,0.8,39.4,M,,M,,*74
$GPRMC,065641.000,A,3114.432733,N,12128.996223,E,1.5,272.358577466,250122,,E,A*29
$GPGGA,065642.000,3114.432280,N,12128.995763,E,1,19,0.8,39.1,M,,M,,*7D
$GPRMC,065642.000,A,3114.432280,N,12128.995763,E,1.5,272.358577466,250122,,E,A*25
$GPGGA,065643.000,3114.431650,N,12128.995416,E,1,19,0.8,38.8,M,,M,,*7F
$GPRMC,065643.000,A,3114.431650,N,12128.995416,E,1.6,272.358577466,250122,,E,A*2C
$GPGGA,065644.000,3114.431052,N,12128.995226,E,1,19,0.8,38.6,M,,M,,*77
$GPRMC,065644.000,A,3114.431052,N,12128.995226,E,1.6,272.358577466,250122,,E,A*2A
$GPGGA,065645.000,3114.430098,N,12128.995112,E,1,19,0.8,38.5,M,,M,,*76
$GPRMC,065645.000,A,3114.430098,N,12128.995112,E,1.8,272.358577466,250122,,E,A*26
$GPGGA,065646.000,3114.429402,N,12128.994890,E,1,19,0.8,38.4,M,,M,,*79
$GPRMC,065646.000,A,3114.429402,N,12128.994890,E,1.9,272.358577466,250122,,E,A*29
$GPGGA,065647.000,3114.428241,N,12128.994789,E,1,19,0.8,37.6,M,,M,,*72
$GPRMC,065647.000,A,3114.428241,N,12128.994789,E,2.1,272.358577466,250122,,E,A*24
$GPGGA,065648.000,3114.427402,N,12128.994551,E,1,19,0.8,37.6,M,,M,,*74
$GPRMC,065648.000,A,3114.427402,N,12128.994551,E,2.2,272.358577466,250122,,E,A*21
$GPGGA,065649.000,3114.426626,N,12128.994611,E,1,19,0.8,36.8,M,,M,,*78
$GPRMC,065649.000,A,3114.426626,N,12128.994611,E,2.1,272.358577466,250122,,E,A*21
$GPGGA,065650.000,3114.425180,N,12128.994130,E,1,19,0.8,36.0,M,,M,,*74
$GPRMC,065650.000,A,3114.425180,N,12128.994130,E,2.6,272.358577466,250122,,E,A*22
$GPGGA,065651.000,3114.424619,N,12128.993462,E,1,19,0.8,36.1,M,,M,,*77
$GPRMC,065651.000,A,3114.424619,N,12128.993462,E,2.6,272.358577466,250122,,E,A*20
$GPGGA,065652.000,3114.424580,N,12128.993022,E,1,19,0.8,36.1,M,,M,,*77
$GPRMC,065652.000,A,3114.424580,N,12128.993022,E,2.2,272.358577466,250122,,E,A*24
$GPGGA,065653.000,3114.425055,N,12128.992518,E,1,19,0.8,35.1,M,,M,,*74
$GPRMC,065653.000,A,3114.425055,N,12128.992518,E,1.8,246.4234473,250122,,E,A*24
$GPGGA,065654.000,3114.425255,N,12128.992210,E,1,19,0.8,35.0,M,,M,,*7F
$GPRMC,065654.000,A,3114.425255,N,12128.992210,E,1.5,246.504398703,250122,,E,A*25
$GPGGA,065655.000,3114.425774,N,12128.991848,E,1,19,0.8,34.8,M,,M,,*75
$GPRMC,065655.000,A,3114.425774,N,12128.991848,E,1.3,238.14378260799998,250122,,E,A*1C
$GPGGA,065656.000,3114.426081,N,12128.991193,E,1,19,0.8,34.6,M,,M,,*79
$GPRMC,065656.000,A,3114.426081,N,12128.991193,E,1.4,254.74201674900002,250122,,E,A*1F
$GPGGA,065657.000,3114.425986,N,12128.990516,E,1,19,0.8,34.5,M,,M,,*7E
$GPRMC,065657.000,A,3114.425986,N,12128.990516,E,1.5,240.305100373,250122,,E,A*21
$GPGGA,065658.000,3114.426349,N,12128.990265,E,1,19,0.8,34.9,M,,M,,*74
$GPRMC,065658.000,A,3114.426349,N,12128.990265,E,1.4,262.851882936,250122,,E,A*24
$GPGGA,065659.000,3114.426448,N,12128.989787,E,1,19,0.8,34.7,M,,M,,*7C
$GPRMC,065659.000,A,3114.426448,N,12128.989787,E,1.5,274.88500982799997,250122,,E,A*10
$GPGGA,065700.000,3114.426543,N,12128.989333,E,1,19,0.8,34.4,M,,M,,*73
$GPRMC,065700.000,A,3114.426543,N,12128.989333,E,1.5,258.920371362,250122,,E,A*2D
$GPGGA,065701.000,3114.426504,N,12128.988957,E,1,19,0.8,34.2,M,,M,,*7E
$GPRMC,065701.000,A,3114.426504,N,12128.988957,E,1.5,250.887686314,250122,,E,A*2E
$GPGGA,065702.000,3114.426352,N,12128.988336,E,1,19,0.8,34.1,M,,M,,*76
$GPRMC,065702.000,A,3114.426352,N,12128.988336,E,1.5,249.249533724,250122,,E,A*2F
$GPGGA,065703.000,3114.426189,N,12128.987760,E,1,19,0.8,34.2,M,,M,,*78
$GPRMC,065703.000,A,3114.426189,N,12128.987760,E,1.6,228.62416536,250122,,E,A*1A
$GPGGA,065704.000,3114.425942,N,12128.987093,E,1,19,0.8,34.3,M,,M,,*79
$GPRMC,065704.000,A,3114.425942,N,12128.987093,E,1.7,251.87981228400002,250122,,E,A*13
$GPGGA,065705.000,3114.426028,N,12128.986389,E,1,19,0.8,34.5,M,,M,,*71
$GPRMC,065705.000,A,3114.426028,N,12128.986389,E,1.8,249.200711532,250122,,E,A*2B
$GPGGA,065706.000,3114.425991,N,12128.985089,E,1,19,0.8,34.5,M,,M,,*7A
$GPRMC,065706.000,A,3114.425991,N,12128.985089,E,2.1,245.784250869,250122,,E,A*2C
$GPGGA,065707.000,3114.425495,N,12128.984015,E,1,19,0.8,34.7,M,,M,,*74
$GPRMC,065707.000,A,3114.425495,N,12128.984015,E,2.5,269.175763917,250122,,E,A*2F
$GPGGA,065708.000,3114.425146,N,12128.983244,E,1,19,0.8,34.4,M,,M,,*72
$GPRMC,065708.000,A,3114.425146,N,12128.983244,E,2.5,270.59237248799997,250122,,E,A*18
$GPGGA,065709.000,3114.424532,N,12128.982487,E,1,19,0.8,34.7,M,,M,,*7E
$GPRMC,065709.000,A,3114.424532,N,12128.982487,E,2.4,268.361031623,250122,,E,A*2A
$GPGGA,065710.000,3114.424212,N,12128.981684,E,1,19,0.8,34.9,M,,M,,*7F
$GPRMC,065710.000,A,3114.424212,N,12128.981684,E,2.4,279.74651997,250122,,E,A*12
$GPGGA,065711.000,3114.423932,N,12128.981037,E,1,19,0.8,35.0,M,,M,,*76
$GPRMC,065711.000,A,3114.423932,N,12128.981037,E,2.4,248.201454844,250122,,E,A*29
$GPGGA,065712.000,3114.423444,N,12128.980361,E,1,19,0.8,35.2,M,,M,,*7A
$GPRMC,065712.000,A,3114.423444,N,12128.980361,E,2.5,263.247924629,250122,,E,A*22
$GPGGA,065713.000,3114.423042,N,12128.979284,E,1,19,0.8,35.0,M,,M,,*77
$GPRMC,065713.000,A,3114.423042,N,12128.979284,E,2.7,258.00395121,250122,,E,A*19
$GPGGA,065714.000,3114.422379,N,12128.978620,E,1,19,0.8,34.9,M,,M,,*79
$GPRMC,065714.000,A,3114.422379,N,12128.978620,E,2.7,248.620227408,250122,,E,A*2C
$GPGGA,065715.000,3114.421965,N,12128.977634,E,1,19,0.8,34.6,M,,M,,*79
$GPRMC,065715.000,A,3114.421965,N,12128.977634,E,2.8,257.707712242,250122,,E,A*2D
$GPGGA,065716.000,3114.421959,N,12128.976505,E,1,19,0.8,34.4,M,,M,,*77
$GPRMC,065716.000,A,3114.421959,N,12128.976505,E,2.8,260.72692909799997,250122,,E,A*1D
$GPGGA,065717.000,3114.421739,N,12128.975684,E,1,19,0.8,34.1,M,,M,,*72
$GPRMC,065717.000,A,3114.421739,N,12128.975684,E,2.8,259.488752391,250122,,E,A*20
$GPGGA,065718.000,3114.421009,N,12128.974835,E,1,19,0.8,34.0,M,,M,,*7D
$GPRMC,065718.000,A,3114.421009,N,12128.974835,E,3.1,-119.944253067,250122,,E,A*0F
$GPGGA,065719.000,3114.420912,N,12128.973533,E,1,19,0.8,33.5,M,,M,,*70
$GPRMC,065719.000,A,3114.420912,N,12128.973533,E,3.1,-115.42216483600001,250122,,E,A*3B
$GPGGA,065720.000,3114.420895,N,12128.972347,E,1,19,0.8,32.9,M,,M,,*7D
$GPRMC,065720.000,A,3114.420895,N,12128.972347,E,3.1,-111.872341244,250122,,E,A*0D
$GPGGA,065721.000,3114.420524,N,12128.971698,E,1,19,0.8,32.4,M,,M,,*72
$GPRMC,065721.000,A,3114.420524,N,12128.971698,E,2.8,246.508688061,250122,,E,A*2E
$GPGGA,065722.000,3114.420176,N,12128.970468,E,1,19,0.8,32.4,M,,M,,*7E
$GPRMC,065722.000,A,3114.420176,N,12128.970468,E,3.0,-114.72307275799999,250122,,E,A*31
$GPGGA,065723.000,3114.420105,N,12128.969353,E,1,19,0.8,32.1,M,,M,,*79
$GPRMC,065723.000,A,3114.420105,N,12128.969353,E,3.0,-112.509832622,250122,,E,A*09
$GPGGA,065724.000,3114.419954,N,12128.968380,E,1,19,0.8,32.0,M,,M,,*76
$GPRMC,065724.000,A,3114.419954,N,12128.968380,E,2.9,-111.342296924,250122,,E,A*08
$GPGGA,065725.000,3114.419758,N,12128.967556,E,1,19,0.8,32.0,M,,M,,*77
$GPRMC,065725.000,A,3114.419758,N,12128.967556,E,2.8,270.051039009,250122,,E,A*21
$GPGGA,065726.000,3114.420411,N,12128.966517,E,1,19,0.8,31.6,M,,M,,*71
$GPRMC,065726.000,A,3114.420411,N,12128.966517,E,2.6,266.4243178,250122,,E,A*23
$GPGGA,065727.000,3114.420427,N,12128.965447,E,1,19,0.8,31.7,M,,M,,*73
$GPRMC,065727.000,A,3114.420427,N,12128.965447,E,2.7,276.290498851,250122,,E,A*2D
$GPGGA,065728.000,3114.420171,N,12128.964422,E,1,19,0.8,31.7,M,,M,,*78
$GPRMC,065728.000,A,3114.420171,N,12128.964422,E,2.9,250.035633865,250122,,E,A*25
$GPGGA,065729.000,3114.420269,N,12128.963382,E,1,19,0.8,31.5,M,,M,,*7B
$GPRMC,065729.000,A,3114.420269,N,12128.963382,E,2.9,259.19051900799997,250122,,E,A*13
$GPGGA,065730.000,3114.420292,N,12128.962445,E,1,19,0.8,31.5,M,,M,,*7A
$GPRMC,065730.000,A,3114.420292,N,12128.962445,E,2.9,263.146482659,250122,,E,A*29
$GPGGA,065731.000,3114.420432,N,12128.961396,E,1,19,0.8,31.8,M,,M,,*70
$GPRMC,065731.000,A,3114.420432,N,12128.961396,E,2.9,261.624170079,250122,,E,A*23
$GPGGA,065732.000,3114.420594,N,12128.960450,E,1,19,0.8,32.2,M,,M,,*7B
$GPRMC,065732.000,A,3114.420594,N,12128.960450,E,2.8,246.061884401,250122,,E,A*2B
$GPGGA,065733.000,3114.417959,N,12128.960575,E,1,19,0.8,32.2,M,,M,,*75
$GPRMC,065733.000,A,3114.417959,N,12128.960575,E,2.7,246.130705388,250122,,E,A*2F
$GPGGA,065734.000,3114.417828,N,12128.959751,E,1,19,0.8,32.3,M,,M,,*7A
$GPRMC,065734.000,A,3114.417828,N,12128.959751,E,2.6,265.23223121,250122,,E,A*12
$GPGGA,065735.000,3114.418107,N,12128.958756,E,1,19,0.8,32.4,M,,M,,*71
$GPRMC,065735.000,A,3114.418107,N,12128.958756,E,2.6,262.528924267,250122,,E,A*2A
$GPGGA,065736.000,3114.418257,N,12128.958020,E,1,19,0.8,32.5,M,,M,,*73
$GPRMC,065736.000,A,3114.418257,N,12128.958020,E,2.5,240.353075623,250122,,E,A*29
$GPGGA,065737.000,3114.418083,N,12128.957337,E,1,19,0.8,32.5,M,,M,,*73
$GPRMC,065737.000,A,3114.418083,N,12128.957337,E,2.5,243.339671495,250122,,E,A*2B
$GPGGA,065738.000,3114.417796,N,12128.956728,E,1,19,0.8,32.7,M,,M,,*79
$GPRMC,065738.000,A,3114.417796,N,12128.956728,E,2.4,261.230969744,250122,,E,A*23
$GPGGA,065739.000,3114.417555,N,12128.956437,E,1,19,0.8,32.7,M,,M,,*78
$GPRMC,065739.000,A,3114.417555,N,12128.956437,E,2.1,268.04454797299996,250122,,E,A*12
$GPGGA,065740.000,3114.417201,N,12128.955759,E,1,19,0.8,32.6,M,,M,,*79
$GPRMC,065740.000,A,3114.417201,N,12128.955759,E,2.1,263.623667,250122,,E,A*15
$GPGGA,065741.000,3114.417400,N,12128.954559,E,1,19,0.8,33.2,M,,M,,*79
$GPRMC,065741.000,A,3114.417400,N,12128.954559,E,2.5,255.424789787,250122,,E,A*2D
$GPGGA,065742.000,3114.416947,N,12128.953636,E,1,19,0.8,33.5,M,,M,,*7F
$GPRMC,065742.000,A,3114.416947,N,12128.953636,E,2.6,252.01439433299998,250122,,E,A*15
$GPGGA,065743.000,3114.416884,N,12128.952734,E,1,19,0.8,33.4,M,,M,,*73
$GPRMC,065743.000,A,3114.416884,N,12128.952734,E,2.7,256.644443021,250122,,E,A*2A
$GPGGA,065744.000,3114.415539,N,12128.951524,E,1,19,0.8,33.6,M,,M,,*7E
$GPRMC,065744.000,A,3114.415539,N,12128.951524,E,3.3,-110.610472181,250122,,E,A*04
$GPGGA,065745.000,3114.413957,N,12128.950572,E,1,19,0.8,33.6,M,,M,,*7F
$GPRMC,065745.000,A,3114.413957,N,12128.950572,E,3.7,-120.92156430899999,250122,,E,A*33
$GPGGA,065746.000,3114.413536,N,12128.949091,E,1,19,0.8,33.7,M,,M,,*76
$GPRMC,065746.000,A,3114.413536,N,12128.949091,E,3.9,-117.43973433299999,250122,,E,A*3B
$GPGGA,065747.000,3114.413042,N,12128.947791,E,1,19,0.8,34.2,M,,M,,*7A
$GPRMC,065747.000,A,3114.413042,N,12128.947791,E,4.0,-116.46542277399999,250122,,E,A*36
$GPGGA,065748.000,3114.411749,N,12128.947150,E,1,19,0.8,34.8,M,,M,,*7A
$GPRMC,065748.000,A,3114.411749,N,12128.947150,E,4.0,-126.09477028,250122,,E,A*31
$GPGGA,065749.000,3114.411049,N,12128.945894,E,1,19,0.8,34.8,M,,M,,*7F
$GPRMC,065749.000,A,3114.411049,N,12128.945894,E,4.1,-125.584170324,250122,,E,A*0B
$GPGGA,065750.000,3114.410915,N,12128.945674,E,1,19,0.8,35.3,M,,M,,*7C
$GPRMC,065750.000,A,3114.410915,N,12128.945674,E,3.3,-122.166769979,250122,,E,A*04
$GPGGA,065751.000,3114.410222,N,12128.945219,E,1,19,0.8,35.5,M,,M,,*7B
$GPRMC,065751.000,A,3114.410222,N,12128.945219,E,3.1,-125.72239596700001,250122,,E,A*3F
$GPGGA,065752.000,3114.409823,N,12128.944522,E,1,19,0.8,35.8,M,,M,,*78
$GPRMC,065752.000,A,3114.409823,N,12128.944522,E,2.8,267.95370645599996,250122,,E,A*1C
$GPGGA,065753.000,3114.410237,N,12128.943591,E,1,19,0.8,36.3,M,,M,,*79
