     3.03           OBSERVATION DATA    M: Mixed            RINEX VERSION / TYPE
Geo++ RINEX Logger  Geo++               20211106 072418 UTC PGM / RUN BY / DATE
************************************************************COMMENT
This file was generated by the Geo++ RINEX Logger App       COMMENT
for Android devices (Version 2.1.6). If you encounter       COMMENT
any issues, please send an email to android@geopp.de        COMMENT
Filtering Mode: BEST                                        COMMENT
************************************************************COMMENT
Good agent 1                                                MARKER NAME
HUMAN                                                       MARKER TYPE
Icking              PolyU IPNL                              OBSERVER / AGENCY
unknown             HUAWEI              ELS-AN00            REC # / TYPE / VERS
unknown             ELS-AN00                                ANT # / TYPE
 -2418971.0760  5385364.7179  2405880.2924                  APPROX POSITION XYZ
        0.0000        0.0000        0.0000                  ANTENNA: DELTA H/E/N
G    8 C1C L1C D1C S1C C5Q L5Q D5Q S5Q                      SYS / # / OBS TYPES
R    4 C1C L1C D1C S1C                                      SYS / # / OBS TYPES
E   12 C1B L1B D1B S1B C1C L1C D1C S1C C5Q L5Q D5Q S5Q      SYS / # / OBS TYPES
C    4 C2I L2I D2I S2I                                      SYS / # / OBS TYPES
J    8 C1C L1C D1C S1C C5Q L5Q D5Q S5Q                      SYS / # / OBS TYPES
  2021    11     6     7    24   36.8888020     GPS         TIME OF FIRST OBS
 24 R01  1 R02 -4 R03  5 R04  6 R05  1 R06 -4 R07  5 R08  6 GLONASS SLOT / FRQ #
    R09 -2 R10 -5 R11  0 R12 -1 R13 -2 R14 -7 R15  0 R16 -1 GLONASS SLOT / FRQ #
    R17  4 R18 -3 R19  3 R20  2 R21  4 R22 -3 R23  3 R24  2 GLONASS SLOT / FRQ #
G L1C                                                       SYS / PHASE SHIFT
G L5Q -0.25000                                              SYS / PHASE SHIFT
R L1C                                                       SYS / PHASE SHIFT
E L1B                                                       SYS / PHASE SHIFT
E L1C +0.50000                                              SYS / PHASE SHIFT
E L5Q -0.25000                                              SYS / PHASE SHIFT
C L2I                                                       SYS / PHASE SHIFT
J L1C                                                       SYS / PHASE SHIFT
J L5Q -0.25000                                              SYS / PHASE SHIFT
 C1C    0.000 C1P    0.000 C2C    0.000 C2P    0.000        GLONASS COD/PHS/BIS
                                                            END OF HEADER
> 2021 11  6  7 24 36.8888020  3  1
Good agent 1                                                MARKER NAME
> 2021 11  6  7 24 36.8888020  0  6
C32  23054248.676   120049521.8161        753.947          25.000  
C37  23478969.747   122261156.0781        592.789          29.000  
G10  21222948.758   111527348.2791      -1904.358          35.000  
G26  23964619.139   125934923.3921       2991.843          23.000  
G31  22026788.272   115751553.0551        169.168          28.000  
G32  22173937.802   116524828.6771        546.955          29.000  
> 2021 11  6  7 24 37.8888020  0  5
C32  23054103.276   120048768.561         752.844          22.000  
G10  21223318.702   111529252.352       -1904.714          32.000  
G26  23964050.433   125931931.749        2991.035          20.000  
G31  22026755.295   115751383.326         169.487          22.000  
G32  22173831.676   116524281.366         546.781          24.000  
> 2021 11  6  7 24 38.8888020  0  6
C32  23053956.978   120048015.338         752.595          26.000  
C37  23478738.308   122259973.6201        590.926          27.000  
G10  21223682.051   111531157.953       -1903.640          34.000  
G26  23963483.825   125928941.087        2990.299          24.000  
G31  22026721.718   115751213.640         169.110          25.000  
G32  22173728.847   116523736.279         543.684          24.000  
> 2021 11  6  7 24 39.8888020  0  5
C32  23053811.878   120047263.301         751.372          25.000  
C37  23478624.986   122259382.007         591.836          32.000  
G10  21224046.298   111533064.369       -1907.635          34.000  
G26  23962916.018   125925951.024        2989.477          27.000  
G32  22173623.620   116523192.522         542.650          24.000  
> 2021 11  6  7 24 40.8888020  0  5
C32  23053665.879   120046511.819         751.353          25.000  
C37  23478512.564   122258790.099         591.936          33.000  
G10  21224410.247   111534971.646       -1907.654          36.000  
G26  23962346.413   125922961.402        2989.324          30.000  
G32  22173519.592   116522649.774         543.970          19.000  
> 2021 11  6  7 24 41.8888020  0  6
C32  23053521.679   120045760.167         751.198          27.000  
C37  23478400.442   122258199.357         590.069          35.000  
G10  21224769.997   111536880.185       -1909.908          36.000  
G26  23961776.807   125919973.199        2987.294          29.000  
G31  22026637.176   115750710.3081        163.859          29.000  
G32  22173417.063   116522105.747         544.220          30.000  
> 2021 11  6  7 24 42.8888020  0  6
C32  23053375.680   120045009.939         749.651          27.000  
C37  23478285.021   122257609.097         591.621          25.000  
G10  21225129.748   111538789.975       -1911.619          32.000  
G26  23961205.702   125916986.274        2986.562          26.000  
G31  22026609.895   115750546.961         162.835          22.000  
G32  22173312.735   116521562.112         541.254          29.000  
> 2021 11  6  7 24 43.8888020  0  6
C32  23053232.379   120044260.244         749.224          28.000  
C37  23478171.400   122257017.958         590.159          32.000  
G10  21225491.298   111540700.923       -1910.920          30.000  
G26  23960636.397   125913999.426        2986.737          26.000  
G31  22026577.218   115750384.141         162.789          31.000  
G32  22173210.506   116521020.781         542.451          26.000  
> 2021 11  6  7 24 44.8888020  0  5
C32  23053089.079   120043511.313         749.046          30.000  
C37  23478058.378   122256428.521         588.774          34.000  
G10  21225851.349   111542611.661       -1911.559          29.000  
G26  23960067.091   125911012.989        2987.163          24.000  
G32  22173105.578   116520478.220         542.313          27.000  
> 2021 11  6  7 24 45.8888020  0  5
C32  23052943.080   120042763.295         747.323          25.000  
C37  23477945.656   122255839.313         589.774          29.000  
G10  21226215.597   111544523.886       -1912.719          29.000  
G26  23959498.984   125908026.376        2985.970          28.000  
G32  22173001.251   116519935.910         542.727          33.000  
> 2021 11  6  7 24 46.8888020  0  4
C32  23052799.179   120042016.064         746.883          23.000  
G26  23958932.376   125905040.026        2986.433          26.000  
G31  22026485.182   115749898.6911        160.086          25.000  
G32  22172897.822   116519393.544         542.502          33.000  
> 2021 11  6  7 24 47.8888020  0  6
C32  23052656.778   120041269.868         745.279          19.000  
C37  23477727.707   122254661.7221        589.352          24.000  
G10  21226941.094   111548350.2691      -1912.958          30.000  
G26  23958365.169   125902053.343        2986.697          24.000  
G31  22026454.603   115749737.748         161.695          23.000  
G32  22172794.694   116518850.694         542.587          31.000  
> 2021 11  6  7 24 48.8888020  0  6
C32  23052512.278   120040524.604         744.698          26.000  
C37  23477615.585   122254073.990         586.605          30.000  
G10  21227305.642   111550264.116       -1915.042          30.000  
G26  23957796.463   125899066.736        2986.516          26.000  
G31  22026423.125   115749575.478         162.460          27.000  
G32  22172690.666   116518309.326         540.716          31.000  
> 2021 11  6  7 24 49.8888020  0  4
C32  23052371.675   120039780.969         742.570          26.000  
C37  23477503.463   122253488.873         583.995          28.000  
G26  23957228.356   125896080.805        2984.796          29.000  
G32  22172590.235   116517769.619         538.135          31.000  
> 2021 11  6  7 24 50.8888020  0  6
C32  23052227.775   120039038.446         742.843          26.000  
C37  23477390.441   122252904.970         582.892          30.000  
G10  21228040.134   111554096.6551      -1917.865          35.000  
G26  23956660.249   125893095.948        2985.346          31.000  
G31  22026354.172   115749252.3621        160.523          28.000  
G32  22172488.006   116517231.040         539.042          22.000  
> 2021 11  6  7 24 51.8888020  0  6
C32  23052085.973   120038294.925         743.700          24.000  
C37  23477279.218   122252322.390         581.906          33.000  
G10  21228406.180   111556015.178       -1919.126          31.000  
G26  23956092.442   125890111.148        2984.210          32.000  
G31  22026323.294   115749092.767         158.517          36.000  
G32  22172386.976   116516692.150         538.812          30.000  
> 2021 11  6  7 24 52.8888020  0  6
C32  23051942.372   120037549.771         744.736          28.000  
C37  23477166.796   122251739.463         582.540          30.000  
G10  21228770.728   111557933.295       -1917.784          30.000  
G26  23955524.036   125887126.417        2983.903          34.000  
G31  22026290.616   115748934.536         157.397          33.000  
G32  22172285.646   116516152.858         538.913          29.000  
> 2021 11  6  7 24 53.8888020  0  5
C32  23051799.671   120036805.506         743.968          30.000  
C37  23477057.371   122251156.582         582.075          24.000  
G10  21229134.376   111559851.576       -1918.493          37.000  
G26  23954955.629                        2981.923          34.000  
G32  22172184.316   116515614.201         538.128          29.000  
> 2021 11  6  7 24 54.8888020  0  6
C32  23051655.171   120036061.898         742.836          30.000  
C37  23476945.249   122250574.638         581.214          28.000  
G10  21229506.419   111561772.022       -1923.082          31.000  
G26  23954393.518   125881158.5171       2981.570          36.000  
G31  22026223.463   115748620.5821        156.984          27.000  
G32  22172083.286   116515075.733         538.813          22.000  
> 2021 11  6  7 24 55.8888020  0  7
C32  23051509.772   120035319.389         741.467          29.000  
C37  23476830.428   122249993.081         581.317          27.000  
G10  21229872.765                       -1922.036          31.000  
G23  23179733.105                       -3788.630          24.000  
G26  23953824.213   125878176.629        2980.810          36.000  
G31  22026192.884   115748463.704         156.564          30.000  
G32  22171981.656   116514536.990         538.621          27.000  
> 2021 11  6  7 24 56.8888020  0  7
C32  23051366.471   120034578.663         740.686          29.000  
C37  23476717.707   122249412.001         580.760          27.000  
G10  21230235.214   111565656.0031      -1924.264          31.000  
G23  23179733.105                       -3788.630          24.000  
G26  23953254.307   125875195.237        2981.623          36.000  
G31  22026162.005   115748307.317         156.018          31.000  
G32  22171877.629   116513997.976         539.181          29.000  
> 2021 11  6  7 24 57.8888020  0  7
C32  23051223.470   120033838.673         739.010          30.000  
C37  23476604.385   122248832.254         579.280          21.000  
G10  21230603.059   111567579.350       -1923.704          30.000  
G23  23181171.809                       -3788.748          24.000  
G26  23952686.800   125872214.076        2979.491          35.000  
G31  22026134.125   115748152.007         154.724          35.000  
G32  22171775.399   116513459.629         537.764          29.000  
> 2021 11  6  7 24 58.8888020  0  7
C32  23051080.469   120033099.103         739.989          29.000  
C37  23476493.162   122248253.318         577.740          22.000  
G10  21230970.905   111569503.480       -1924.549          32.000  
G23  23181885.315                       -3789.626          24.000  
G26  23952119.892   125869233.256        2979.940          34.000  
G31  22026106.244   115747997.653         153.759          35.000  
G32  22171672.870   116512921.605         537.142          28.000  
> 2021 11  6  7 24 59.8888020  0  7
C32  23050937.768   120032359.133         739.800          30.000  
C37  23476381.639   122247675.242         577.909          23.000  
G10  21231340.549   111571428.481       -1926.020          33.000  
G23  23182605.716   121825418.6051      -3789.933          25.000  
G26  23951556.882   125866252.815        2980.079          34.000  
G31  22026082.560   115747844.144         151.275          34.000  
G32  22171571.540   116512385.088         536.141          25.000  
> 2021 11  6  7 25  0.8888020  0  7
C32  23050795.966   120031619.850         738.677          32.000  
C37  23476270.416   122247098.005         577.423          24.000  
G10  21231705.096   111573354.392       -1925.935          37.000    21231710.193    83317790.3841      -1439.248          31.000  
G23  23183325.218   121829208.419       -3791.163          26.000  
G26  23950986.677   125863272.918        2979.144          34.000    23951000.168    93988868.7921       2223.431          27.000  
G31  22026047.485                         151.663          31.000  
G32  22171466.613   116511849.143         535.280          26.000    22171468.412                         400.564          25.000  
> 2021 11  6  7 25  1.8888020  0  6
C32  23050654.764   120030881.599         738.063          31.000  
G10  21232072.342   111575281.247       -1925.872          35.000    21232077.439    83319229.781       -1439.459          31.000  
G23  23184049.217   121833000.319       -3791.969          25.000  
G26  23950420.369   125860293.498        2979.178          35.000    23950433.260    93986644.489        2226.671          28.000  
G31  22026016.606   115747507.6751        149.682          32.000  
G32  22171364.084   116511314.001         535.124          25.000    22171366.482                         400.925          28.000  
> 2021 11  6  7 25  2.8888020  0  7
C32  23050516.859   120030145.016         736.913          31.000  
C37  23476044.672   122245944.7511        576.073          24.000  
G10  21232433.592   111577207.518       -1927.486          31.000    21232444.085    83320670.392       -1440.771          28.000  
G23  23184772.916   121836792.054       -3792.080          25.000  
G26  23949855.560   125857314.576        2978.373          35.000    23949866.053    93984417.768        2225.681          26.000  
G31  22025989.625   115747355.830         150.341          32.000  
G32  22171261.855   116510779.487         534.680          25.000    22171264.553    87004802.6621        399.834          28.000  
> 2021 11  6  7 25  3.8888020  0  7
C32  23050376.556   120029407.636         737.048          27.000  
C37  23475933.449   122245368.750         575.556          32.000  
G10  21232797.540   111579135.686       -1929.128          29.000    21232811.031    83322110.701       -1440.883          28.000  
G23  23185495.416   121840584.328       -3792.925          26.000  
G26  23949286.254   125854336.080        2979.303          37.000    23949298.845    93982191.860        2226.276          26.000  
G31  22025967.440   115747205.193         150.852          32.000  
G32  22171158.127   116510243.928         535.530          30.000    22171163.223    87004403.145         399.347          26.000  
> 2021 11  6  7 25  4.8888020  0  6
C32  23050236.253   120028670.960         735.882          29.000  
C37  23475821.027   122244793.456         575.882          27.000  
G10  21233163.587   111581064.882       -1930.190          29.000    21233178.277    83323552.747       -1443.307          28.000  
G26  23948716.948   125851357.899        2975.947          37.000    23948731.938    93979966.637        2224.303          27.000  
G31  22025932.964   115747054.793         149.312          31.000  
G32  22171056.797   116509709.264         534.298          27.000    22171060.994    87004003.487         398.824          28.000  
> 2021 11  6  7 25  5.8888020  0  7
C32  23050095.351   120027935.278         735.407          32.000  
C37  23475713.102   122244217.855         573.874          26.000  
G10  21233529.933   111582994.840       -1930.701          28.000    21233545.223    83324994.978       -1442.522          30.000  
G23  23186939.816   121848169.9291      -3794.547          24.000  
G26  23948156.936   125848381.857        2973.733          36.000    23948165.930    93977742.168        2223.399          28.000  
G31  22025904.783   115746906.715         145.926          31.000  
G32  22170954.268   116509175.022         534.278          27.000    22170957.865    87003603.905         400.284          26.000  
> 2021 11  6  7 25  6.8888020  0  6
C32  23049957.447   120027201.046         734.455          27.000  
C37  23475603.078   122243645.578         571.162          27.000  
G10                                                                  21233912.768    83326439.015       -1443.939          26.000  
G26                                                                  23947600.521    93975519.907        2223.202          27.000  
G31  22025877.203   115746760.093         145.863          25.000  
G32  22170852.039   116508639.804         535.584          27.000  
> 2021 11  6  7 25  7.8888020  0  7
C32  23049817.443   120026466.148         735.288          23.000  
C37  23475494.254   122243074.412         570.641          26.000  
G10                                                                  21234280.314    83327881.813       -1442.738          23.000  
G23  23188386.914   121855754.9111      -3790.617          11.000  
G26  23947023.720   125842434.1771       2976.961          30.000    23947033.314    93973296.824        2223.568          26.000  
G31  22025848.722   115746613.362         146.646          21.000  
G32  22170747.411   116508104.167         535.189          24.000  
> 2021 11  6  7 25  8.8888020  0  6
C37  23475385.129   122242502.852         572.746          24.000  
G10  21234633.769   111588793.0261      -1933.155          27.000    21234647.859    83329325.580       -1446.609          22.000  
G23  23189107.315   121859546.496       -3792.242          11.000  
G26  23946456.813   125839456.782        2977.559          28.000    23946465.807    93971073.378        2223.209          24.000  
G31  22025822.640   115746465.847         148.856          24.000  
G32  22170645.482   116507569.170         534.793          27.000  
> 2021 11  6  7 25  9.8888020  0  6
C32  23049538.936   120024993.4701        734.353          20.000  
C37  23475275.105   122241929.900         572.872          26.000  
G10  21235001.614   111590727.143       -1934.637          28.000    21235016.904    83330770.906       -1444.410          25.000  
G26  23945890.205   125836479.767        2976.171          29.000    23945899.199    93968849.460        2223.210          25.000  
G31  22025795.659   115746317.274         148.292          23.000  
G32  22170543.852   116507035.228         533.309          24.000  
> 2021 11  6  7 25 10.8888020  0  6
C32  23049398.633   120024258.672         735.455          20.000  
C37  23475166.580   122241356.992         572.522          23.000  
G10  21235364.063   111592661.219       -1932.218          25.000    21235385.049    83332214.691       -1444.558          24.000  
G26  23945322.398   125833503.154        2976.964          23.000    23945333.790    93966627.312        2219.569          25.000  
G31  22025767.778   115746168.336         148.508          24.000  
G32  22170443.721   116506502.584         531.777          25.000  
> 2021 11  6  7 25 11.8888020  0  6
C32  23049257.731   120023524.562         732.839          20.000  
C37  23475056.557   122240785.485         570.383          23.000  
G10                                                                  21235752.295    83333658.465       -1442.634          23.000  
G26  23944755.191   125830527.691        2974.484          22.000    23944768.682    93964407.099        2220.628          25.000  
G31  22025741.696   115746019.576         148.503          23.000  
G32  22170343.890   116505971.819         530.866          22.000  
> 2021 11  6  7 25 12.8888020  0  5
C32  23049121.325   120022792.153         732.218          21.000  
G10                                                                  21236120.140    83335103.326       -1446.359          19.000  
G26                                                                  23944202.374    93962185.852        2222.968          26.000  
G31  22025715.315   115745873.223         144.540          25.000  
G32  22170241.961   116505441.295         529.038          24.000  
> 2021 11  6  7 25 13.8888020  0  6
C32  23048981.322   120022060.818         731.017          27.000  
C37  23474836.209   122239646.4881        568.667          23.000  
G10  21236472.696   111598468.0731      -1936.634          18.000    21236490.084    83336552.781       -1453.398          20.000  
G26                                                                  23943635.766    93959962.444        2224.499          28.000  
G31  22025690.432   115745729.446         142.230          26.000  
G32  22170140.631   116504910.919         531.268          26.000  
> 2021 11  6  7 25 14.8888020  0  5
C32  23048841.919   120021329.738         730.818          24.000  
C37  23474725.885   122239077.648         568.531          21.000  
G10                                                                  21236860.627    83338004.572       -1449.357          22.000  
G26                                                                  23943070.058    93957740.288        2221.174          23.000  
G31  22025665.849   115745587.152         141.827          24.000  
> 2021 11  6  7 25 15.8888020  0  4
C32  23048703.115   120020599.814         729.723          23.000  
G10                                                                  21237229.672    83339454.335       -1449.759          25.000  
G26  23942489.360   125818621.7451       2973.409          19.000    23942505.249    93955520.826        2219.596          23.000  
G31  22025637.369   115745443.218         144.235          26.000  
> 2021 11  6  7 25 16.8888020  0  5
C32  23048565.810   120019871.757         726.855          20.000  
G10  21237584.626   111604279.2681      -1938.378          21.000    21237597.817    83340903.612       -1449.241          25.000  
G26                                                                  23941938.941    93953300.687        2220.050          25.000  
G31  22025612.186   115745297.901         144.771          24.000  
G32  22169838.740   116503323.4831        525.326          16.000  
> 2021 11  6  7 25 17.8888020  0  4
C32  23048426.706   120019144.977         725.792          23.000  
G10  21237955.170   111606216.863       -1937.148          24.000    21237965.962    83342352.871       -1450.250          21.000  
G26  23941356.144   125812672.6741       2974.092          19.000    23941373.532    93951081.072        2219.374          22.000  
G31  22025586.704   115745154.543         142.401          24.000  
> 2021 11  6  7 25 18.8888020  0  6
C32  23048285.204   120018418.454         727.443          25.000  
C37  23474288.788   122236806.2271        566.587          19.000  
G10  21238326.612   111608155.350       -1939.820          23.000    21238335.007    83343802.482       -1450.422          20.000  
G26                                                                  23940806.624    93948859.760        2221.414          27.000  
G31  22025563.919   115745011.939         141.563          26.000  
G32  22169646.873   116502271.3481        528.025          27.000  
> 2021 11  6  7 25 19.8888020  0  6
C32  23048145.501   120017691.408         725.820          24.000  
C37  23474179.664   122236239.304         566.154          24.000  
G10  21238698.655   111610095.642       -1941.375          24.000    21238704.651    83345251.757       -1450.445          20.000  
G26  23940227.126   125806730.7321       2968.639          19.000    23940240.616    93946638.949        2220.287          27.000  
G31  22025538.737   115744871.014         140.012          28.000  
G32  22169546.742   116501741.400         531.091          21.000  
> 2021 11  6  7 25 20.8888020  0  5
C37  23474071.139   122235672.767         566.341          25.000  
G10  21239067.100   111612037.547       -1943.249          27.000    21239074.595    83346703.071       -1452.862          23.000  
G26  23939664.415   125803760.572        2970.458          24.000    23939675.208    93944419.171        2219.836          26.000  
G32  22169445.113   116501209.659         531.414          28.000  
R11  20589327.805                       -2812.633          25.000  
> 2021 11  6  7 25 21.8888020  0  5
C37  23473962.914   122235106.227         566.115          24.000  
G10  21239435.245   111613980.801       -1943.181          32.000    21239445.438    83348158.886       -1456.070          21.000  
G26  23939100.206   125800790.054        2970.294          32.000    23939110.998    93942201.184        2218.369          24.000  
G31  22025484.175   115744593.5761        138.278          25.000  
R11  20589858.737                       -2813.687          27.000  
> 2021 11  6  7 25 22.8888020  0  6
C37  23473856.787   122234541.220         562.937          26.000  
G10  21239803.390   111615925.393       -1946.332          33.000    21239815.682    83349613.537       -1451.798          22.000  
G26  23938533.598   125797819.062        2972.703          34.000    23938543.791    93939982.105        2218.221          22.000  
G31  22025456.594   115744455.242         136.788          25.000  
G32  22169237.356   116500147.1361        530.558          29.000  
R11  20590385.773                       -2813.429          25.000  
> 2021 11  6  7 25 23.8888020  0  6
C32  23047589.086   120014790.5331        726.127          26.000  
G10  21240178.131   111617871.192       -1945.929          33.000    21240185.026    83351064.043       -1450.318          20.000  
G26  23937965.791   125794847.583        2970.956          33.000    23937979.282    93937763.420        2218.764          23.000  
G31  22025430.512   115744318.367         137.052          26.000  
G32  22169136.326   116499616.842         530.102          28.000  
R11  20590907.411                       -2813.460          19.000  
> 2021 11  6  7 25 24.8888020  0  5
C32  23047446.685   120014065.003         724.294          26.000  
G10  21240548.075                       -1946.857          36.000  
G26  23937402.181                        2969.729          34.000  
G31  22025404.130   115744181.342         137.057          26.000  
G32  22169033.497   116499087.097         529.773          25.000  
> 2021 11  6  7 25 25.8888020  0  5
C32  23047307.281   120013341.188         722.522          26.000  
C37  23473536.309   122232847.7661        564.379          27.000  
G10  21240921.616   111621779.9611      -1947.130          35.000  
G26  23936833.775   125788927.0891       2969.522          33.000  
G32  22168930.669   116498557.669         529.208          27.000  
> 2021 11  6  7 25 26.8888020  0  7
C32  23047165.779   120012619.389         721.096          25.000  
C37  23473429.283   122232284.833         560.721          25.000  
G10  21241290.960   111623728.315       -1948.348          35.000  
G26  23936271.064   125785957.749        2968.253          34.000  
G31  22025346.570   115743908.0041        135.988          29.000  
G32  22168832.037   116498029.073         528.547          28.000  
R11  20592493.613                       -2817.910          16.000  
> 2021 11  6  7 25 27.8860713  0  5
C32  22228381.612   115749008.483         719.668          22.000  
C37  22654678.393   117968836.209         557.485          22.000  
G10  20423018.838   107323678.215       -1950.470          35.000  
G26  23117061.791   121480989.467        2968.605          33.000  
G32  21350091.339   112195502.498         526.506          26.000  
> 2021 11  6  7 25 28.8860708  0  5
C32  22228088.714   115747508.987         718.441          20.000  
G10  20423240.984   107324840.964       -1950.916          36.000  
G26  23116348.285   121477233.620        2967.699          33.000  
G31  21206495.249   111440847.5731        136.472          26.000  
G32  21349841.312   112194188.164         526.037          28.000  
> 2021 11  6  7 25 29.8860705  0  6
C32  22227859.673   115746320.782         720.368          23.000  
C37  22654224.207   117966471.4441        559.146          22.000  
G10  20423530.884   107326319.256       -1950.998          32.000  
G26  23115689.941   121473792.667        2966.572          33.000  
G31  21206374.732   111440238.977         135.149          26.000  
G32  21349652.443   112193189.742         525.878          28.000  
> 2021 11  6  7 25 30.9999995  0  6
C32  22227697.785                         721.776          27.000  
C37  22654098.594                         558.730          24.000  
G10  20423934.404                       -1951.277          32.000  
G26  23115056.180                        2966.898          30.000  
G31  21206338.457                         133.738          30.000  
G32  21349529.828                         526.771          26.000  
> 2021 11  6  7 25 31.9999995  0  5
C32  22227558.681   115744734.4561        718.936          26.000  
C37  22653991.268   117965277.0891        557.672          25.000  
G26  23114493.169   121467472.7041       2966.123          32.000  
G31  21206310.876   111439926.6581        133.001          26.000  
G32  21349431.196   112192009.8641        525.438          26.000  
> 2021 11  6  7 25 32.9999982  0  6
C32  22227031.346   115741986.104         719.445          26.000  
C37  22653494.812   117962690.748         555.471          27.000  
G10  20424284.262   107330356.0691      -1952.935          32.000  
G26  23113538.930   121462457.595        2967.599          32.000  
G31  21205894.765   111437746.123         131.913          24.000  
G32  21348942.834   112189435.442         526.790          28.000  
> 2021 11  6  7 25 33.9999980  0  6
C32  22226832.584   115740954.930         718.842          25.000  
C37  22653329.326   117961822.983         555.549          23.000  
G10  20424594.847   107331994.445       -1953.910          34.000  
G26  23112913.563   121459176.310        2966.182          33.000  
G31  21205805.426   111437299.038         131.894          24.000  
G32  21348781.846   112188593.512         526.770          30.000  
> 2021 11  6  7 25 34.9999974  0  6
C32  22226513.905   115739299.955         718.309          24.000  
C37  22653045.123   117960331.289         555.219          22.000  
G10  20424786.115   107333004.047       -1956.317          36.000  
G26  23112163.782   121455265.027        2965.962          33.000  
G31  21205598.869   111436221.931         132.098          24.000  
G32  21348500.341   112187122.746         525.174          29.000  
> 2021 11  6  7 25 35.9999972  0  6
C32  22226316.042   115738269.366         718.033          25.000  
C37  22652879.338   117959463.559         555.780          21.000  
G10  20425096.100                       -1958.724          35.000  
G26  23111539.914   121451984.429        2963.408          33.000  
G31  21205514.628   111435775.081         131.568          23.000  
G32  21348340.851   112186282.413         525.144          26.000  
> 2021 11  6  7 25 36.9999967  0  4
C32  22226027.341   115736771.060         717.734          26.000  
G10  20425317.647   107335772.9501      -1957.928          36.000  
G31  21205340.748   111434856.439         130.532          21.000  
G32  21348091.124   112184969.988         524.266          28.000  
> 2021 11  6  7 25 37.9999962  0  5
C32  22225738.941   115735272.639         717.534          28.000  
G10  20425543.690   107336943.297       -1957.453          36.000  
G26  23110116.199   121444478.7121       2964.763          33.000  
G31  21205168.068   111433938.682         129.665          26.000  
G32  21347841.097   112183657.856         523.897          28.000  
> 2021 11  6  7 25 38.9999959  0  6
C32  22225511.698   115734086.654         717.098          27.000  
C37  22652177.824   117955773.6381        552.279          19.000  
G10  20425827.594   107338429.627       -1959.966          36.000  
G26  23109463.551   121441041.929        2964.923          33.000  
G31  21205054.146   111433336.556         129.039          26.000  
G32  21347651.029   112182662.020         522.579          30.000  
> 2021 11  6  7 25 39.9999954  0  5
C32  22225225.097   115732589.294         715.625          26.000  
G10  20426050.040   107339601.475       -1960.141          35.000  
G26  23108747.047   121437289.971        2962.659          33.000  
G31  21204879.967   111432419.688         129.001          25.000  
G32  21347400.402   112181351.118         523.160          28.000  
> 2021 11  6  7 25 40.9999949  0  5
C32  22224937.596   115731093.617         714.002          27.000  
G10  20426271.287   107340774.214       -1957.129          33.000  
G26  23108034.740   121433538.490        2962.121          34.000  
G31  21204708.486   111431503.110         128.426          27.000  
G32  21347149.476   112180040.686         523.107          30.000  
> 2021 11  6  7 25 41.9999949  0  6
C105386552297.507                         558.730          27.000  
C32  22224801.190   115730379.460         714.105          28.000  
G10  20426641.830   107342735.935       -1961.587          33.000  
G26  23107471.730   121430575.636        2962.470          33.000  
G31  21204685.402   111431375.093         127.417          30.000  
G32  21347048.446   112179518.732         520.939          29.000  
> 2021 11  6  7 25 42.9999944  0  5
C32  22224515.488   115728885.150         713.232          28.000  
G10  20426874.469   107343910.846       -1963.207          35.000    20426875.069    80159444.2461      -1466.994          27.000  
G26  23106755.826   121426825.571        2962.537          35.000  
G31  21204512.422   111430460.719         126.280          27.000  
G32  21346797.819   112178210.064         522.101          28.000  
> 2021 11  6  7 25 43.9999941  0  5
C32  22224289.145   115727703.644         712.672          28.000  
G10  20427154.175   107345401.551       -1964.163          35.000    20427158.373    80160558.638       -1468.892          26.000  
G26  23106103.777   121423390.531        2963.777          35.000  
G31  21204398.800   111429861.858         126.107          25.000  
G32  21346608.351   112177215.813         521.787          30.000  
> 2021 11  6  7 25 44.9999936  0  6
C105386551907.777                         555.270          22.000  
C32  22224003.742   115726210.913         711.851          28.000  
G10  20427373.624   107346578.140       -1964.383          29.000    20427381.718    80161437.255       -1466.306          27.000  
G26  23105385.774   121419641.113        2960.634          34.000  
G31  21204225.520   111428948.384         125.472          28.000  
G32  21346356.825   112175906.637         520.829          27.000  
> 2021 11  6  7 25 45.9999931  0  7
C10  38612809.608                         645.925          22.000  
C32  22223718.940   115724718.843         711.866          28.000  
C37  22650592.821   117947540.4371        548.218          28.000  
G10  20427597.568   107347755.510       -1965.548          30.000    20427605.963    80162315.588       -1466.787          26.000  
G26  23104671.369   121415892.269        2959.948          33.000  
G31  21204051.940   111428035.575         124.602          28.000  
G32  21346107.697   112174597.409         520.975          23.000  
> 2021 11  6  7 25 46.9999928  0  6
C32  22223493.196   115723538.262         712.301          28.000  
C37  22650397.656   117946524.679         547.149          25.000  
G10  20427882.971   107349248.932       -1965.902          34.000    20427889.267    80163429.763       -1467.912          28.000  
G26  23104021.419   121412458.866        2959.706          32.000  
G31  21203939.218   111427438.507         124.096          27.000  
G32  21345918.528   112173604.048         520.266          26.000  
> 2021 11  6  7 25 47.9999923  0  7
C10  38612319.747   201064481.0131        643.427          23.000  
C32  22223206.894   115722045.167         711.875          28.000  
C37  22650143.132   117945197.174         547.056          25.000  
G10  20428111.413   107350428.207       -1966.041          34.000    20428113.511    80164310.211       -1469.983          27.000  
G26  23103311.510   121408710.752        2960.090          33.000  
G31  21203766.538   111426527.100         123.240          27.000  
G32  21345670.600   112172296.232         520.032          30.000  
> 2021 11  6  7 25 48.9999921  0  7
C10  38612136.874   201063525.671         643.596          25.000  
C32  22223010.530   115721021.397         710.553          29.000  
C37  22649975.548   117944338.582         546.163          25.000  
G10  20428424.696   107352080.658       -1966.234          35.000    20428428.293    80165544.605       -1470.539          28.000  
G26  23102687.642   121405435.445        2959.661          34.000  
G31  21203683.495   111426088.588         123.502          27.000  
G32  21345512.609   112171461.436         519.188          30.000  
> 2021 11  6  7 25 49.9999916  0  7
C10  38611864.662   201062101.891         643.345          25.000  
C32  22222724.528   115719531.101         708.943          30.000  
C37  22649719.226   117943012.709         545.030          23.000  
G10  20428642.345   107353261.384       -1968.368          34.000    20428653.438    80166426.810       -1470.791          29.000  
G26  23101972.038   121401687.911        2958.905          34.000  
G31  21203509.916   111425177.330         123.054          27.000  
G32  21345264.081   112170154.095         520.427          26.000  
> 2021 11  6  7 25 50.9999913  0  8
C10  38611649.711   201060990.275         643.559          23.000  
C32  22222499.684   115718354.681         708.087          29.000  
C37  22649525.860   117941999.047         544.790          27.000  
G10  20428931.345   107354758.290       -1969.017          34.000    20428938.840    80167546.144       -1471.638          27.000  
G26  23101319.389   121398256.117        2959.467          33.000  
G31  21203397.194   111424582.029         122.884          29.000  
G32  21345076.111   112169160.779         520.830          21.000  
R12  19933295.267                        1224.959          27.000  
> 2021 11  6  7 25 51.9999910  0  8
C10  38611434.160   201059878.802         643.002          23.000  
C32  22222275.139   115717178.406         707.303          29.000  
C37  22649330.994   117940986.246         544.508          25.000  
G10  20429214.949   107356256.062       -1972.490          33.000    20429223.643    80168665.482       -1472.504          26.000  
G26  23100668.240   121394824.608        2957.175          34.000  
G31  21203283.872   111423987.286         121.946          28.000  
G32  21344886.043   112168168.093         518.608          27.000  
R12  19932976.587                        1222.881          28.000  
> 2021 11  6  7 25 52.9999905  0  7
C32  22221989.737   115715691.249         706.479          27.000  
C37  22649075.271   117939661.641         543.831          31.000  
G10  20429438.894   107357439.586       -1971.361          25.000    20429449.386    80169551.037       -1474.853          25.000  
G26  23099954.135   121391078.786        2956.661          34.000  
G31  21203111.491   111423078.596         119.952          28.000  
G32  21344638.115   112166861.662         517.448          24.000  
R12  19932600.048   106476371.5111       1224.065          25.000  
> 2021 11  6  7 25 53.9999900  0  8
C10  38610893.635   201057033.4621        642.584          23.000  
C32  22221704.034   115714203.906         706.452          26.000  
C37  22648820.148   117938337.474         544.199          29.000  
G10  20429662.839   107358623.585       -1971.747          31.000    20429675.430    80170437.656       -1474.701          27.000  
G26  23099241.528   121387333.086        2958.056          31.000  
G31  21202937.612   111422170.757         119.687          25.000  
G32  21344389.587   112165555.962         517.765          24.000  
R12  19932226.807   106474377.400        1222.728          26.000  
> 2021 11  6  7 25 54.9999898  0  7
C32  22221508.870   115713185.163         706.496          27.000  
C37  22648654.962   117937481.617         542.490          26.000  
G10  20429976.422   107360280.950       -1973.055          33.000    20429990.212    80171676.940       -1475.521          27.000  
G26  23098620.957   121384060.770        2958.569          32.000  
G31  21202854.869   111421736.139         119.796          26.000  
G32  21344229.497   112164722.998         517.900          27.000  
R12  19931939.905   106472844.730        1221.179          26.000  
> 2021 11  6  7 25 55.9999892  0  8
C10  38610400.776   201054496.8281        643.235          26.000  
C32  22221193.188   115711542.306         705.597          27.000  
C37  22648372.558   117936003.024         541.551          25.000  
G10  20430170.987   107361308.917       -1973.500          34.000    20430185.077    80172445.412       -1475.309          26.000  
G26  23097878.971   121380157.859        2954.489          33.000  
G31  21202651.610   111420671.750         118.571          25.000  
G32  21343951.290   112163259.775         517.425          28.000  
R12  19931530.089   106470655.280        1222.929          27.000  
> 2021 11  6  7 25 56.9999887  0  7
C32  22220905.987   115710056.290         705.280          26.000  
C37  22648119.233   117934681.081         541.788          28.000  
G10  20430395.831   107362495.123       -1973.621          29.000    20430410.821    80173332.541       -1477.274          25.000  
G26  23097159.469   121376413.655        2956.192          33.000  
G31  21202480.728   111419765.323         118.560          28.000  
G32  21343705.160   112161955.334         516.940          26.000  
R12  19931149.352   106468621.791        1220.819          23.000  
> 2021 11  6  7 25 57.9999885  0  7
C32  22220709.323   115709037.718         706.893          26.000  
C37  22647954.947   117933828.214         539.919          27.000  
G10  20430711.213   107364154.281       -1975.184          32.000    20430727.102    80174573.326       -1474.622          27.000  
G26  23096539.199   121373141.051        2957.298          28.000  
G31  21202397.386   111419332.419         117.412          25.000  
G32  21343545.971   112161123.438         516.704          26.000  
R12  19930851.958   106467033.246        1219.136          23.000  
> 2021 11  6  7 25 58.9999880  0  8
C10  38609674.678   201050710.7791        633.849          18.000  
C32  22220422.422   115707551.130         705.333          26.000  
C37  22647702.522   117932507.056         540.392          25.000  
G10  20430939.655   107365342.500       -1977.224          30.000    20430948.649    80175460.665       -1476.591          23.000  
G26  23095828.391   121369396.594        2955.969          27.000  
G31  21202221.707   111418427.612         117.130          25.000  
G32  21343298.042   112159818.446         517.676          28.000  
R12  19930482.614   106465059.820        1220.087          19.000  
> 2021 11  6  7 25 59.9999880  0  7
C10  38609549.965   201050076.252         636.244          19.000  
C32  22220287.515   115706846.399         704.529          26.000  
C37  22647598.494   117931966.837         541.487          22.000  
G10  20431316.794   107367320.602       -1979.079          30.000    20431323.689    80176937.571       -1476.795          21.000  
G26  23095267.179   121366440.917        2955.607          33.000  
G31  21202198.623   111418309.856         117.256          25.000  
R12  19930250.275   106463819.316        1221.151          20.000  
> 2021 11  6  7 26  0.9999875  0  7
C32  22220001.813   115705361.354         704.296          26.000  
C37  22647341.572   117930646.196         538.758          26.000  
G10  20431543.137   107368512.239       -1979.728          31.000    20431550.632    80177827.338       -1480.181          27.000  
G26  23094553.673   121362697.946        2954.948          33.000  
G31  21202027.742   111417405.517         116.352          24.000  
G32  21342953.880   112157997.0141        515.894          26.000  
R12  19929874.335   106461810.627        1217.103          24.000  
> 2021 11  6  7 26  1.9999869  0  6
C10  38608970.466   201047082.2561        640.786          27.000  
C32  22219687.031   115703720.647         704.156          24.000  
G10  20431741.000   107369546.326       -1978.169          28.000    20431746.996    80178599.722       -1478.268          19.000  
G31  21201822.983   111416344.037         117.181          20.000  
G32  21342679.271   112156536.541         514.759          26.000  
R12  19929470.515   106459653.991        1217.103          25.000  
> 2021 11  6  7 26  2.9999867  0  8
C10  38608786.993   201046128.317         641.429          28.000  
C32  22219489.767   115702705.327         701.998          25.000  
C37  22646891.583   117928320.9951        537.575          26.000  
G10  20432057.881   107371209.033       -1977.834          23.000    20432064.176    80179841.559       -1480.445          21.000  
G26  23093191.416   121355527.0841       2954.571          27.000  
G31  21201743.538   111415912.794         115.297          24.000  
G32  21342521.580   112155706.315         515.180          27.000  
R12  19929186.611   106458137.072        1216.121          29.000  
> 2021 11  6  7 26  3.9999862  0  7
C10  38608512.383   201044706.026         641.970          23.000  
C37  22646637.059   117927002.011         536.937          20.000  
G10  20432283.325   107372400.778       -1980.617          22.000    20432291.719    80180733.108       -1479.359          22.000  
G26  23092481.808   121351785.532        2953.853          21.000  
G31  21201569.359   111415009.981         115.052          23.000  
G32  21342274.551   112154403.399         515.680          31.000  
R12  19928809.472   106456122.754        1213.008          28.000  
> 2021 11  6  7 26  4.9999857  0  7
C10  38608238.673   201043283.395         642.042          22.000  
C37  22646383.735   117925685.117         536.184          26.000  
G10  20432512.366   107373594.227       -1981.521          22.000    20432519.861    80181623.400       -1478.133          27.000  
G26  23091769.800   121348044.125        2953.169          22.000  
G31  21201400.276   111414107.817         113.571          21.000  
G32  21342028.421   112153099.141         516.752          25.000  
R12  19928429.335   106454091.598        1210.356          24.000  
> 2021 11  6  7 26  5.9999854  0  6
C32  22218698.015   115698567.3421        700.979          21.000  
G10                                                                  20432808.261    80182750.329       -1481.207          25.000  
G26  23091117.452   121344618.527        2952.347          23.000  
G31  21201287.554   111413521.611         113.377          22.000  
G32  21341839.552   112152111.861         513.186          25.000  
R12  19928112.155   106452397.994        1211.555          22.000  
> 2021 11  6  7 26  6.9999849  0  5
C10  38607756.306   201040753.2951        639.319          22.000  
G10  20433029.808   107376299.3131      -1983.542          24.000    20433035.504    80183642.272       -1478.549          22.000  
G26  23090406.344   121340878.440        2952.189          26.000  
G32  21341594.921   112150810.783         516.388          25.000  
R12  19927734.417   106450379.462        1212.216          26.000  
> 2021 11  6  7 26  7.9999844  0  5
C10  38607480.797   201039334.976         637.974          21.000  
G10  20433257.050   107377495.545       -1984.917          22.000    20433263.046    80184533.177       -1482.844          24.000  
G26  23089696.736   121337138.645        2951.766          23.000  
G32  21341348.492   112149507.623         515.208          21.000  
R12  19927350.982   106448331.967        1211.444          24.000  
> 2021 11  6  7 26  8.9999844  0  6
C10  38607361.780   201038696.713         638.874          14.000  
C32  22217991.105   115694911.1231        696.369          27.000  
G10  20433634.789   107379480.711       -1985.408          23.000    20433640.485    80186016.260       -1482.204          24.000  
G26  23089136.423   121334187.094        2951.323          21.000  
G32  21341250.760   112148993.245         513.029          23.000  
R12  19927115.945   106447076.358        1207.785          26.000  
> 2021 11  6  7 26  9.9999839  0  6
C32  22217709.600   115693434.210         694.046          27.000  
G10  20433862.631   107380678.847       -1986.711          23.000    20433868.927    80186910.666       -1483.703          25.000  
G26  23088426.215   121330448.245        2950.714          20.000  
G31  21200745.829   111410722.6831        102.216          15.000  
G32  21341002.232   112147692.180         512.359          25.000  
R12  19926741.204   106445074.531        1205.397          24.000  
> 2021 11  6  7 26 10.9999834  0  5
C32  22217426.895   115691961.042         692.568          16.000  
G10  20434089.574   107381878.081       -1987.477          23.000    20434098.268    80187807.042       -1485.388          25.000  
G26  23087713.908   121326709.953        2950.664          24.000  
G32  21340755.203   112146392.235         511.939          21.000  
R12  19926366.464   106443072.714        1205.775          20.000  
> 2021 11  6  7 26 11.9999831  0  4
G10  20434383.970   107383393.247       -1988.103          24.000    20434387.268    80188941.143       -1487.919          23.000  
G26  23087061.260   121323286.650        2950.366          25.000  
G32  21340567.533   112145408.103         510.899          23.000  
R12  19926048.983   106441376.335        1204.661          16.000  
> 2021 11  6  7 26 12.9999826  0  5
C32  22216922.345   115689326.3131        694.075          19.000  
G10  20434612.712   107384594.163       -1988.792          20.000  
G26  23086349.553   121319548.758        2949.579          25.000  
G32  21340318.105   112144110.169         510.042          23.000  
R12  19925676.341   106439385.645        1204.696          18.000  
> 2021 11  6  7 26 13.9999821  0  3
G10  20434843.252   107385795.922       -1990.471          24.000  
G26  23085636.946   121315811.872        2948.998          21.000  
R12  19925302.500   106437389.091        1203.847          16.000  
> 2021 11  6  7 26 14.9999818  0  5
C32  22216419.893   115686691.0401        691.849          19.000  
G10  20435133.751   107387313.808       -1991.030          23.000  
G26  23084986.696   121312390.112        2948.991          24.000  
G32  21339881.907   112141829.4281        510.754          23.000  
R12  19924990.716   106435723.658        1204.140          16.000  
> 2021 11  6  7 26 15.9999813  0  4
C37  22643954.217   117913011.7891        529.946          23.000  
G10  20435361.594   107388517.363       -1991.507          24.000  
G26  23084277.687   121308653.348        2948.810          23.000  
G31  21199863.240   111405974.6361        106.008          18.000  
> 2021 11  6  7 26 16.9999811  0  6
C32  22215949.818   115684225.7341        685.567          18.000  
G10  20435680.573   107390194.095       -1992.204          26.000  
G26  23083653.819   121305389.549        2948.609          25.000  
G31  21199784.694   111405553.747         106.087          18.000  
G32  21339472.690   112139700.8541        513.627          20.000  
R12  19924334.470   106432218.2361       1203.321          15.000  
> 2021 11  6  7 26 17.9999808  0  5
C32  22215726.473   115683069.052         690.750          24.000  
G10  20435968.673   107391714.054       -1993.118          25.000  
G26  23082999.972   121301968.624        2948.042          25.000  
G31  21199676.469   111404975.031         105.664          19.000  
G32  21339284.121   112138716.264         510.681          21.000  
> 2021 11  6  7 26 18.9999803  0  4
G10  20436197.115   107392919.873       -1994.286          25.000  
G26  23082286.466   121298232.659        2948.581          26.000  
G32  21339037.991   112137416.513         512.287          22.000  
R12  19923641.350   106428515.8751       1200.676          17.000  
> 2021 11  6  7 26 19.9999800  0  4
G10  20436486.115   107394440.919       -1993.811          25.000  
G26  23081634.417   121294812.015        2946.985          23.000  
G31  21199401.260   111403503.2151        104.800          21.000  
R12  19923325.369   106426827.213        1202.361          18.000  
> 2021 11  6  7 26 20.9999795  0  6
C32  22214931.723   115678968.9541        691.162          18.000  
G10  20436715.456   107395647.502       -1994.511          26.000  
G26  23080923.609   121291077.651        2947.492          25.000  
G31  21199233.376   111402610.273         105.925          21.000  
G32  21338602.093   112135136.3851        507.375          21.000  
R12  19922950.928   106424827.747        1201.391          20.000  
> 2021 11  6  7 26 21.9999790  0  5
C37  22642648.321   117906210.6861        528.327          27.000  
G10  20436942.999   107396855.032       -1996.355          27.000  
G26  23080212.202   121287342.190        2947.499          24.000  
G32  21338357.463   112133842.374         505.494          20.000  
R12  19922577.986   106422835.608        1199.801          20.000  
> 2021 11  6  7 26 22.9999788  0  6
C37  22642487.932   117905370.311         527.302          28.000  
G10  20437261.678   107398536.335       -1996.026          27.000  
G26  23079590.432   121284079.810        2945.983          24.000  
G31  21198989.345   111401302.6151        102.703          21.000  
G32  21338199.172   112133019.939         507.528          25.000  
R12  19922293.183   106421313.694        1198.085          24.000  
> 2021 11  6  7 26 23.9999782  0  6
C37  22642207.026   117903906.456         526.766          27.000  
G10  20437460.141   107399587.747       -1997.358          27.000  
G26  23078851.144   121280189.154        2945.016          26.000  
G31  21198791.482   111400255.642         100.447          20.000  
G32  21337922.763   112131567.802         507.077          22.000  
R12  19921894.759   106419185.672        1193.337          23.000  
> 2021 11  6  7 26 24.9999777  0  4
C37  22641956.700   117902600.971         524.200          27.000  
G10  20437692.480   107400798.880       -1999.830          25.000  
G26  23078141.235   121276456.193        2944.598          25.000  
R12  19921526.614   106417218.451        1191.597          22.000  
> 2021 11  6  7 26 25.9999775  0  5
C37  22641796.910   117901764.872         523.496          27.000  
G10  20438015.356   107402483.202       -1999.909          26.000  
G26  23077522.464   121273197.591        2943.375          23.000  
G32  21337523.140   112129448.1261        508.583          27.000  
R12  19921244.509   106415711.499        1192.543          25.000  
> 2021 11  6  7 26 26.9999772  0  4
C37  22641606.542   117900773.094         523.847          27.000  
G26  23076873.713   121269781.077        2943.632          23.000  
G31  21198431.431   111398377.8411        102.344          20.000  
G32  21337338.468   112128466.517         509.489          27.000  
> 2021 11  6  7 26 27.9999767  0  4
G10  20438538.194   107405223.7631      -2000.155          26.000  
G26  23076165.003   121266048.185        2945.850          26.000  
G31  21198262.348   111397487.438         102.657          20.000  
G32  21337089.940   112127171.114         506.862          25.000  
> 2021 11  6  7 26 28.9999764  0  3
G10  20438829.593   107406751.447       -2000.443          32.000  
G26  23075514.154   121262629.948        2945.136          25.000  
G32  21336901.670   112126191.121         507.693          27.000  
> 2021 11  6  7 26 29.9999759  0  2
G10  20439060.433   107407963.603       -1999.557          26.000  
G26  23074803.646   121258896.718        2945.650          28.000  
> 2021 11  6  7 26 30.9999754  0  3
G10  20439290.374   107409176.123       -2001.374          34.000  
G26  23074093.438   121255163.192        2945.583          26.000  
G32  21336406.413   112123596.8361        509.161          23.000  
> 2021 11  6  7 26 31.9999752  0  3
G10  20439610.852   107410863.228       -2002.982          34.000  
G26  23073476.165   121251902.481        2945.121          23.000  
G32  21336249.622   112122773.314         508.006          28.000  
> 2021 11  6  7 26 32.9999747  0  4
G10  20439841.092   107412078.280       -2001.133          30.000  
G26  23072766.856   121248170.088        2944.159          27.000  
G31  21197546.744   111393839.6221         97.774          23.000  
G32  21336003.192   112121477.892         506.823          31.000  
> 2021 11  6  7 26 33.9999744  0  7
C10  38601309.569   201007159.7721        634.264          30.000  
C235369973015.805                        -347.639          32.000  
C32  22211676.876   115662040.9251        686.423          28.000  
C37  22640060.512   117892735.5071        521.871          28.000  
G10  20440130.992   107413607.403       -2002.922          32.000  
G26  23072115.707   121244753.611        2943.412          28.000  
G31  21197437.320   111393269.355          97.269          22.000  
> 2021 11  6  7 26 34.9999739  0  8
C10  38601037.358   201005744.736         634.233          30.000  
C23  22414457.694                       -2145.495          28.000  
C32  22211393.572   115660573.858         685.787          29.000  
C37  22639809.286   117891433.348         521.186          25.000  
G10  20440361.232   107414823.492       -2004.968          31.000  
G26  23071404.299   121241022.732        2942.893          30.000  
G31  21197266.438   111392384.653          96.650          26.000  
G32  21335569.093   112119204.1631        506.861          29.000  
> 2021 11  6  7 26 35.9999736  0  8
C10  38600824.805   201004641.393         634.884          28.000  
C23  22414778.772                       -2145.242          32.000  
C32  22211171.726   115659419.804         685.201          29.000  
C37  22639619.218   117890444.102         520.531          27.000  
G10  20440652.331   107416356.350       -2006.117          28.000  
G26  23070753.750   121237607.187        2942.614          28.000  
G31  21197155.515   111391815.631          95.874          28.000  
G32  21335382.922   112118224.767         506.652          34.000  
> 2021 11  6  7 26 36.9999734  0  8
C10  38600643.431   201003694.935         633.765          32.000  
C23  22415131.327   116721468.3051      -2147.220          27.000  
C32  22210980.758   115658423.045         683.889          33.000  
C37  22639457.630   117889612.438         518.387          28.000  
G10  20440972.809   107418048.082       -2007.764          31.000  
G26  23070133.479   121234349.587        2942.011          27.000  
G31  21197078.168   111391404.598          95.762          26.000  
G32  21335226.430   112117403.592         505.981          34.000  
> 2021 11  6  7 26 37.9999729  0  7
