     3.03           OBSERVATION DATA    M: Mixed            RINEX VERSION / TYPE
RTKCONV 2.4.3 b34                       20211107 100857 UTC PGM / RUN BY / DATE 
format: RINEX                                               COMMENT             
log: E:\Dropbox\211106_campus_RUNING\right_hw\0geo++\best\GACOMMENT             
                                                            MARKER NAME         
                                                            MARKER NUMBER       
                                                            MARKER TYPE         
                                                            OBSERVER / AGENCY   
                                                            REC # / TYPE / VERS 
                                                            ANT # / TYPE        
        0.0000        0.0000        0.0000                  APPROX POSITION XYZ 
        0.0000        0.0000        0.0000                  ANTENNA: DELTA H/E/N
G    8 C1C L1C D1C S1C C5Q L5Q D5Q S5Q                      SYS / # / OBS TYPES 
C    4 C2I L2I D2I S2I                                      SYS / # / OBS TYPES 
  2021    11    06    07    26   43.9999706     GPS         TIME OF FIRST OBS   
  2021    11    06    07    33   22.9998019     GPS         TIME OF LAST OBS    
G L1C                                                       SYS / PHASE SHIFT   
G L5Q  0.00000                                              SYS / PHASE SHIFT   
C L2I                                                       SYS / PHASE SHIFT   
  0                                                         GLONASS SLOT / FRQ #
                                                            GLONASS COD/PHS/BIS 
                                                            END OF HEADER       
> 2021 11 06 07 26 43.9999706  0  7                     
C10  38598949.903   200994894.1601        632.999          29.000  
C23  22417178.910   116732140.1601      -2151.122          32.000  
C32  22209227.871   115649278.1511        679.114          33.000  
C37  22637926.590   117881631.3661        512.976          35.000  
G10  20442814.734   107427715.8861      -2013.542          39.000                                                                  
G26  23065376.372   121209358.4101       2938.746          19.000                                                                  
G31  21196113.736   111386342.3171         91.193          34.000                                                                  
> 2021 11 06 07 26 44.9999700  0  9                     
C10  38598648.911   200993324.509         632.717          29.000  
C23  22417418.744   116733354.363       -2150.282          32.000  
C32  22208916.387                         678.803          34.000  
C37  22637648.382                         512.905          35.000  
G10  20443018.593   107428784.531       -2015.146          39.000                                                                  
G23  22431255.365   117877042.3391      -3846.538          23.000                                                                  
G26  23064634.086   121205474.124        2939.080          19.000                                                                  
G31  21195917.372                          90.474          34.000                                                                  
G32  21333447.462   112108015.9151        503.275          29.000                                                                  
> 2021 11 06 07 26 45.9999698  0  9                     
C10  38598468.137   200992380.067         631.847          29.000  
C23  22417769.501                       -2150.057          32.000  
C32  22208727.518                         678.566          34.000  
C37  22637489.792   117879349.8011        512.536          35.000  
G10  20443342.369   107430484.221       -2015.952          39.000                                                                  
G23  22431926.900   117880573.251       -3846.166          23.000                                                                  
G26  23064015.015   121202219.807        2938.654          20.000                                                                  
G31  21195843.023                          90.098          34.000                                                                  
G32  21333293.668   112107197.485         503.405          30.000                                                                  
> 2021 11 06 07 26 46.9999693  0  8                     
C10  38598198.024   200990968.894         629.455          29.000  
C23  22418036.316   116736580.1071      -2151.732          32.000  
C32  22208448.711   115645206.0791        676.671          34.000  
C37  22637241.564   117878057.139         512.246          35.000  
G10  20443575.307   107431712.194       -2016.736          39.000                                                                  
G23  22432508.198   117883632.385       -3848.035          22.000                                                                  
G31  21195673.041   111384014.9181         89.371          34.000                                                                  
G32  21333048.138   112105906.990         502.743          31.000                                                                  
> 2021 11 06 07 26 47.9999688  0  8                     
C10  38597928.210   200989558.844         629.774          29.000  
C23  22418299.834   116737952.574       -2154.156          32.000  
C32  22208169.904   115643748.286         677.347          35.000  
C37  22636994.535   117876765.194         511.162          34.000  
G10  20443809.145   107432941.127       -2016.245          39.000                                                                  
G26  23062599.994   121194767.3151       2937.961          20.000                                                                  
G31  21195509.654   111383138.125          89.366          34.000                                                                  
G32  21332802.608   112104616.282         502.852          30.000                                                                  
> 2021 11 06 07 26 48.9999685  0  9                     
C10  38597718.056   200988460.563         630.177          29.000  
C23  22418621.211   116739637.818       -2155.560          32.000  
C32  22207949.257   115642603.367         676.579          34.000  
C37  22636806.265   117875786.148         509.536          34.000  
G10  20444104.441   107434486.060       -2017.934          39.000    20444106.540    80227110.7881      -1505.314          28.000  
G23  22433001.956   117886221.1431      -3849.535          22.000                                                                  
G26  23061950.044   121191356.758        2937.751          20.000                                                                  
G31  21195399.930   111382577.147          90.068          34.000                                                                  
G32  21332617.037   112103641.642         501.549          31.000    21332614.638    83713761.5721        373.652          28.000  
> 2021 11 06 07 26 49.9999680  0  7                     
C10  38597447.043   200987049.146         631.374          29.000  
C23  22418881.132   116741011.321       -2154.391          32.000  
C32  22207669.550   115641146.812         677.424          35.000  
C37  22636557.138   117874495.578         507.976          33.000  
G10  20444337.380   107435716.806       -2019.148          40.000    20444340.378    80228029.271       -1507.455          28.000  
G31  21195234.145   111381701.631          87.917          34.000                                                                  
G32  21332370.008   112102352.666         501.371          31.000    21332369.708    83712799.511         373.718          28.000  
> 2021 11 06 07 26 50.9999675  0  8                     
C10  38597175.132   200985637.243         630.784          28.000  
C23  22419146.748   116742385.490       -2155.279          32.000  
C32  22207388.645   115639690.904         674.595          34.000  
C37  22636310.408   117873205.655         509.055          34.000  
G10  20444570.618   107436948.415       -2019.601          39.000    20444574.516    80228948.973       -1509.092          29.000  
G26  23060528.428   121183904.3151       2938.748          20.000                                                                  
G31  21195068.959   111380826.774          87.251          34.000                                                                  
G32  21332118.182   112101064.318         499.476          31.000    21332125.077    83711838.024         373.291          29.000  
> 2021 11 06 07 26 51.9999672  0  9                     
C10  38596963.478   200984538.486         630.318          29.000  
C23  22419470.823   116744072.325       -2155.602          32.000  
C32  22207169.796   115638547.737         674.309          35.000  
C37  22636121.839   117872228.559         508.395          34.000  
G10  20444866.214   107438495.982       -2021.102          40.000    20444870.111    80230105.777       -1509.583          28.000  
G23  22434810.904                       -3849.535          19.000                                                                  
G26  23059876.080   121180494.544        2936.574          21.000                                                                  
G31  21194961.633   111380267.577          85.481          35.000                                                                  
G32  21331926.615                         500.682          31.000    21331939.805    83711111.351         373.105          29.000  
> 2021 11 06 07 26 52.9999670  0  9                     
C10  38596782.703   200983596.042         629.888          29.000  
C23  22419825.178   116745915.838       -2155.404          32.000  
C32  22206981.527   115637561.380         673.705          35.000  
C37  22635964.748   117871408.193         507.558          34.000  
G10  20445191.189   107440201.893       -2020.807          40.000    20445194.486    80231380.508       -1510.763          28.000  
G23  22434750.945                       -3849.535          19.000                                                                  
G26  23059255.809   121177245.247        2931.318          20.000                                                                  
G31  21194886.086   111379866.565          85.170          35.000                                                                  
G32  21331774.620   112099215.3971        499.953          31.000    21331783.913    83710501.317         375.428          27.000  
> 2021 11 06 07 26 53.9999665  0  8                     
C10  38596512.590   200982186.145         628.526          29.000  
C23  22420094.092   116747291.540       -2158.182          32.000  
C32  22206701.820   115636107.182         673.147          35.000  
C37  22635716.220   117870120.123         508.834          34.000  
G10  20445425.926   107441436.035       -2022.847          40.000    20445429.224    80232302.478       -1508.879          28.000  
G26  23058550.997   121173526.767        2931.304          20.000                                                                  
G31  21194717.902   111378993.447          85.070          35.000                                                                  
G32                                                                  21331538.983    83709538.810         372.890          27.000  
> 2021 11 06 07 26 54.9999662  0  9                     
C10  38596302.436   200981089.213         628.686          29.000  
C23  22420417.868   116748980.073       -2155.735          32.000  
C32  22206481.473   115634965.940         672.409          35.000  
C37  22635529.149   117869145.066         505.462          33.000  
G10  20445722.421   107442986.306       -2023.793          40.000    20445723.920    80233458.802       -1511.816          28.000  
G23  22434511.111                         384.713          20.000                                                                  
G26  23057904.345   121170121.886        2932.430          21.000                                                                  
G31  21194612.975   111378436.217          83.223          35.000                                                                  
G32  21331352.812   112096955.6911        496.856          33.000    21331354.011    83708812.437         372.309          28.000  
> 2021 11 06 07 26 55.9999657  0  8                     
C10  38596030.524   200979680.586         628.171          29.000  
C23  22420681.085   116750356.802       -2155.209          32.000  
C32  22206206.563   115633512.978         672.882          34.000  
C37  22635283.619   117867858.212         506.220          33.000  
G10  20445957.458   107444222.141       -2023.718          40.000    20445959.857    80234382.674       -1512.629          27.000  
G26  23057195.636   121166401.012        2933.117          20.000                                                                  
G31  21194447.190   111377564.361          82.815          35.000                                                                  
G32  21331105.783   112095668.789         497.926          32.000    21331109.080    83707852.437         372.040          27.000  
> 2021 11 06 07 26 56.9999652  0  7                     
C10  38595759.811   200978271.474         629.335          30.000  
C23  22420943.704   116751733.921       -2157.081          32.000  
C32  22205925.957   115632060.431         671.756          35.000  
C37  22635038.389   117866571.949         506.802          33.000  
G10  20446191.596   107445458.756       -2025.013          40.000    20446195.194    80235307.054       -1512.538          28.000  
G31  21194279.606   111376692.992          84.697          35.000                                                                  
G32  21330864.150   112094382.083         499.104          32.000    21330864.750    83706892.066         372.658          28.000  
> 2021 11 06 07 26 57.9999649  0  7                     
C10  38595549.657   200977174.044         628.715          28.000  
C23  22421269.578   116753423.272       -2157.835          33.000  
C32  22205705.010   115630920.455         671.831          35.000  
C37  22634849.520   117865598.147         505.740          32.000  
G10  20446486.292   107447011.055       -2024.904          40.000    20446490.189    80236466.524       -1512.423          29.000  
G31  21194176.477   111376137.497          82.530          33.000                                                                  
G32  21330676.180   112093410.267         498.079          32.000    21330680.077    83706166.337         373.384          27.000  
> 2021 11 06 07 26 58.9999644  0  8                     
C10  38595279.544   200975764.121         629.347          25.000  
C23  22421533.995   116754801.078       -2159.793          36.000  
C32  22205421.706   115629468.671         670.711          32.000  
C37  22634603.090   117864312.025         505.598          33.000  
G10  20446722.229   107448248.987       -2026.346          40.000    20446725.826    80237390.553       -1512.051          29.000  
G26  23055123.170   121155552.9741       2934.051          20.000                                                                  
G31  21194013.690   111375266.974          79.112          32.000                                                                  
G32  21330428.552   112092123.819         498.652          36.000    21330434.547    83705205.493         372.761          26.000  
> 2021 11 06 07 26 59.9999639  0  8                     
C10  38595010.630   200974355.187         628.396          24.000  
C23  22421800.211   116756179.280       -2158.238          34.000  
C32  22205143.199   115628017.464         670.470          31.000  
C37  22634355.162   117863026.838         504.584          29.000  
G10  20446957.566   107449487.812       -2026.623          39.000    20446961.763    80238315.517       -1513.687          30.000  
G26  23054415.061   121151830.400        2934.508          19.000                                                                  
G31  21193845.806   111374397.719          82.509          25.000                                                                  
G32  21330186.919   112090837.616         498.368          36.000    21330189.617    83704244.753         371.968          25.000  
> 2021 11 06 07 27 00.9999636  0  7                     
C10  38594799.576   200973258.532         628.134          27.000  
C23  22422124.586   116757870.145       -2158.761          33.000  
C32  22204924.051   115626878.994         669.254          30.000  
C37  22634165.993   117862053.544         504.155          28.000  
G10  20447252.861   107451042.411       -2027.729          38.000    20447257.658    80239475.731       -1513.961          31.000  
G31  21193736.382   111373842.828          81.222          28.000                                                                  
G32  21330003.446   112089866.789         497.243          38.000    21330004.345    83703519.232         371.694          28.000  
> 2021 11 06 07 27 01.9999634  0  9                     
C10  38594619.701   200972317.928         628.813          27.000  
C23  22422480.140   116759717.697       -2160.458          34.000  
C32  22204735.781   115625897.212         669.949          30.000  
C37  22634008.002   117861237.565         503.317          30.000  
G10  20447579.635   107452755.347       -2028.338          39.000    20447584.432    80240755.372       -1516.089          30.000  
G23  22441742.405                       -3855.672          24.000                                                                  
G26  23053155.632   121145172.6001       2933.361          19.000                                                                  
G31  21193659.935   111373446.414          81.110          29.000                                                                  
G32  21329846.654   112089053.813         498.467          38.000    21329849.652    83702913.040         372.506          26.000  
> 2021 11 06 07 27 02.9999629  0  9                     
C10  38594348.089   200970909.633         627.305          26.000  
C23  22422742.458   116761097.355       -2160.051          34.000  
C32  22204454.576   115624447.614         668.573          30.000  
C37  22633761.873   117859953.911         502.914          29.000  
G10  20447816.771   107453996.466       -2029.325          39.000    20447820.668    80241683.047       -1515.692          29.000  
G23  22442329.698                       -3855.895          24.000                                                                  
G26  23052446.923   121141451.830        2932.305          19.000                                                                  
G31  21193494.449   111372578.135          80.259          29.000                                                                  
G32  21329602.623   112087768.488         497.088          38.000    21329605.322    83701952.566         371.319          25.000  
> 2021 11 06 07 27 03.9999626  0  9                     
C10  38594137.634   200969814.107         627.446          26.000  
C23  22423066.534   116762789.554       -2160.136          34.000  
C32  22204236.927   115623310.726         668.060          31.000  
C37  22633574.802   117858983.203         501.898          29.000  
G10  20448114.465   107455553.363       -2030.072          39.000    20448116.563    80242845.952       -1516.514          28.000  
G23  22442972.453   117938621.7171      -3855.329          24.000                                                                  
G26  23051798.772   121138047.480        2930.873          20.000                                                                  
G31  21193387.723   111372025.167          80.173          29.000                                                                  
G32  21329419.450   112086798.422         497.061          38.000    21329420.350    83701227.382         370.849          25.000  
> 2021 11 06 07 27 04.9999621  0  8                     
C10  38593867.222   200968406.621         626.808          26.000  
C23  22423329.752   116764170.178       -2160.636          34.000  
C32  22203960.818   115621862.117         667.039          31.000  
C37  22633328.673   117857701.752         500.634          29.000  
G10  20448351.001   107456796.051       -2030.612          39.000    20448353.400    80243774.551       -1517.027          29.000  
G23  22443555.550   117941689.631       -3856.216          25.000                                                                  
G31  21193220.739   111371157.670          79.320          30.000                                                                  
G32  21329174.820   112085513.632         497.029          37.000    21329176.318    83700269.311         369.423          26.000  
> 2021 11 06 07 27 05.9999616  0  9                     
C10  38593596.209   200966999.041         626.358          25.000  
C23  22423593.869   116765551.129       -2160.826          34.000  
C32  22203682.610   115620414.124         668.212          32.000  
C37  22633083.143   117856420.913         499.696          28.000  
G10  20448585.139   107458039.546       -2031.999          39.000    20448589.936    80244703.744       -1516.848          28.000  
G23  22443405.654   117940901.921         -98.405          23.000                                                                  
G26  23050395.143   121130610.3081       2931.521          19.000                                                                  
G31  21193052.255   111370290.547          79.367          22.000                                                                  
G32  21328931.688   112084229.066         496.537          38.000    21328931.688    83699310.101         370.471          25.000  
> 2021 11 06 07 27 06.9999613  0  8                     
C10  38593386.355   200965904.119         625.773          25.000  
C23  22423922.142   116767244.779       -2162.620          33.000  
C32  22203465.261   115619278.851         667.402          31.000  
C37  22632897.571   117855452.751         500.074          28.000  
G10  20448882.833   107459599.009       -2032.551          39.000    20448886.131    80245868.083       -1517.283          29.000  
G23  22444784.999                       -3857.029          24.000                                                                  
G31  21192945.229   111369739.120          78.461          23.000                                                                  
G32  21328746.116   112083259.949         496.831          38.000    21328746.716    83698586.148         368.818          26.000  
> 2021 11 06 07 27 07.9999608  0  9                     
C10  38593117.441   200964497.192         626.357          27.000  
C23  22424190.156   116768626.777       -2163.314          33.000  
C32  22203186.754   115617832.068         667.017          30.000  
C37  22632654.140   117854173.126         497.425          26.000  
G10  20449120.269   107460844.188       -2033.142          39.000    20449123.267    80246797.542       -1518.531          29.000  
G23  22445369.294                       -3857.796          23.000                                                                  
G26  23049044.279   121123489.2821       2929.241          18.000                                                                  
G31  21192778.844   111368873.076          77.575          23.000                                                                  
G32  21328501.785   112081976.107         496.047          38.000    21328502.385    83697629.881         367.055          25.000  
> 2021 11 06 07 27 08.9999603  0  7                     
C23  22424453.374   116770008.932       -2165.224          37.000  
C32  22202910.045   115616385.414         666.726          30.000  
C37  22632408.909   117852894.813         498.417          32.000  
G10  20449356.805   107462089.847       -2032.756          40.000    20449359.503    80247727.687       -1519.637          28.000  
G23  22445953.889   117954282.3051      -3858.174          19.000                                                                  
G26  23048336.169   121119772.584        2929.432          17.000                                                                  
G32  21328252.058   112080692.125         496.903          38.000    21328258.654    83696672.458         369.448          25.000  
> 2021 11 06 07 27 09.9999601  0  9                     
C10  38592661.456   200962147.8441        630.718          24.000  
C23  22424808.328   116771859.927       -2163.440          35.000  
C32  22202723.275   115615407.526         663.937          32.000  
C37  22632253.617   117852084.023         498.662          34.000  
G10  20449683.579   107463808.946       -2034.962          41.000    20449686.876    80249012.877       -1521.006          27.000  
G23  22446626.624   117957825.462       -3857.806          23.000                                                                  
G26  23047714.999   121116527.892        2927.224          24.000                                                                  
G31  21192541.409   111367616.0741         76.892          31.000                                                                  
G32  21328101.263   112079881.106         496.390          37.000    21328105.160    83696067.251         369.257          27.000  
> 2021 11 06 07 27 10.9999598  0  7                     
C10  38592451.901   200961050.158         628.110          26.000  
C23  22425135.702   116773555.089       -2163.918          37.000  
C32  22202505.325   115614274.344         665.083          33.000  
C37  22632065.647   117851117.560         496.706          31.000  
G10  20449981.273   107465371.255       -2034.766          38.000    20449984.270    80250180.475       -1520.461          28.000  
G23  22447268.779   117961209.886       -3857.402          21.000                                                                  
G32  21327915.991   112078912.774         495.175          39.000    21327921.987    83695345.393         369.078          27.000  
> 2021 11 06 07 27 11.9999593  0  9                     
C03                                       -81.443          29.000  
C10  38592180.589   200959640.550         628.992          24.000  
C23  22425402.517   116774938.976       -2164.121          37.000  
C32  22202226.518   115612829.320         665.046          34.000  
C37  22631823.415   117849838.957         497.846          35.000  
G10  20450217.809   107466618.987       -2035.839          40.000    20450221.406    80251112.593       -1520.660          29.000  
G26  23046354.241   121109412.0741       2928.799          22.000                                                                  
G31  21192288.384   111366202.8391         78.128          31.000                                                                  
G32  21327672.859   112077630.022         495.292          38.000    21327677.356    83694387.158         370.711          28.000  
> 2021 11 06 07 27 12.9999588  0  9                     
C10  38591910.776   200958232.009         626.877          31.000  
C23  22425669.632   116776323.095       -2161.961          34.000  
C32  22201953.108   115611385.835         663.764          31.000  
C37  22631580.283   117848562.687         494.887          32.000  
G10  20450457.043   107467868.720       -2036.442          33.000    20450460.041    80252045.632       -1521.117          29.000  
G23  22448434.972   117967347.7751      -3855.830          19.000                                                                  
G26  23045646.731   121105695.731        2928.099          28.000                                                                  
G31  21192122.899   111365341.283          74.637          29.000                                                                  
G32                                                                  21327433.625    83693425.493         374.558          17.000  
> 2021 11 06 07 27 13.9999585  0  9                     
C10  38591699.722   200957137.092         626.293          25.000  
C23  22425995.207   116778017.146       -2163.529          25.000  
C32  22201736.658   115610253.700         663.595          27.000  
C37  22631395.011   117847598.529         496.614          26.000  
G10  20450754.737   107469432.334       -2036.490          36.000    20450758.035    80253214.580       -1521.912          25.000  
G23  22449078.926   117970732.160       -3858.683          20.000                                                                  
G26  23044998.280   121102294.330        2928.645          29.000                                                                  
G31  21192012.875   111364793.229          75.761          26.000                                                                  
G32  21327254.349   112075383.0591        492.558          26.000    21327249.552    83692700.502         369.354          17.000  
> 2021 11 06 07 27 14.9999580  0  9                     
C10  38591431.708   200955730.990         625.183          27.000  
C23  22426261.122   116779401.854       -2165.834          27.000  
C32  22201459.949   115608809.672         663.970          27.000  
C37  22631149.481   117846321.821         495.835          28.000  
G10  20450991.873   107470681.850       -2038.493          33.000    20450996.969    80254148.444       -1521.719          29.000  
G23  22449660.823   117973802.715       -3859.041          21.000                                                                  
G26  23044288.971   121098578.217        2928.131          30.000                                                                  
G31  21191848.289   111363929.904          75.026          26.000                                                                  
G32  21327010.018   112074101.971         494.696          24.000    21327006.121    83691742.050         371.140          17.000  
> 2021 11 06 07 27 15.9999578  0  8                     
C10  38591252.732   200954794.015         624.347          30.000  
C23  22426616.377   116781256.601       -2168.515          25.000  
C32  22201275.877   115607832.319         665.552          22.000  
C37  22630994.189   117845513.916         496.434          27.000  
G10  20451321.345                       -2039.140          31.000    20451325.242    80255435.202       -1523.688          33.000  
G26  23043671.098   121095335.037        2927.823          28.000                                                                  
G31  21191771.242   111363539.721          74.778          21.000                                                                  
G32  21326851.728   112073292.297         494.707          17.000    21326851.728    83691136.699         369.584          16.000  
> 2021 11 06 07 27 16.9999572  0  6                     
C10  38590953.839   200953233.314         624.438          30.000  
G10  20451529.401   107473512.5561      -2039.482          22.000    20451533.598    80256253.289       -1524.072          32.000  
G23  22450885.775   117980260.6311      -3856.033          19.000                                                                  
G26  23042933.909   121091462.271        2927.174          28.000                                                                  
G31  21191578.475   111362520.034          73.707          25.000                                                                  
G32  21326572.321   112071851.643         496.522          14.000    21326578.017    83690061.892         369.223          16.000  
> 2021 11 06 07 27 17.9999567  0  6                     
C10  38590684.925   200951828.072         624.718          30.000  
C37  22630472.550   117842802.4091        497.220          17.000  
G10  20451765.637   107474764.870       -2040.637          27.000    20451771.333    80257188.954       -1524.171          30.000  
G23  22451471.270   117983326.852       -3854.396          18.000                                                                  
G26  23042227.298   121087747.339        2926.847          30.000                                                                  
G32                                                                  21326335.185    83689107.498         362.490          14.000  
> 2021 11 06 07 27 18.9999565  0  6                     
C10  38590508.347   200950891.474         624.605          30.000  
C23  22427478.580   116785733.0631      -2169.123          19.000  
G10  20452092.411   107476490.745       -2041.740          30.000    20452099.306    80258477.762       -1524.179          29.000  
G23  22452148.501   117986868.607       -3859.087          15.000                                                                  
G26  23041611.224   121084505.634        2926.684          29.000                                                                  
G32  21326186.788   112069760.7211        492.016          16.000    21326183.191    83688513.425         355.940          13.000  
> 2021 11 06 07 27 19.9999562  0  5                     
C10  38590297.893   200949797.807         624.954          29.000  
G10  20452388.606   107478060.325       -2042.731          29.000    20452397.900    80259649.407       -1525.152          30.000  
G26  23040964.872   121081106.810        2925.845          28.000                                                                  
G31  21191243.907   111360727.2151         73.197          19.000                                                                  
G32  21326013.508   112068796.488         489.293          15.000    21326002.416    83687813.490         352.621          10.000  
> 2021 11 06 07 27 20.9999557  0  6                     
C10  38590028.079   200948392.500         623.869          30.000  
C23  22428068.571   116788816.2501      -2163.861          20.000  
G10  20452625.742   107479315.534       -2043.219          31.000    20452636.235    80260586.722       -1525.294          28.000  
G26  23040257.961   121077393.120        2925.895          28.000                                                                  
G31  21191079.921   111359866.661          72.184          19.000                                                                  
G32  21325781.169   112067520.209         487.717          14.000                                                                  
> 2021 11 06 07 27 21.9999552  0  5                     
C10  38589758.866   200946988.134         623.871          30.000  
C23  22428332.688   116790200.168       -2165.972          20.000  
G10                                                                  20452875.769    80261524.870       -1526.571          28.000  
G26  23039552.250   121073679.085        2925.717          28.000                                                                  
G32  21325546.731   112066245.341         488.550          14.000                                                                  
> 2021 11 06 07 27 22.9999549  0  7                     
C10  38589549.011   200945896.157         623.626          30.000  
C23  22428660.961   116791897.193       -2165.350          21.000  
G10  20453161.771   107482142.8901      -2045.048          32.000    20453174.662    80262698.736       -1527.840          29.000  
G23  22454617.892   117999791.0411      -3860.158          13.000                                                                  
G26  23038906.497   121070281.066        2925.008          29.000                                                                  
G31  21190820.001   111358463.0291         68.597          19.000                                                                  
G32  21325373.451   112065593.428         492.232          13.000                                                                  
> 2021 11 06 07 27 23.9999544  0  6                     
C10  38589280.097   200944491.923         623.739          29.000  
C23  22428926.877   116793283.078       -2169.528          22.000  
G10  20453407.900   107483400.740       -2045.143          33.000    20453414.496    80263638.344       -1528.564          28.000  
G23  22455201.587   118002863.570       -3861.636          13.000                                                                  
G26  23038198.687   121066568.646        2924.828          29.000                                                                  
G31  21190661.111   111357607.138          66.837          20.000                                                                  
> 2021 11 06 07 27 24.9999539  0  6                     
C10  38589010.284   200943087.599         624.117          30.000  
C23  22429193.393   116794671.847       -2170.039          22.000  
C32  22198985.462   115595798.6121        659.877          17.000  
G10  20453649.233                       -2044.816          32.000    20453654.030    80264578.762       -1526.891          28.000  
G26  23037492.076   121062856.115        2924.747          28.000                                                                  
G31  21190501.621   111356752.802          65.048          20.000                                                                  
> 2021 11 06 07 27 25.9999537  0  4                     
C10  38588830.409   200942151.242         623.841          29.000  
C23  22429551.345   116796530.197       -2170.936          22.000  
G10  20453979.005   107486383.1351      -2047.659          32.000    20453983.502    80265870.757       -1528.396          27.000  
G26  23036875.103   121059616.578        2924.246          29.000                                                                  
> 2021 11 06 07 27 26.9999532  0  6                     
C10  38588560.895   200940746.561         623.564          29.000  
C23  22429820.558   116797920.473       -2170.786          24.000  
G10  20454222.436   107487643.024       -2048.213          32.000    20454222.436    80266811.798       -1530.672          25.000  
G26  23036168.492   121055904.762        2924.062          29.000                                                                  
G31  21190265.984   111355520.6161         63.540          21.000                                                                  
G32  21324509.150   112060944.8581        498.577          12.000                                                                  
> 2021 11 06 07 27 27.9999529  0  5                     
C06                                      2222.082          24.000  
C10  38588351.340   200939655.184         622.952          29.000  
C23  22430147.632   116799623.397       -2171.911          22.000  
G10  20454517.432   107489218.900       -2048.587          32.000    20454523.128    80267990.678       -1533.579          26.000  
G23  22457690.464   118015954.1291      -3866.528          14.000                                                                  
> 2021 11 06 07 27 28.9999526  0  7                     
C10  38588141.186   200938563.704         623.537          29.000  
C23  22430475.305   116801327.515       -2172.695          23.000  
G10  20454814.227   107490795.673       -2049.388          32.000    20454823.221    80269170.266       -1531.103          25.000  
G23  22458341.014   118019348.122       -3866.056          13.000                                                                  
G26  23034880.584   121049113.0451       2922.943          29.000                                                                  
G31  21190060.326   111354445.5071         66.095          21.000                                                                  
G32  21324144.302   112059000.1461        505.521          12.000                                                                  
> 2021 11 06 07 27 29.9999521  0  6                     
C06  36835594.948                        -544.315          21.000  
C10  38587871.073   200937159.236         624.206          30.000  
C23  22430742.120   116802719.053       -2170.966          23.000  
C32  22197813.873   115589684.4831        659.944          14.000  
G10  20455054.660   107492057.905       -2050.762          31.000    20455063.055    80270112.671       -1529.859          28.000  
G26  23034175.172   121045402.082        2922.641          29.000                                                                  
> 2021 11 06 07 27 30.9999516  0  6                     
C06  36835552.678   191812372.9051       -544.502          22.000  
C10  38587601.859   200935754.973         623.352          29.000  
C23  22431008.036   116804110.573       -2172.185          22.000  
G10  20455299.891   107493321.127       -2051.018          32.000    20455302.589    80271056.112       -1533.061          27.000  
G26  23033471.260   121041691.856        2922.320          29.000                                                                  
G31  21189733.553   111352740.8981         65.902          21.000                                                                  
> 2021 11 06 07 27 31.9999514  0  7                     
C06  36835596.447   191812604.980        -544.724          22.000  
C10  38587422.583   200934819.640         623.025          28.000  
C23  22431364.789   116805970.958       -2173.829          24.000  
G10  20455626.065   107495057.723       -2052.553          33.000    20455633.560    80272353.839       -1531.760          26.000  
G23  22460180.840   118029050.7451      -3866.936          12.000                                                                  
G26  23032856.985   121038454.731        2921.632          29.000                                                                  
G31  21189661.003   111352361.194          64.137          21.000                                                                  
> 2021 11 06 07 27 32.9999508  0  7                     
C06  36835520.300   191812211.983        -543.436          22.000  
C10  38587123.690   200933260.553         621.620          29.000  
C23  22431601.625   116807208.121       -2173.606          23.000  
G10  20455841.016   107496164.991       -2055.388          33.000    20455844.613    80273179.781       -1531.768          28.000  
G23  22460736.955   118031972.605       -3866.928          13.000                                                                  
G26  23032122.793   121034588.232        2920.868          29.000                                                                  
G31  21189467.337   111351351.459          64.561          22.000                                                                  
> 2021 11 06 07 27 33.9999503  0  6                     
C06  36835473.532   191811974.375        -543.092          24.000  
C07                                       596.752          28.000  
C10  38586853.577   200931858.477         621.152          29.000  
C23  22431867.241   116808601.874       -2175.148          23.000  
G10  20456085.347   107497430.733       -2053.228          33.000    20456085.946    80274125.176       -1533.943          26.000  
G26  23031418.880   121030879.668        2920.370          30.000                                                                  
> 2021 11 06 07 27 34.9999501  0  8                     
C06  36835517.902   191812205.735        -544.807          23.000  
C07  37844842.361                         730.090          28.000  
C10  38586674.601   200930925.140         620.988          29.000  
C23  22432225.793   116810465.379       -2175.598          23.000  
G10  20456411.821   107499169.804       -2053.271          33.000    20456416.617    80275423.962       -1534.031          26.000  
G23  22461997.283   118038598.8931      -3859.342          11.000                                                                  
G26  23030801.608   121027644.208        2920.341          29.000                                                                  
G31  21189227.203   111350122.0781         62.932          21.000                                                                  
> 2021 11 06 07 27 35.9999496  0  6                     
C06  36835472.333   191811969.528        -544.728          23.000  
C07  37844552.162                         729.030          28.000  
C10  38586405.387   200929523.051         621.463          29.000  
C23  22432495.007   116811861.361       -2176.246          23.000  
G10  20456652.254   107500437.026       -2056.404          32.000    20456657.651    80276369.890       -1534.769          26.000  
G26  23030097.395   121023936.281        2919.954          30.000                                                                  
> 2021 11 06 07 27 36.9999493  0  7                     
C06  36835487.623   191812046.337        -545.026          24.000  
C07  37844321.322   197065316.6661        729.620          27.000  
C10  38586196.132   200928433.348         620.994          29.000  
C23  22432823.280   116813569.022       -2175.902          23.000  
G10  20456954.145   107502020.289       -2057.405          33.000    20456958.942    80277552.411       -1537.507          25.000  
G23  22463222.834   118045056.2201      -3853.790          12.000                                                                  
G26  23029451.642   121020543.710        2919.798          30.000                                                                  
> 2021 11 06 07 27 37.9999488  0  5                     
C06  36835442.654   191811810.911        -545.768          24.000  
C07  37844032.022   197063806.610         729.477          27.000  
C10  38585927.218   200927031.611         621.117          29.000  
G10  20457194.879   107503289.315       -2057.937          33.000    20457200.875    80278501.813       -1537.649          27.000  
G26  23028747.430   121016836.500        2919.094          30.000                                                                  
> 2021 11 06 07 27 38.9999485  0  6                     
C06  36835456.744   191811887.903        -545.638          24.000  
C07  37843802.381   197062608.721         728.982          28.000  
C10  38585717.963   200925941.999         621.061          30.000  
C23  22433418.967   116816674.9081      -2178.119          23.000  
G10  20457499.168   107504874.363       -2059.650          33.000    20457501.866    80279685.887       -1535.892          26.000  
G26  23028101.977   121013444.845        2918.833          30.000                                                                  
> 2021 11 06 07 27 39.9999480  0  8                     
C06  36835410.576   191811653.161        -544.808          24.000  
C07  37843512.781   197061099.692         727.989          28.000  
C10  38585448.450   200924540.716         620.114          29.000  
C23  22433689.980   116818072.931       -2180.585          22.000  
G10  20457738.402   107506145.157       -2060.330          33.000    20457742.899    80280632.537       -1535.040          26.000  
G23  22465026.686   118054566.8781      -3848.923          13.000                                                                  
G26  23027394.167   121009738.403        2918.522          30.000                                                                  
G31  21188534.083   111346505.6651         59.597          18.000                                                                  
> 2021 11 06 07 27 40.9999475  0  7                     
C06  36835365.907   191811416.966        -544.042          23.000  
C07  37843223.182   197059591.045         727.921          28.000  
C10  38585178.637   200923140.600         619.172          29.000  
G10  20457982.733   107507416.802       -2059.187          32.000    20457984.832    80281580.865       -1538.735          26.000  
G23  22465608.283   118057631.388       -3854.993          12.000                                                                  
G26  23026686.057   121006032.537        2917.898          29.000                                                                  
G31  21188376.092   111345658.686          58.890          18.000                                                                  
> 2021 11 06 07 27 41.9999473  0  7                     
C06  36835409.976   191811648.986        -544.688          24.000  
C07  37843024.419   197058551.165         728.042          28.000  
C10  38584999.661   200922208.995         619.473          29.000  
C23  22434314.447   116821339.1511      -2178.148          23.000  
G10  20458318.201   107509162.006       -2059.669          33.000    20458317.601    80282884.332       -1539.099          26.000  
G26  23026069.384   121002799.670        2917.416          29.000                                                                  
G31  21188307.140   111345284.892          58.234          18.000                                                                  
> 2021 11 06 07 27 42.9999468  0  8                     
C06  36835364.108   191811413.299        -544.830          24.000  
C07  37842735.419   197057043.055         726.511          27.000  
C10  38584731.346   200920809.278         619.080          30.000  
C23  22434582.162   116822736.467       -2177.873          24.000  
G10  20458553.838   107510435.554       -2059.985          33.000    20458560.433    80283835.133       -1539.653          27.000  
G23  22466867.711   118064248.5801      -3863.311          12.000                                                                  
G26  23025363.373   120999094.681        2916.907          29.000                                                                  
G31  21188148.550   111344439.343          57.323          19.000                                                                  
> 2021 11 06 07 27 43.9999462  0  8                     
C06  36835290.959   191811022.300        -545.906          23.000  
C07  37842417.040   197055380.226         725.875          28.000  
C10  38584433.053   200919253.650         618.626          30.000  
C23  22434821.396   116823978.443       -2179.905          22.000  
G10  20458769.389   107511552.155       -2062.252          33.000    20458772.387    80284669.225       -1538.784          26.000  
G23  22467429.222   118067172.841       -3871.680          10.000                                                                  
G26  23024626.183   120995232.424        2916.830          29.000                                                                  
G31  21187960.880   111343436.800          57.222          19.000                                                                  
> 2021 11 06 07 27 44.9999462  0  8                     
C06  36835397.385   191811567.273        -545.579          24.000  
C07  37842278.836   197054654.026         726.694          27.000  
C10  38584314.635   200918634.846         618.962          29.000  
C23  22435239.907   116826158.587       -2182.105          24.000  
G10  20459162.716   107513614.874       -2062.388          33.000    20459164.815    80286207.950       -1539.435          26.000  
G23  22468165.812   118071046.660       -3870.785          11.000                                                                  
G26  23024070.668   120992315.871        2916.236          28.000                                                                  
G31  21187946.790   111343379.348          57.528          20.000                                                                  
> 2021 11 06 07 27 45.9999457  0  9                     
C06  36835353.316   191811331.615        -544.683          24.000  
C07  37841989.536   197053146.049         728.261          28.000  
C10  38584046.021   200917235.264         619.280          30.000  
C23  22435508.521   116827560.623       -2183.261          23.000  
C32  22193912.074   115569280.9451        645.793          20.000  
G10  20459406.148   107514890.697       -2064.443          33.000    20459407.647    80287159.385       -1540.277          26.000  
G23  22468752.207   118074130.908       -3873.678          10.000                                                                  
G26  23023365.556   120988612.108        2915.782          29.000                                                                  
G31  21187789.698   111342534.241          57.223          20.000                                                                  
> 2021 11 06 07 27 46.9999452  0  7                     
C06  36835308.946   191811095.924        -546.009          24.000  
C07  37841700.236   197051637.726         727.027          28.000  
C10  38583776.807   200915835.521         618.924          29.000  
C23  22435777.734   116828962.736       -2182.575          22.000  
G10  20459648.380   107516167.333       -2064.675          33.000    20459650.479    80288112.260       -1541.282          25.000  
G26  23022660.744   120984908.724        2915.481          29.000                                                                  
G31  21187630.209   111341689.863          56.538          24.000                                                                  
> 2021 11 06 07 27 47.9999450  0  7                     
C06  36835351.817   191811330.469        -546.698          24.000  
C07  37841500.274   197050598.644         726.233          27.000  
C10  38583598.131   200914904.911         618.226          29.000  
C23  22436138.684   116830833.559       -2182.371          24.000  
G10  20459974.554   107517917.579       -2064.835          33.000    20459984.148    80289418.413       -1542.154          26.000  
G26  23022044.970   120981678.372        2915.140          29.000                                                                  
G31  21187555.860   111341318.371          55.335          21.000                                                                  
> 2021 11 06 07 27 48.9999444  0  7                     
C06  36835275.969   191810940.111        -546.092          24.000  
C07  37841182.195   197048936.261         725.447          27.000  
C10  38583299.837   200913350.458         617.681          29.000  
C23  22436376.420   116832078.711       -2180.619          23.000  
G10  20460188.906   107519038.406       -2065.271          33.000    20460197.300    80290254.216       -1542.152          25.000  
G26  23021310.179   120977818.132        2914.692          29.000                                                                  
G31  21187364.893   111340318.218          54.630          20.000                                                                  
> 2021 11 06 07 27 49.9999439  0  6                     
C06  36835231.000   191810706.014        -546.917          24.000  
C07  37840893.495   197047431.287         724.059          28.000  
C10  38583031.223   200911952.525         617.324          30.000  
C32  22192866.998   115563884.9061        648.144          19.000  
G10  20460434.136   107520317.714       -2067.528          32.000    20460441.331    80291209.176       -1544.001          26.000  
G26  23020605.966   120974115.898        2913.524          29.000                                                                  
> 2021 11 06 07 27 50.9999434  0  8                     
C06  36835187.530   191810471.626        -546.150          24.000  
C07  37840604.495   197045926.082         725.358          28.000  
C10  38582763.209   200910554.978         617.237          30.000  
C23  22436911.549   116834880.6901      -2182.778          23.000  
C32  22192592.088   115562457.343         646.917          19.000  
G10  20460679.067   107521597.833       -2067.791          32.000    20460684.763    80292165.835       -1546.471          26.000  
G26  23019901.754   120970414.527        2913.059          28.000                                                                  
G31  21187039.618   111338636.6211         50.383          20.000                                                                  
> 2021 11 06 07 27 51.9999432  0  7                     
C06  36835233.698   191810704.672        -545.145          25.000  
C07  37840406.632   197044888.271         725.675          29.000  
C10  38582584.233   200909625.620         617.196          30.000  
C23  22437267.703   116836751.018       -2182.240          23.000  
G10  20461011.536   107523351.392       -2070.996          31.000    20461017.233    80293475.679       -1545.242          25.000  
G26  23019287.479   120967185.871        2913.581          28.000                                                                  
G31  21186967.667   111338270.479          51.308          24.000                                                                  
> 2021 11 06 07 27 52.9999427  0  7                     
C06  36835187.530   191810469.837        -547.454          24.000  
C07  37840117.632   197043381.622         725.839          28.000  
C10  38582315.619   200908227.756         618.004          30.000  
C23  22437535.417   116838152.787       -2182.347          22.000  
G10  20461250.171   107524633.229       -2070.669          32.000    20461261.264    80294432.152       -1544.541          28.000  
G26  23018583.266   120963484.908        2912.533          28.000                                                                  
G31  21186805.780   111337431.255          51.924          22.000                                                                  
> 2021 11 06 07 27 53.9999424  0  7                     
C06  36835203.719   191810550.005        -548.536          25.000  
C07  37839889.190   197042188.790         723.303          28.000  
C10  38582106.963   200907141.803         616.906          29.000  
C23  22437863.091   116839867.130       -2182.858          22.000  
G10  20461554.760   107526231.107       -2069.168          32.000    20461565.853    80295624.347       -1546.170          25.000  
G26  23017939.912   120960100.015        2912.210          29.000                                                                  
G31  21186705.049   111336907.218          51.344          22.000                                                                  
> 2021 11 06 07 27 54.9999421  0  7                     
C06  36835219.908   191810630.209        -547.973          25.000  
C07  37839660.448   197040996.474         724.186          28.000  
C10  38581897.708   200906056.344         617.158          30.000  
C23  22438194.061   116841581.907       -2184.233          23.000  
G10  20461858.450   107527829.838       -2072.245          31.000    20461869.842    80296817.049       -1546.465          27.000  
G26  23017295.058   120956715.683        2911.708          28.000                                                                  
G31  21186607.617   111336382.982          51.415          23.000                                                                  
> 2021 11 06 07 27 55.9999416  0  7                     
