     3.04           OBSERVATION DATA    M: Mixed            RINEX VERSION / TYPE
Higeo_Hi1105        Huawei CBG          20210720 020202 UTC PGM / RUN BY / DATE 
************************************************************COMMENT             
* If you have any problem,                                 *COMMENT             
*     please contact with LBS Technology Group, thanks.    *COMMENT             
*                                                          *COMMENT             
* Version Higeo2RinexV1.1 2020.07.21                       *COMMENT             
* Fuction:  Convert Higeo Log to Rinex file                *COMMENT             
*                                                          *COMMENT             
* Note that the verision support B1C B2A signal            *COMMENT             
*     BDS: C1D L1D D1D S1D indicate BDS B1C                *COMMENT             
*     BDS: C5D L5D D5D S5D indicate BDS B2A                *COMMENT             
*     Reference: RINEX V3.04                               *COMMENT             
*                                                          *COMMENT             
* Copyright(C) Huawei Technologies Co., Ltd. 2019 - 2020   *COMMENT             
*     All rights reserved.                                 *COMMENT             
************************************************************COMMENT             
                                                            MARKER NAME         
                                                            MARKER NUMBER       
                                                            MARKER TYPE         
                                                            OBSERVER / AGENCY   
                                                            REC # / TYPE / VERS 
                                                            ANT # / TYPE        
        0.0000        0.0000        0.0000                  APPROX POSITION XYZ 
        0.0000        0.0000        0.0000                  ANTENNA: DELTA H/E/N
G    8 C1C L1C D1C S1C C5I L5I D5I S5I                      SYS / # / OBS TYPES 
R    4 C1C L1C D1C S1C                                      SYS / # / OBS TYPES 
E    8 C1C L1C D1C S1C C5I L5I D5I S5I                      SYS / # / OBS TYPES 
J    8 C1C L1C D1C S1C C5I L5I D5I S5I                      SYS / # / OBS TYPES 
C   12 C2I L2I D2I S2I C1D L1D D1D S1D C5D L5D D5D S5D      SYS / # / OBS TYPES 
  2021     5    17     8    40    0.0000000     GPS         TIME OF FIRST OBS   
  2021     5    17     8    55   10.0000000     GPS         TIME OF LAST OBS    
G                                                           SYS / PHASE SHIFT   
R                                                           SYS / PHASE SHIFT   
E                                                           SYS / PHASE SHIFT   
J                                                           SYS / PHASE SHIFT   
C                                                           SYS / PHASE SHIFT   
  0                                                         GLONASS SLOT / FRQ #
 C1C    0.000 C1P    0.000 C2C    0.000 C2P    0.000        GLONASS COD/PHS/BIS 
                                                            END OF HEADER       
> 2021  5 17  8 40  0.0000000  0 18                     
G 2  21839443.717       -3096.859       -1728.070          19.000                                                                  
G 6                                                                  20672189.335       -1027.714        -204.475          17.000  
G 9  23568190.905      -27807.870       -2376.194          18.000                                                                  
G12  22425744.163      -19928.086       -2862.523          20.000                                                                  
G17  21757907.954        8319.472         697.453          26.000                                                                  
G19  20403801.105        -962.577         -80.795          32.000                                                                  
R 7  20513051.313      -36155.082       -3279.555          20.000  
R 8  23131362.887      -13100.585       -5152.209          18.000  
R12  21471879.012       15859.726        1328.854          20.000  
R21  21417617.700        8244.456         734.083          25.000  
R22  20325677.445      -16688.674       -1200.031          29.000  
E12  23772050.724        -501.531        -731.897          30.000                                                                  
C 8  36288621.932       -5144.465        -387.342          28.000                                                                                                                                  
C13  36502032.738       -2122.752        -642.204          23.000                                                                                                                                  
C20  22983823.651        -268.257          -7.896          33.000                                                                                                                                  
C26  25125302.104        1438.855         432.228          27.000                                                                                                                                  
C29  22269010.045        -207.943         -72.467          35.000                                                                                                                                  
C35  22656649.823       -6125.750       -2211.257          28.000                                                                                                                                  
> 2021  5 17  8 40  1.0000000  0 21                     
G 2  21839114.998       -4824.396       -1727.310          18.000                                                                  
G 6                                                                  20672140.821       -1229.646        -196.964          20.000  
G 9  23567745.079      -30183.873       -2372.846          18.000                                                                  
G12  22425199.470      -22790.522       -2861.047          17.000                                                                  
G17  21758041.047        9019.429         699.177          20.000                                                                  
G19  20403785.880       -1042.087         -79.349          34.000                                                                  
R 7  20512446.820      -39438.046       -3278.783          25.000  
R 8  23130401.009      -18251.585       -5152.945          15.000  
R12  21472150.573       17310.817        1332.748          19.000  
R21  21417755.565        8978.957         735.543          24.000  
R22  20325432.051      -17993.991       -1195.661          26.000  
E11  26141742.121       -3338.727       -2249.549          19.000                                                                  
E12  23771912.021       -1232.249        -731.118          28.000                                                                  
C 8  36288547.616       -5530.426        -383.037          28.000                                                                                                                                  
C10  36181250.652         224.761         127.997          17.000                                                                                                                                  
C13  36501910.433       -2764.795        -642.342          26.000                                                                                                                                  
C19  22681971.448      -10887.593       -2904.667          17.000                                                                                                                                  
C20  22983821.962        -274.928          -7.390          34.000                                                                                                                                  
C26  25125384.565        1870.051         432.090          23.000                                                                                                                                  
C29  22268995.400        -281.737         -72.996          35.000                                                                                                                                  
C35  22656225.289       -8336.483       -2208.237          28.000                                                                                                                                  
> 2021  5 17  8 40  2.0000000  0 22                     
G 2  21838796.196       -6549.604       -1725.442          30.000                                                                  
G 6                                                                  20672089.100       -1427.589        -194.176          20.000  
G 9  23567286.509      -32556.425       -2371.058          21.000                                                                  
G12  22424654.869      -25652.494       -2861.919          19.000                                                                  
G17  21758173.367        9719.212         701.107          20.000                                                                  
G19  20403770.232       -1120.554         -79.565          28.000                                                                  
R 7  20511835.216      -42720.815       -3280.643          20.000  
R 8  23129435.798      -23406.213       -5152.767          17.000  
R12  21472422.128       18765.116        1335.299          18.000  
R21  21417891.511        9713.683         734.737          23.000  
R22  20325187.674      -19297.220       -1196.183          23.000  
E11  26141301.429       -5586.496       -2247.052          21.000                                                                  
E12  23771773.409       -1963.165        -730.580          25.000                                                                  
C 8  36288473.889       -5913.173        -383.775          25.000                                                                                                                                  
C10  36181277.762         350.504         128.078          17.000                                                                                                                                  
C13  36501787.409       -3405.558        -640.930          27.000                                                                                                                                  
C19  22681399.203      -13789.672       -2899.522          19.000                                                                                                                                  
C20  22983820.296        -283.980          -6.863          29.000                                                                                                                                  
C26  25125467.078        2301.363         429.593          21.000                                                                                                                                  
C29  22268981.653        -354.996         -74.097          28.000                                                                                                                                  
C30  25878851.722        4720.747        1429.827          19.000                                                                                                                                  
C35  22655800.951      -10544.753       -2207.861          25.000                                                                                                                                  
> 2021  5 17  8 40  3.0000000  0 20                     
G 2  21838462.486       -8273.579       -1723.745          19.000                                                                  
G 6                                                                  20672038.862       -1625.175        -197.240          24.000  
G 9  23566836.716      -34929.707       -2372.848          22.000                                                                  
G12  22424100.478      -28513.590       -2860.438          18.000                                                                  
G17  21758305.439       10419.230         699.257          18.000                                                                  
G19  20403755.775       -1199.086         -77.925          23.000                                                                  
R 7  20511223.228      -45996.997       -3263.009          17.000  
R 8  23128473.672      -28558.899       -5152.861          19.000  
R12  21472694.496       20220.094        1336.524          17.000  
R21  21418029.303       10449.749         736.913          19.000  
R22  20324943.231      -20600.843       -1195.330          24.000  
E11  26140865.719       -7833.337       -2248.447          17.000                                                                  
E12  23771634.104       -2692.661        -728.729          25.000                                                                  
E35                                                                  22655375.256       -3602.048       -1664.785          18.000  
C 8  36288400.362       -6296.004        -380.826          25.000                                                                                                                                  
C13  36501662.905       -4046.392        -640.677          28.000                                                                                                                                  
C19  22680837.910      -16692.120       -2902.907          24.000                                                                                                                                  
C20  22983820.174        -288.963          -4.099          25.000                                                                                                                                  
C26  25125550.355        2733.682         433.544          21.000                                                                                                                                  
C29  22268967.212        -428.357         -72.531          22.000                                                                                                                                  
> 2021  5 17  8 40  4.0000000  0 18                     
G 2  21838134.379       -9998.052           0.003          16.000                                                                  
G 6                                                                  20671991.338       -1822.285        -196.628          24.000  
G 9  23566390.828      -37301.997       -2371.649          21.000                                                                  
G12  22423561.918      -31371.473       -2856.926          19.000                                                                  
G17  21758438.759       11119.708           0.013          17.000                                                                  
G19  20403739.883       -1275.385         -74.847          20.000                                                                  
R 7  20510612.541      -49266.820       -3279.208          19.000  
R 8  23127510.542      -33710.037       -5150.160          18.000  
R12  21472967.246       21676.830        1335.837          16.000  
R21  21418167.303       11188.266         738.287          17.000  
R22  20324698.331      -21904.424       -1196.376          25.000  
E35                                                                  22654951.320       -5267.412       -1665.465          19.000  
C 8  36288327.394       -6675.899        -377.450          24.000                                                                                                                                  
C13  36501539.126       -4686.280        -637.575          28.000                                                                                                                                  
C19  22680285.279      -19594.243       -2902.736          20.000                                                                                                                                  
C20  22983818.568        -294.449          -5.489          23.000                                                                                                                                  
C26  25125633.859        3167.179         435.327          21.000                                                                                                                                  
C29  22268953.161        -501.576         -71.516          21.000                                                                                                                                  
> 2021  5 17  8 40  5.0000000  0 18                     
G 2  21837803.950      -11720.547       -1720.670          19.000                                                                  
G 6                                                                  20671940.864       -2018.632        -195.234          24.000  
G 9  23565939.156      -39672.122       -2368.750          17.000                                                                  
G12  22423015.070      -34227.634       -2854.688          18.000                                                                  
G17  21758572.360       11821.852           0.013          17.000                                                                  
G19  20403725.653       -1350.235         -73.713          16.000                                                                  
R 7  20510000.518      -52543.839       -3282.370          17.000  
R 8  23126549.899      -38859.930       -5152.169          17.000  
R12  21473250.908       23132.553        1336.329          17.000  
R21  21418301.121       11926.562         738.894          18.000  
R22  20324452.235      -23207.628       -1194.240          28.000  
E35                                                                  22654527.690       -6931.622       -1663.313          19.000  
C 8  36288254.051       -7056.283        -379.454          26.000                                                                                                                                  
C13  36501416.385       -5324.575        -637.724          30.000                                                                                                                                  
C19  22679727.557      -22496.512       -2903.053          17.000                                                                                                                                  
C20  22983817.134        -298.683          -3.534          24.000                                                                                                                                  
C26  25125717.118        3602.111         435.907          23.000                                                                                                                                  
C29  22268940.082        -572.665         -70.731          24.000                                                                                                                                  
> 2021  5 17  8 40  6.0000000  0 19                     
G 2  21837460.299      -13441.588       -1722.326          19.000                                                                  
G 6                                                                  20671890.818       -2214.723        -196.174          23.000  
G 9  23565489.075      -42040.885       -2368.690          18.000                                                                  
G12  22422474.429      -37083.600       -2855.024          19.000                                                                  
G17  21758693.792       12524.141         702.105          18.000                                                                  
G19  20403711.537       -1424.518         -75.011          20.000                                                                  
R 7  20509387.283      -55830.168       -3288.484          18.000  
R 8  23125588.008      -44011.010       -5152.234          16.000  
R12  21473523.825       24590.128        1337.813          18.000  
R21  21418439.292       12665.451         739.350          18.000  
R22  20324208.922      -24508.553       -1197.598          27.000  
E35                                                                  22654104.578       -8594.354       -1663.632          19.000  
C 8  36288181.022       -7435.840        -379.190          27.000                                                                                                                                  
C13  36501293.348       -5962.939        -637.463          30.000                                                                                                                                  
C19  22679169.146      -25399.475       -2901.711          20.000                                                                                                                                  
C20  22983817.212        -301.844          -0.153          29.000                                                                                                                                  
C26  25125801.131        4038.483         433.724          23.000                                                                                                                                  
C29  22268926.990        -643.106         -70.466          22.000                                                                                                                                  
C30  25879952.726       10436.767        1433.569          16.000                                                                                                                                  
> 2021  5 17  8 40  7.0000000  0 19                     
G 2  21837149.453      -15164.784       -1722.056          22.000                                                                  
G 6                                                                  20671840.388       -2413.727        -199.214          20.000  
G 9  23565040.003      -44408.758       -2367.118          22.000                                                                  
G12  22421933.074      -39937.844       -2853.347          18.000                                                                  
G17  21758826.165       13227.952         704.540          17.000                                                                  
G19  20403699.540       -1498.548         -73.929          27.000                                                                  
R 7  20508772.826      -59118.350       -3284.780          17.000  
R 8  23124626.187      -49161.754       -5149.365          18.000  
R12  21473792.035       26048.599        1339.382          17.000  
R21  21418563.022       13404.650         736.976          23.000  
R22  20323963.345      -25812.122       -1196.140          25.000  
E35                                                                  22653680.798      -10256.866       -1662.245          17.000  
C 8  36288107.626       -7816.879        -380.089          26.000                                                                                                                                  
C13  36501170.903       -6600.011        -637.697          20.000                                                                                                                                  
C19  22678612.408      -28300.705       -2901.220          18.000                                                                                                                                  
C20  22983817.125        -302.419          -1.272          30.000                                                                                                                                  
C26  25125884.574        4473.930         436.305          26.000                                                                                                                                  
C29  22268912.794        -712.283         -68.705          32.000                                                                                                                                  
C30  25880228.239       11871.354        1436.221          16.000                                                                                                                                  
> 2021  5 17  8 40  8.0000000  0 21                     
G 2  21836822.886      -16886.553       -1721.638          21.000                                                                  
G 6                                                                  20671791.367       -2608.066        -192.104          21.000  
G 9  23564589.805      -46775.986       -2367.034          22.000                                                                  
G12  22421385.740      -42790.577       -2853.332          20.000                                                                  
G17  21758970.984       13932.218         704.549          20.000                                                                  
G19  20403685.489       -1570.691         -70.867          29.000                                                                  
R 7  20508160.978      -62394.227       -3278.491          17.000  
R 8  23123701.125      -54309.543       -5146.771          20.000  
R12  21474065.375       27508.424        1340.063          19.000  
R21  21418700.024       14144.798         741.352          19.000  
R22  20323720.569      -27115.709       -1195.612          24.000  
E35                                                                  22653254.751      -11918.347       -1661.206          15.000  
C 8  36288034.431       -8196.469        -380.461          25.000                                                                                                                                  
C10  36181429.176         699.566         127.354          18.000                                                                                                                                  
C13  36501047.926       -7237.389        -637.677          22.000                                                                                                                                  
C19  22678055.659      -31199.972       -2900.875          14.000                                                                                                                                  
C20  22983816.510        -302.309           2.723          25.000                                                                                                                                  
C22  25984778.325       -9296.586       -4170.497          17.000                                                                                                                                  
C26  25125968.431        4911.443         441.581          20.000                                                                                                                                  
C29  22268899.662        -780.956         -68.790          30.000                                                                                                                                  
C30  25880502.918       13306.578        1434.518          16.000                                                                                                                                  
> 2021  5 17  8 40  9.0000000  0 20                     
G 2  21836504.406      -18607.400       -1719.614          19.000                                                                  
G 6                                                                  20671741.670       -2805.027        -196.840          20.000  
G 9  23564140.187      -49143.763       -2367.530          19.000                                                                  
G12  22420838.072      -45644.018       -2854.402          18.000                                                                  
G17  21759102.860       14636.983         705.077          24.000                                                                  
G19  20403672.686       -1642.298         -72.903          27.000                                                                  
R 7  20507547.934      -65676.591       -3271.373          18.000  
R 8  23122740.139      -59455.906       -5144.958          17.000  
R12  21474312.606       28968.666        1339.970          20.000  
R21  21418839.538       14885.990         740.846          24.000  
R22  20323477.435      -28417.587       -1194.489          27.000  
E26                                                                  25126043.676        1000.057         331.873          19.000  
E29                                                                  22268876.980         -37.789         -50.742          18.000  
E35                                                                  22652831.879      -13578.557       -1657.791          15.000  
C 8  36287961.110       -8577.377        -381.462          23.000                                                                                                                                  
C10  36181458.877         830.354         131.924          17.000                                                                                                                                  
C13  36500925.792       -7874.309        -635.542          21.000                                                                                                                                  
C19  22677497.187      -34101.254       -2902.218          17.000                                                                                                                                  
C20  22983815.899        -300.636          -0.715          29.000                                                                                                                                  
C30  25880778.178       14739.685        1434.030          17.000                                                                                                                                  
> 2021  5 17  8 40 10.0000000  0 21                     
G 2  21836175.190      -20326.983       -1718.747          20.000                                                                  
G 6                                                                  20671692.284       -3000.148        -196.580          20.000  
G 9  23563691.315      -51508.851       -2364.857          20.000                                                                  
G12  22420294.997      -48498.193       -2852.076          19.000                                                                  
G17  21759242.196       15342.622         706.904          19.000                                                                  
G19  20403660.550       -1713.794         -71.271          27.000                                                                  
G28  22820297.692        3716.113        2427.063          22.000                                                                  
R 7  20506935.623      -68954.780       -3263.981          20.000  
R 8  23121779.016      -64602.621       -5146.381          18.000  
R12  21474595.827       30429.420        1341.308          25.000  
R21  21418977.452       15628.114         743.025          25.000  
R22  20323235.479      -29718.080       -1193.495          25.000  
E26                                                                  25126129.369        1333.139         332.709          20.000  
E29                                                                  22268864.612         -87.053         -48.703          15.000  
E35                                                                  22652409.270      -15237.605       -1659.387          15.000  
C 8  36287887.566       -8958.394        -380.854          30.000                                                                                                                                  
C10  36181475.611         961.594         128.608          15.000                                                                                                                                  
C13  36500803.753       -8510.243        -636.333          29.000                                                                                                                                  
C19  22676939.944      -37003.007       -2901.727          15.000                                                                                                                                  
C20  22983816.353        -299.617           1.855          27.000                                                                                                                                  
C30  25881053.346       16172.363        1432.351          14.000                                                                                                                                  
> 2021  5 17  8 40 11.0000000  0 21                     
G 2  21835842.771      -22046.747       -1719.761          19.000                                                                  
G 6                                                                  20671643.175       -3193.792        -193.244          21.000  
G 9  23563242.605      -53873.945       -2367.368          20.000                                                                  
G12  22419750.806      -51350.195       -2852.086          18.000                                                                  
G17  21759375.668       16049.342         705.974          20.000                                                                  
G19  20403647.245       -1786.058         -72.609          26.000                                                                  
G28  22820759.521        6142.966        2425.554          17.000                                                                  
R 7  20506325.726      -72219.113       -3261.833          20.000  
R 8  23120818.067      -69748.979       -5145.183          15.000  
R12  21474870.296       31892.796        1343.919          25.000  
R21  21419116.020       16369.598         741.718          19.000  
R22  20322990.937      -31018.747       -1193.426          25.000  
E26                                                                  25126214.326        1664.418         331.514          19.000  
E29                                                                  22268856.437        -135.079         -47.669          16.000  
E35                                                                  22651987.672      -16897.652       -1660.382          17.000  
C 8  36287814.720       -9338.361        -382.650          26.000                                                                                                                                  
C10  36181505.238        1089.104         127.543          15.000                                                                                                                                  
C13  36500682.020       -9145.388        -632.193          31.000                                                                                                                                  
C19  22676382.722      -39904.865       -2900.879          15.000                                                                                                                                  
C20  22983817.077        -297.670          -0.709          29.000                                                                                                                                  
C30  25881323.982       17602.770        1430.953          14.000                                                                                                                                  
> 2021  5 17  8 40 12.0000000  0 21                     
G 2  21835511.587      -23766.348       -1719.372          24.000                                                                  
G 6                                                                  20671594.089       -3386.214        -190.970          20.000  
G 9  23562793.646      -56240.001       -2364.538          24.000                                                                  
G12  22419208.364      -54201.152       -2850.812          16.000                                                                  
G17  21759511.815       16755.618         707.140          23.000                                                                  
G19  20403633.495       -1856.478         -69.999          35.000                                                                  
G28  22821210.317        8568.831        2427.190          23.000                                                                  
R 7  20505716.535      -75480.840       -3261.998          20.000  
R 8  23119850.828      -74895.243       -5145.408          16.000  
R12  21475146.926       33359.128        1345.021          22.000  
R21  21419258.340       17111.078         741.315          22.000  
R22  20322748.182      -32319.961       -1190.787          27.000  
E26                                                                  25126299.544        1997.402         333.703          20.000  
E29                                                                  22268845.081        -182.356         -46.070          16.000  
E35                                                                  22651564.799      -18558.616       -1660.961          17.000  
C 8  36287741.097       -9718.674        -377.827          30.000                                                                                                                                  
C10  36181529.970        1217.736         130.368          17.000                                                                                                                                  
C13  36500560.613       -9779.258        -633.851          29.000                                                                                                                                  
C19  22675824.917      -42804.892       -2898.420          18.000                                                                                                                                  
C20  22983817.108        -295.086           5.876          30.000                                                                                                                                  
C30  25881599.289       19036.206        1435.279          14.000                                                                                                                                  
> 2021  5 17  8 40 13.0000000  0 22                     
G 2  21835184.662      -25484.155       -1717.351          19.000                                                                  
G 6                                                                  20671545.378       -3578.760        -191.844          32.000  
G 9  23562343.552      -58604.626       -2363.118          20.000                                                                  
G12  22418666.052      -57051.256       -2848.559          18.000                                                                  
G17  21759648.234       17465.206         710.394          26.000                                                                  
G19  20403620.700       -1924.403         -66.030          20.000                                                                  
G28  22821677.398       10996.607        2427.847          20.000                                                                  
R 7  20505111.003      -78732.113       -3247.875          19.000  
R 8  23118890.272      -80039.575       -5144.248          17.000  
R12  21475418.621       34825.563        1347.300          21.000  
R21  21419396.755       17852.978         741.537          20.000  
R22  20322503.971      -33617.719       -1192.123          28.000  
E24  24552409.612         666.112         289.658          16.000                                                                  
E26                                                                  25126384.334        2329.959         332.365          18.000  
E29                                                                  22268832.199        -227.211         -44.604          17.000  
E35                                                                  22651142.181      -20217.804       -1657.102          14.000  
C 8  36287669.024      -10094.523        -376.057          21.000                                                                                                                                  
C10  36181554.746        1346.436         125.400          15.000                                                                                                                                  
C13  36500439.487      -10412.638        -631.954          26.000                                                                                                                                  
C19  22675268.569      -45702.122       -2896.383          17.000                                                                                                                                  
C20  22983819.015        -287.704           7.686          25.000                                                                                                                                  
C30  25881872.294       20472.525        1435.774          17.000                                                                                                                                  
> 2021  5 17  8 40 14.0000000  0 21                     
G 2  21834858.591      -27197.635       -1712.596          16.000                                                                  
G 6                                                                  20671496.602       -3770.637        -190.424          23.000  
G 9  23561893.808      -60967.931       -2362.368          18.000                                                                  
G12  22418123.894      -59900.457       -2848.674          22.000                                                                  
G17  21759784.420       18175.963         711.446          28.000                                                                  
G19  20403609.759       -1989.160         -64.910          23.000                                                                  
G28  22822142.033       13425.076        2429.995          17.000                                                                  
R 7  20504502.519      -81989.855       -3269.949          17.000  
R 8  23117923.888      -85183.630       -5144.740          17.000  
R12  21475693.519       36292.231        1343.874          17.000  
R21  21419531.453       18595.530         743.172          26.000  
R22  20322261.068      -34916.372       -1190.610          27.000  
E26                                                                  25126469.291        2662.731         333.304          18.000  
E29                                                                  22268817.404        -272.205         -46.547          22.000  
E35                                                                  22650719.950      -21875.368       -1660.367          13.000  
C 8  36287597.107      -10470.923        -377.817          21.000                                                                                                                                  
C10  36181582.903        1473.224         128.851          14.000                                                                                                                                  
C13  36500317.674      -11045.202        -631.391          20.000                                                                                                                                  
C19  22674712.614      -48597.351       -2895.012          19.000                                                                                                                                  
C20  22983820.140        -281.695           4.328          25.000                                                                                                                                  
C30  25882147.772       21906.920        1433.059          17.000                                                                                                                                  
> 2021  5 17  8 40 15.0000000  0 22                     
G 2  21834532.713      -28910.340       -1711.548          18.000                                                                  
G 6                                                                  20671447.620       -3963.564        -190.062          22.000  
G 9  23561444.787      -63330.399       -2362.595          16.000                                                                  
G12  22417580.915      -62749.442       -2848.856          19.000                                                                  
G17  21759919.110       18885.814         707.509          24.000                                                                  
G19  20403593.143       -2055.017         -67.223          23.000                                                                  
G28  22822612.221       15853.858        2427.937          21.000                                                                  
R 7  20503892.825      -85253.889       -3255.614          19.000  
R 8  23116963.192      -90327.838       -5143.494          22.000  
R12  21475967.727       37757.157        1345.930          19.000  
R21  21419672.072       19338.431         742.841          24.000  
R22  20322019.902      -36213.799       -1188.985          30.000  
E20                                                                  22983817.308         113.820           2.701          20.000  
E26                                                                  25126554.439        2996.878         335.779          20.000  
E29                                                                  22268808.269        -322.336         -52.404          19.000  
E30                                                                  25882405.986        6185.746        1082.463          17.000  
E31  25902703.101        7279.831        2130.517          16.000                                                                  
E35                                                                  22650297.283      -23534.771       -1657.698          15.000  
C 8  36287524.893      -10849.127        -376.081          30.000                                                                                                                                  
C10  36181608.281        1605.269         136.441          15.000                                                                                                                                  
C13  36500196.121      -11679.611        -633.916          28.000                                                                                                                                  
C19  22674158.215      -51493.673       -2895.654          17.000                                                                                                                                  
> 2021  5 17  8 40 16.0000000  0 22                     
G 2  21834220.812      -30623.559       -1714.113          20.000                                                                  
G 6                                                                  20671398.844       -4155.484        -192.581          20.000  
G 9  23560995.335      -65692.404       -2361.403          18.000                                                                  
G12  22417039.175      -65596.469       -2845.893          16.000                                                                  
G17  21760052.425       19594.247         709.864          23.000                                                                  
G19  20403580.671       -2124.225         -69.023          25.000                                                                  
G28  22823074.141       18281.246        2426.446          17.000                                                                  
R 7  20503283.739      -88515.045       -3267.407          15.000  
R 8  23115999.565      -95469.998       -5140.651          22.000  
R12  21476237.639       39225.734        1347.726          23.000  
R21  21419812.140       20083.440         745.319          23.000  
R22  20321776.362      -37511.246       -1191.332          32.000  
E26                                                                  25126641.053        3331.703         335.275          20.000  
E30                                                                  25882681.935        7267.941        1081.577          17.000  
E31  25903108.845        9411.764        2131.731          13.000                                                                  
E35                                                                  22649873.797      -25192.846       -1659.055          17.000  
C 8  36287452.981      -11227.624        -379.286          29.000                                                                                                                                  
C10  36181633.546        1739.605         133.137          15.000                                                                                                                                  
C13  36500075.670      -12312.014        -630.838          28.000                                                                                                                                  
C19  22673602.390      -54388.215       -2893.855          17.000                                                                                                                                  
C20  22983822.226        -273.115           5.513          30.000                                                                                                                                  
C29  22268799.754       -1301.690         -63.984          29.000                                                                                                                                  
> 2021  5 17  8 40 17.0000000  0 22                     
G 2  21833892.216      -32337.128       -1713.217          19.000                                                                  
G 6                                                                  20671350.024       -4347.347        -189.446          21.000  
G 9  23560544.618      -68052.663       -2358.911          18.000                                                                  
G12  22416490.734      -68441.138          -0.011          14.000                                                                  
G17  21760186.307       20305.531         712.808          27.000                                                                  
G19  20403570.040       -2191.596         -67.514          26.000                                                                  
G28  22823533.776       20711.815        2431.758          23.000                                                                  
R 7  20502671.620      -91792.384       -3281.187          17.000  
R 8  23115039.275     -100612.715       -5142.901          21.000  
R12  21476535.632       40693.415        1344.554          21.000  
R21  21419951.568       20828.801         744.166          23.000  
R22  20321532.125      -38807.807       -1187.297          27.000  
E20                                                                  22983817.471         124.973           6.362          21.000  
E26                                                                  25126726.428        3665.773         333.772          19.000  
E30                                                                  25882957.701        8349.407        1081.190          17.000  
E31  25903509.781       11539.876        2126.000          16.000                                                                  
E35                                                                  22649450.440      -26852.768       -1660.429          16.000  
C 8  36287380.515      -11604.996        -375.366          24.000                                                                                                                                  
C10  36181659.296        1873.336         136.564          13.000                                                                                                                                  
C13  36499953.117      -12945.203        -634.595          23.000                                                                                                                                  
C19  22673050.968      -57282.809       -2894.657          20.000                                                                                                                                  
C29  22268787.369       -1365.607         -63.364          27.000                                                                                                                                  
> 2021  5 17  8 40 18.0000000  0 22                     
G 2  21833558.240      -34051.144       -1714.771          20.000                                                                  
G 6                                                                  20671300.916       -4538.579        -191.558          23.000  
G 9  23560107.093      -70412.070       -2360.398          17.000                                                                  
G12  22415949.684      -71284.244          -0.011          12.000                                                                  
G17  21760319.980       21017.996         711.936          24.000                                                                  
G19  20403557.442       -2257.936         -63.906          28.000                                                                  
G28  22823994.357       23143.633        2430.782          19.000                                                                  
R 7  20502059.904      -95067.583       -3267.198          17.000  
R 8  23114086.836     -105756.393       -5142.963          20.000  
R12  21476811.240       42159.397        1347.436          19.000  
R21  21420090.772       21571.988         742.813          26.000  
R22  20321290.435      -40104.653       -1191.166          24.000  
E20                                                                  22983818.539         131.030           6.611          21.000  
E26                                                                  25126811.580        3999.412         330.308          18.000  
E29                                                                  22268769.399        -478.116         -49.978          18.000  
E30                                                                  25883234.618        9430.999        1082.415          14.000  
E31  25903915.124       13669.788        2129.410          14.000                                                                  
E35                                                                  22649027.656      -28512.545       -1660.220          17.000  
C 8  36287307.957      -11981.768        -378.059          28.000                                                                                                                                  
C10  36181685.808        2011.088         138.080          19.000                                                                                                                                  
C13  36499831.051      -13579.643        -633.647          22.000                                                                                                                                  
C19  22672494.951      -60175.530       -2891.070          19.000                                                                                                                                  
> 2021  5 17  8 40 19.0000000  0 21                     
G 2  21833231.908      -35766.013       -1714.129          20.000                                                                  
G 6                                                                  20671252.035       -4730.301        -188.845          24.000  
G 9  23559637.333      -72773.551       -2361.805          22.000                                                                  
G12  22415408.838      -74126.653          -0.011          15.000                                                                  
G17  21760454.556       21729.591         710.635          18.000                                                                  
G19  20403546.030       -2323.484         -65.307          24.000                                                                  
G28  22824457.372       25574.473        2431.964          16.000                                                                  
R 7  20501448.736      -98338.958       -3266.961          22.000  
R 8  23113125.975     -110901.991       -5148.421          17.000  
R12  21477090.931       43629.459        1350.073          20.000  
R21  21420230.029       22316.416         744.226          24.000  
R22  20321048.257      -41402.978       -1190.632          21.000  
E20                                                                  22983820.276         137.547           5.375          19.000  
E26                                                                  25126893.309        4330.162         330.477          17.000  
E29                                                                  22268757.022        -527.384         -49.251          16.000  
E30                                                                  25883511.204       10515.624        1085.188          12.000  
E35                                                                  22648604.950      -30172.423       -1657.903          17.000  
C 8  36287235.704      -12358.848        -377.725          22.000                                                                                                                                  
