     3.04           OBSERVATION DATA    M: Mixed            RINEX VERSION / TYPE
Higeo_Hi1105        Huawei CBG          20210720 020325 UTC PGM / RUN BY / DATE 
************************************************************COMMENT             
* If you have any problem,                                 *COMMENT             
*     please contact with LBS Technology Group, thanks.    *COMMENT             
*                                                          *COMMENT             
* Version Higeo2RinexV1.1 2020.07.21                       *COMMENT             
* Fuction:  Convert Higeo Log to Rinex file                *COMMENT             
*                                                          *COMMENT             
* Note that the verision support B1C B2A signal            *COMMENT             
*     BDS: C1D L1D D1D S1D indicate BDS B1C                *COMMENT             
*     BDS: C5D L5D D5D S5D indicate BDS B2A                *COMMENT             
*     Reference: RINEX V3.04                               *COMMENT             
*                                                          *COMMENT             
* Copyright(C) Huawei Technologies Co., Ltd. 2019 - 2020   *COMMENT             
*     All rights reserved.                                 *COMMENT             
************************************************************COMMENT             
                                                            MARKER NAME         
                                                            MARKER NUMBER       
                                                            MARKER TYPE         
                                                            OBSERVER / AGENCY   
                                                            REC # / TYPE / VERS 
                                                            ANT # / TYPE        
        0.0000        0.0000        0.0000                  APPROX POSITION XYZ 
        0.0000        0.0000        0.0000                  ANTENNA: DELTA H/E/N
G    8 C1C L1C D1C S1C C5I L5I D5I S5I                      SYS / # / OBS TYPES 
R    4 C1C L1C D1C S1C                                      SYS / # / OBS TYPES 
E    8 C1C L1C D1C S1C C5I L5I D5I S5I                      SYS / # / OBS TYPES 
J    8 C1C L1C D1C S1C C5I L5I D5I S5I                      SYS / # / OBS TYPES 
C   12 C2I L2I D2I S2I C1D L1D D1D S1D C5D L5D D5D S5D      SYS / # / OBS TYPES 
  2021     5    17     8    41   39.0000000     GPS         TIME OF FIRST OBS   
  2021     5    17     8    55    1.0000000     GPS         TIME OF LAST OBS    
G                                                           SYS / PHASE SHIFT   
R                                                           SYS / PHASE SHIFT   
E                                                           SYS / PHASE SHIFT   
J                                                           SYS / PHASE SHIFT   
C                                                           SYS / PHASE SHIFT   
  0                                                         GLONASS SLOT / FRQ #
 C1C    0.000 C1P    0.000 C2C    0.000 C2P    0.000        GLONASS COD/PHS/BIS 
                                                            END OF HEADER       
> 2021  5 17  8 41 39.0000000  0 19                     
G 2  21843876.709     -316910.480       -2050.885          18.000                                                                  
G 6  20704158.311      -95553.127        -584.150          29.000                                                                  
G 9  23560643.311     -333129.516       -2680.293          15.000                                                                  
G12  22409132.167     -325171.692       -3149.018          18.000                                                                  
G14  24522723.956      345035.816          -0.009          12.000                                                                  
G17  21808160.972       52528.788         390.299          20.000                                                                  
G19  20439473.076      -66334.521        -380.276          19.000                                                                  
G28  22898271.637      319102.862        2101.414          21.000                                                                  
R 8  23090657.815     -838901.817       -5493.540          19.000  
E11  26136663.824     -333550.937       -2587.359          10.000                                                                  
E12  23795121.478     -141755.613       -1066.112          18.000                                                                  
E19  25728766.681     -252154.908       -2958.145          12.000                                                                  
E24  24594191.962       -9059.416         -16.356          19.000                                                                  
E25  26789770.957     -318010.960       -2646.083          10.000                                                                  
C 8  36318096.087       -2551.812        -723.800          23.000                                                                                                                                  
C13  36526660.915       -4263.789        -975.975          21.000                                                                                                                                  
C19  22664407.748      -21351.973       -3207.239          18.000                                                                                                                                  
C20  23020968.928       -7834.129        -290.432          14.000                                                                                                                                  
C35  22651519.969      -52075.418       -2539.190          17.000                                                                                                                                  
> 2021  5 17  8 41 40.0000000  0 18                     
G 2  21843486.770     -318959.830       -2049.044          15.000                                                                  
G 6  20704048.049      -96139.248        -588.288          27.000                                                                  
G 9  23560133.289     -335809.854       -2679.655          15.000                                                                  
G12  22408537.570     -328320.245       -3148.663          17.000                                                                  
G14  24523234.085      347700.551          -0.009          16.000                                                                  
G17  21808234.372       52918.928         391.263          19.000                                                                  
G19  20439408.328      -66715.208        -380.233          24.000                                                                  
G28  22898671.229      321204.569        2101.563          22.000                                                                  
R 8  23089632.069     -844394.764       -5492.482          17.000  
E11  26136171.470     -336138.285       -2587.406          10.000                                                                  
E12  23794918.218     -142820.359       -1062.926          17.000                                                                  
E19  25728203.833     -255112.682       -2957.323          12.000                                                                  
E24  24594189.937       -9074.511         -15.006          20.000                                                                  
E25  26789267.444     -320656.909       -2645.628           9.000                                                                  
C 8  36317956.337       -3274.771        -722.560          23.000                                                                                                                                  
C13  36526473.394       -5239.893        -975.900          20.000                                                                                                                                  
C19  22663792.427      -24558.594       -3205.456          19.000                                                                                                                                  
C35  22651032.461      -54613.998       -2538.533          16.000                                                                                                                                  
> 2021  5 17  8 41 41.0000000  0 18                     
G 2  21843096.714     -321009.813       -2051.286          12.000                                                                  
G 6  20703935.121      -96726.041        -583.723          27.000                                                                  
G 9  23559631.783     -338486.626          -0.004          15.000                                                                  
G12  22407938.481     -331468.892       -3148.552          17.000                                                                  
G14  24523740.883      350363.584          -0.009          14.000                                                                  
G17  21808288.044       53310.141         391.713          21.000                                                                  
G19  20439328.769      -67094.882        -378.604          23.000                                                                  
G28  22899071.825      323306.962        2103.147          20.000                                                                  
R 8  23088606.912     -849886.551       -5492.943          16.000  
E11  26135679.204     -338725.118       -2586.740          10.000                                                                  
E12  23794715.643     -143884.117       -1062.638          17.000                                                                  
E19  25727641.138     -258069.636       -2956.604          12.000                                                                  
E24  24594191.420       -9091.075         -16.380          21.000                                                                  
E25  26788764.049     -323302.260       -2645.012           9.000                                                                  
C 8  36317815.924       -3997.148        -721.865          22.000                                                                                                                                  
C13  36526285.446       -6216.110        -976.060          19.000                                                                                                                                  
C19  22663177.333      -27764.227       -3206.496          19.000                                                                                                                                  
C35  22650546.533      -57153.525       -2539.809          15.000                                                                                                                                  
> 2021  5 17  8 41 42.0000000  0 18                     
G 2  21842706.305     -323061.457           0.003          12.000                                                                  
G 6  20703823.676      -97309.964        -583.381          25.000                                                                  
G 9  23559122.747     -341161.528          -0.004          14.000                                                                  
G12  22407346.214     -334616.209       -3147.438          18.000                                                                  
G14  24524243.137      353026.446        2661.318          12.000                                                                  
G17  21808367.076       53701.373         391.709          21.000                                                                  
G19  20439262.254      -67472.923        -377.746          24.000                                                                  
G28  22899472.039      325409.665        2103.108          22.000                                                                  
R 8  23087580.818     -855381.612       -5495.206          13.000  
E11  26135187.169     -341310.730       -2585.179          11.000                                                                  
E12  23794513.203     -144948.206       -1064.534          17.000                                                                  
E19  25727078.612     -261025.794       -2955.760          12.000                                                                  
E24  24594187.280       -9105.221         -14.190          21.000                                                                  
E25  26788260.781     -325946.962       -2644.875          10.000                                                                  
C13  36526098.135       -7191.362        -973.142          19.000                                                                                                                                  
C19  22662562.317      -30969.147       -3204.687          19.000                                                                                                                                  
C29  22304351.407       -1051.812        -388.902          19.000                                                                                                                                  
C35  22650058.795      -59693.519       -2540.382          15.000                                                                                                                                  
> 2021  5 17  8 41 43.0000000  0 18                     
G 2  21842316.101     -325112.093           0.003          15.000                                                                  
G 6  20703714.588      -97893.976        -584.729          25.000                                                                  
G 9  23558609.462     -343834.200          -0.004          12.000                                                                  
G12  22406747.443     -337762.870       -3145.697          19.000                                                                  
G14  24524749.187      355685.722        2658.645          13.000                                                                  
G17  21808446.955       54094.182         393.853          21.000                                                                  
G19  20439191.581      -67851.295        -378.492          21.000                                                                  
G28  22899873.172      327513.526        2103.338          22.000                                                                  
R 8  23086555.260     -860873.777       -5491.961          16.000  
E11  26134685.353     -343894.460       -2583.734          12.000                                                                  
E12  23794314.624     -146011.899       -1062.423          18.000                                                                  
E19  25726516.204     -263981.229       -2954.955          12.000                                                                  
E24  24594184.327       -9119.957         -16.952          21.000                                                                  
E25  26787757.508     -328591.664       -2644.401          10.000                                                                  
C13  36525910.994       -8165.097        -974.382          19.000                                                                                                                                  
C19  22661947.377      -34173.447       -3202.187          20.000                                                                                                                                  
C29  22304278.444       -1443.218        -398.835          20.000                                                                                                                                  
C35  22649571.173      -62232.893       -2539.113          15.000                                                                                                                                  
> 2021  5 17  8 41 44.0000000  0 19                     
G 2  21841926.664     -327162.369           0.003          16.000                                                                  
G 6  20703604.936      -98477.865        -584.922          24.000                                                                  
G 9  23558100.897     -346506.795          -0.004          13.000                                                                  
G12  22406149.683     -340906.096       -3141.866          18.000                                                                  
G14  24525254.745      358342.315        2658.114          14.000                                                                  
G17  21808522.220       54488.474         395.093          20.000                                                                  
G19  20439119.774      -68229.550        -376.980          20.000                                                                  
G28  22900272.655      329617.302        2104.294          22.000                                                                  
R 8  23085526.770     -866365.333       -5490.151          18.000  
E11  26134193.798     -346477.575       -2582.706          13.000                                                                  
E12  23794112.960     -147074.692       -1062.148          19.000                                                                  
E19  25725954.408     -266935.907       -2954.088          11.000                                                                  
E24  24594181.369       -9133.961         -13.912          20.000                                                                  
E25  26787256.429     -331235.475       -2643.166           9.000                                                                  
C 8  36317401.163       -1041.507        -720.969          24.000                                                                                                                                  
C13  36525723.669       -9140.184        -975.608          20.000                                                                                                                                  
C19  22661333.914      -37375.287       -3201.187          22.000                                                                                                                                  
C29  22304207.360       -1838.973        -394.100          19.000                                                                                                                                  
C35  22649082.938      -64772.428           0.028          12.000                                                                                                                                  
> 2021  5 17  8 41 45.0000000  0 19                     
G 2  21841536.303     -329213.583           0.003          17.000                                                                  
G 6  20703492.423      -99061.357        -583.738          25.000                                                                  
G 9  23557592.328     -349179.190          -0.004          15.000                                                                  
G12  22405551.618     -344048.906       -3142.791          17.000                                                                  
G14  24525760.954      361002.330        2662.151          16.000                                                                  
G17  21808598.543       54880.353         391.910          19.000                                                                  
G19  20439048.006      -68606.544        -375.835          22.000                                                                  
G28  22900674.621      331721.866        2105.067          23.000                                                                  
R 8  23084514.457     -871855.580       -5490.730          16.000  
E11  26133702.426     -349059.686       -2581.936          13.000                                                                  
E12  23793911.362     -148135.783       -1059.151          20.000                                                                  
E19  25725392.296     -269889.827       -2953.722          12.000                                                                  
E24  24594179.244       -9145.857         -10.508          20.000                                                                  
E25  26946864.455     -333877.697       -2641.745           8.000                                                                  
C 8  36317258.511       -1762.241        -719.984          24.000                                                                                                                                  
C13  36525536.537      -10114.974        -973.254          20.000                                                                                                                                  
C19  22660720.164      -40575.922       -3199.697          22.000                                                                                                                                  
C29  22304131.940       -2231.991        -392.899          17.000                                                                                                                                  
C35  22648595.181      -67312.476           0.028          13.000                                                                                                                                  
> 2021  5 17  8 41 46.0000000  0 20                     
G 2  21841146.269     -331263.393           0.003          15.000                                                                  
G 6  20703380.647      -99643.677        -581.823          24.000                                                                  
G 9  23557079.684     -351851.687          -0.004          14.000                                                                  
G12  22404953.828     -347190.345       -3141.207          19.000                                                                  
G14  24526267.030      363661.689        2659.021          14.000                                                                  
G17  21808672.881       55270.878         390.046          17.000                                                                  
G19  20438976.090      -68982.007        -374.717          21.000                                                                  
G28  22901074.898      333827.419        2105.967          23.000                                                                  
R 8  23083489.309     -877345.482       -5492.216          14.000  
E11  26133211.163     -351641.343       -2581.745          14.000                                                                  
E12  23793713.795     -149197.175       -1063.448          19.000                                                                  
E19  25724830.290     -272843.177       -2952.747          11.000                                                                  
E24  24594177.477       -9157.752         -11.622          20.000                                                                  
E25  26946361.885     -336518.697       -2640.244           7.000                                                                  
C 8  36317118.343       -2482.205        -720.995          24.000                                                                                                                                  
C13  36525349.322      -11088.267        -973.461          20.000                                                                                                                                  
C19  22660106.060      -43775.367       -3200.895          19.000                                                                                                                                  
C29  22304056.464       -2625.256        -393.011          15.000                                                                                                                                  
C30  25943778.255        3827.411        1103.507          18.000                                                                                                                                  
C35  22648107.416      -69852.531           0.028          12.000                                                                                                                                  
> 2021  5 17  8 41 47.0000000  0 20                     
G 2  21840752.317     -333311.731       -2047.949          16.000                                                                  
G 6  20703269.844     -100224.925        -581.442          22.000                                                                  
G 9  23556571.320     -354523.387          -0.004          15.000                                                                  
G12  22404348.535     -350332.014       -3139.511          17.000                                                                  
G14  24526772.979      366320.401        2658.028          14.000                                                                  
G17  21808747.319       55662.047         393.159          17.000                                                                  
G19  20438906.106      -69356.019        -374.516          24.000                                                                  
G28  22901474.809      335933.183        2106.668          23.000                                                                  
R 8  23082464.597     -882833.045       -5487.593          13.000  
E11  26132719.974     -354222.553       -2580.843          13.000                                                                  
E12  23793509.964     -150259.986       -1062.531          18.000                                                                  
E19  25724268.463     -275795.561       -2952.121          10.000                                                                  
E24  24594175.666       -9170.032         -13.254          20.000                                                                  
E25  26785748.717     -339158.505       -2639.363           9.000                                                                  
C 8  36316981.576       -3203.747        -723.276          24.000                                                                                                                                  
C13  36525162.525      -12059.804        -971.923          20.000                                                                                                                                  
C19  22659491.837      -46975.560       -3200.626          18.000                                                                                                                                  
C29  22303979.822       -3016.550        -389.369          16.000                                                                                                                                  
C30  25943991.671        4930.424        1099.995          17.000                                                                                                                                  
C35  22647620.333      -72388.995           0.028          15.000                                                                                                                                  
> 2021  5 17  8 41 48.0000000  0 17                     
G 2  21840362.575     -335360.037       -2048.305          16.000                                                                  
G 6  20703160.100     -100805.011        -579.073          24.000                                                                  
G12  22403754.867     -353470.949       -3138.268          17.000                                                                  
G14  24527278.689      368977.904        2657.312          14.000                                                                  
G17  21808824.253       56056.597         395.351          17.000                                                                  
G19  20438834.081      -69729.738        -372.745          23.000                                                                  
G28  22901876.308      338039.951        2106.674          24.000                                                                  
R 8  23081440.025     -888320.089       -5485.397          13.000  
E11  26132228.977     -356802.718       -2579.771          14.000                                                                  
E12  23793307.977     -151323.609       -1063.713          18.000                                                                  
E19  25723706.739     -278747.521       -2951.765           9.000                                                                  
E24  24594173.817       -9179.589          -8.059          20.000                                                                  
E25  26785246.570     -341797.267       -2638.691           9.000                                                                  
C13  36524975.834      -13032.013        -973.083          20.000                                                                                                                                  
C19  22658877.463      -50175.022       -3199.056          17.000                                                                                                                                  
C29  22303905.113       -3405.746        -388.591          17.000                                                                                                                                  
C35  22647133.449      -74924.507           0.028          12.000                                                                                                                                  
> 2021  5 17  8 41 49.0000000  0 17                     
G 2  21839972.824     -337408.896       -2048.662          15.000                                                                  
G 6  20703049.651     -101384.011        -578.328          22.000                                                                  
G12  22403152.030     -356609.602       -3138.482          18.000                                                                  
G14  24527785.086      371638.889        2661.505          15.000                                                                  
G17  21808900.048       56452.607         396.433          17.000                                                                  
G19  20438763.335      -70102.522        -372.903          24.000                                                                  
G28  22902277.262      340146.654        2106.559          25.000                                                                  
R 8  23080416.033     -893803.883       -5484.160          13.000  
E11  26131737.978     -359382.266       -2579.338          14.000                                                                  
E12  23793106.039     -152388.560       -1064.147          18.000                                                                  
E19  25723145.047     -281699.216       -2951.868          10.000                                                                  
E24  24594171.744       -9188.254          -9.008          21.000                                                                  
E25  26784744.518     -344435.565       -2638.488           9.000                                                                  
C13  36524789.369      -14003.826        -970.274          19.000                                                                                                                                  
C19  22658263.049      -53374.614       -3199.230          16.000                                                                                                                                  
C29  22303832.991       -3792.163        -384.590          18.000                                                                                                                                  
C35  22646646.553      -77460.140           0.028          13.000                                                                                                                                  
> 2021  5 17  8 41 50.0000000  0 17                     
G 2  21839583.148     -339456.830       -2047.535          15.000                                                                  
G 6  20702940.666     -101962.117        -577.988          25.000                                                                  
G12  22402555.143     -359746.232       -3135.019          18.000                                                                  
G14  24528291.653      374300.852        2660.792          13.000                                                                  
G17  21808986.649       56849.332         396.956          17.000                                                                  
G19  20438691.837      -70475.121        -371.687          22.000                                                                  
G28  22902678.785      342254.058          -0.011          25.000                                                                  
R 8  23079392.408     -899285.881       -5484.705          16.000  
E11  26131247.225     -361961.156       -2578.631          13.000                                                                  
E12  23792904.310     -153452.358       -1064.296          19.000                                                                  
E19  25722583.399     -284650.623       -2950.720           9.000                                                                  
E24  24594168.350       -9196.561          -8.298          21.000                                                                  
E25  26944353.373     -347073.426       -2637.549           8.000                                                                  
C13  36524602.822      -14975.539        -974.060          19.000                                                                                                                                  
C19  22657653.579      -56573.594           0.022          18.000                                                                                                                                  
C29  22303758.880       -4178.406        -385.596          16.000                                                                                                                                  
C35  22646159.469      -79996.767           0.028          15.000                                                                                                                                  
> 2021  5 17  8 41 51.0000000  0 16                     
G 2  21839193.698     -341503.481       -2046.216          17.000                                                                  
G 6  20702830.168     -102539.990        -578.188          24.000                                                                  
G14  24528798.440      376963.878        2662.880          14.000                                                                  
G17  21809062.221       57246.342         397.254          16.000                                                                  
G19  20438619.930      -70846.580        -372.012          22.000                                                                  
G28  22903081.173      344362.505        2109.730          26.000                                                                  
R 8  23078373.411     -904772.171       -5487.524          16.000  
E11  26130756.560     -364539.610       -2578.492          14.000                                                                  
E12  23792702.511     -154516.073       -1061.888          18.000                                                                  
E19  25722021.863     -287601.611       -2950.758          11.000                                                                  
E24  24594164.930       -9204.895          -8.687          21.000                                                                  
E25  26943851.496     -349710.740       -2636.991           6.000                                                                  
C13  36524415.182      -15951.095        -975.543          16.000                                                                                                                                  
C19  22657040.852      -59771.305       -3196.765          19.000                                                                                                                                  
C29  22303684.730       -4564.763        -386.193          16.000                                                                                                                                  
C35  22645673.427      -82531.785       -2533.135          17.000                                                                                                                                  
> 2021  5 17  8 41 52.0000000  0 16                     
G 2  21838803.555     -343550.672       -2046.790          19.000                                                                  
G 6  20702719.911     -103118.276        -577.409          24.000                                                                  
G12  22401382.056       -3239.625       -3132.637          17.000                                                                  
G17  21809137.770       57643.157         398.233          18.000                                                                  
G19  20438548.782      -71218.527        -372.428          20.000                                                                  
G28  22903483.021      346471.815        2112.185          25.000                                                                  
R 8  23077348.865     -910258.997       -5485.121          15.000  
E11  26130241.443     -367117.309       -2576.962          15.000                                                                  
E12  23792500.560     -155577.396       -1061.048          18.000                                                                  
E19  25721458.627     -290552.288       -2950.296          10.000                                                                  
E24  24594162.137       -9213.122          -6.259          21.000                                                                  
E25  26943349.755     -352347.395       -2635.916           6.000                                                                  
C13  36524228.391      -16924.059        -972.732          15.000                                                                                                                                  
C19  22656427.935      -62967.232       -3194.507          18.000                                                                                                                                  
C29  22303609.541       -4951.438        -386.669          17.000                                                                                                                                  
C35  22645187.089      -85064.592       -2532.131          19.000                                                                                                                                  
> 2021  5 17  8 41 53.0000000  0 18                     
G 2  21838421.980     -345596.975       -2045.338          18.000                                                                  
G 6  20702609.596     -103696.548        -578.670          21.000                                                                  
G12  22400766.520       -6373.656       -3133.271          19.000                                                                  
G17  21809219.638       58041.762         398.571          20.000                                                                  
G19  20438476.674      -71590.944        -372.673          19.000                                                                  
G28  22903885.336      348583.211        2111.743          24.000                                                                  
R 8  23076324.005     -915747.342       -5491.056          14.000  
E11  26129751.096     -369694.212       -2576.593          15.000                                                                  
E12  23792299.049     -156636.799       -1063.431          17.000                                                                  
E19  25720897.245     -293502.383       -2949.552           9.000                                                                  
E24  24594160.558       -9220.108          -5.716          23.000                                                                  
E25  26942848.231     -354982.919       -2635.196           6.000                                                                  
C 8  36316147.556        -920.432        -720.676          23.000                                                                                                                                  
C13  36524039.740      -17898.471        -974.706          17.000                                                                                                                                  
C19  22655820.318      -66162.439       -3193.963          20.000                                                                                                                                  
C20  23020188.273       -1277.740        -285.110          13.000                                                                                                                                  
C29  22303535.185       -5338.932        -387.776          15.000                                                                                                                                  
C35  22644700.703      -87595.669       -2529.689          17.000                                                                                                                                  
> 2021  5 17  8 41 54.0000000  0 19                     
G 2  21838043.415     -347642.171       -2044.362          20.000                                                                  
G 6  20702498.927     -104274.386        -577.705          22.000                                                                  
G12  22400170.724       -9504.790       -3132.212          18.000                                                                  
G17  21809297.549       58440.436         399.421          19.000                                                                  
G19  20438407.432      -71961.494        -369.509          22.000                                                                  
G28  22904287.415      350694.989        2112.151          24.000                                                                  
R 8  23075298.831     -921237.487       -5488.421          14.000  
E11  26129260.784     -372270.833       -2576.742          13.000                                                                  
E12  23792096.566     -157699.498       -1062.766          17.000                                                                  
E19  25720336.035     -296451.643       -2948.856          10.000                                                                  
E24  24594159.026       -9224.970          -4.476          23.000                                                                  
E25  26942346.803     -357617.933       -2634.563           7.000                                                                  
C 8  36316011.048       -1639.320        -719.245          23.000                                                                                                                                  
C13  36523852.769      -18872.295        -972.969          17.000                                                                                                                                  
C19  22655207.034      -69356.395       -3194.159          18.000                                                                                                                                  
C20  23020133.479       -1563.210        -287.099          14.000                                                                                                                                  
C26  25171010.998         644.995         139.886          18.000                                                                                                                                  
C29  22303459.673       -5726.118        -386.857          17.000                                                                                                                                  
C35  22644215.145      -90124.438       -2529.836          15.000                                                                                                                                  
> 2021  5 17  8 41 55.0000000  0 19                     
G 2  21837654.598     -349685.482       -2044.007          19.000                                                                  
G 6  20702387.811     -104851.432        -576.464          24.000                                                                  
G12  22399575.224      -12639.508       -3136.111          19.000                                                                  
G17  21809369.974       58841.237         399.673          19.000                                                                  
G19  20438338.448      -72329.674        -367.330          22.000                                                                  
G28  22904690.162      352806.803        2110.486          25.000                                                                  
R 8  23074274.547     -926722.868       -5483.029          15.000  
E11  26128770.594     -374846.974       -2575.687          12.000                                                                  
E12  23791894.968     -158759.308       -1058.105          19.000                                                                  
E19  25719774.954     -299400.194       -2947.980          10.000                                                                  
E24  24594157.626       -9229.692          -4.396          24.000                                                                  
E25  26781734.792     -360251.655       -2633.009           9.000                                                                  
C 8  36315874.107       -2357.612        -718.131          23.000                                                                                                                                  
C13  36523664.472      -19845.080        -971.982          18.000                                                                                                                                  
C19  22654593.736      -72551.865       -3195.355          17.000                                                                                                                                  
C20  23020079.069       -1850.520        -288.604          13.000                                                                                                                                  
C26  25171035.651         784.593         142.559          17.000                                                                                                                                  
C29  22303385.418       -6113.091        -387.386          17.000                                                                                                                                  
C35  22643730.836      -92654.114       -2528.752          17.000                                                                                                                                  
> 2021  5 17  8 41 56.0000000  0 20                     
G 2  21837265.798     -351729.185       -2044.043          18.000                                                                  
G 6  20702277.169     -105428.644        -576.648          23.000                                                                  
G12  22398986.564      -15775.169       -3134.463          19.000                                                                  
G17  21809446.048       59241.223         401.032          18.000                                                                  
G19  20438269.420      -72697.233        -367.767          22.000                                                                  
G28  22905092.634      354917.743        2112.144          23.000                                                                  
R 8  23073254.939     -932206.277       -5484.465          14.000  
E11  26128281.526     -377422.351       -2575.004          12.000                                                                  
E12  23791695.813     -159817.566       -1057.671          20.000                                                                  
E19  25719214.086     -302347.573       -2946.954          11.000                                                                  
E24  24594156.365       -9234.518          -5.901          20.000                                                                  
E25  26941344.581     -362884.611       -2632.683           7.000                                                                  
C 8  36315736.988       -3076.076        -719.114          23.000                                                                                                                                  
C13  36523475.543      -20817.076        -971.263          19.000                                                                                                                                  
C19  22653980.998      -75745.559       -3192.248          17.000                                                                                                                                  
C20  23020023.569       -2139.740        -291.454          13.000                                                                                                                                  
C22  25933806.935      -10253.992       -4513.431          17.000                                                                                                                                  
C26  25171062.825         925.912         141.986          17.000                                                                                                                                  
C29  22303310.382       -6499.441        -386.518          18.000                                                                                                                                  
C35  22643247.211      -95183.207       -2530.608          19.000                                                                                                                                  
> 2021  5 17  8 41 57.0000000  0 21                     
G 2  21836874.639     -353773.098       -2042.989          18.000                                                                  
G 6  20702166.775     -106005.036        -575.574          22.000                                                                  
G12  22398387.143      -18909.397       -3134.597          18.000                                                                  
G17  21809518.995       59642.655         401.665          17.000                                                                  
G19  20438199.676      -73064.854        -366.791          24.000                                                                  
G28  22905496.205      357029.116        2110.390          23.000                                                                  
R 8  23072230.454     -937692.601       -5485.928          18.000  
E11  26127791.628     -379996.902       -2574.175          14.000                                                                  
E12  23791494.158     -160877.362       -1059.590          19.000                                                                  
E19  25718653.393     -305294.046       -2945.958          11.000                                                                  
E24  24594155.305       -9240.704          -6.224          22.000                                                                  
E25  26780732.831     -365516.978       -2632.291           9.000                                                                  
C 8  36315598.171       -3795.392        -719.883          24.000                                                                                                                                  
C13  36523289.204      -21787.634        -970.499          17.000                                                                                                                                  
C19  22653368.373      -78938.411       -3193.217          18.000                                                                                                                                  
C20  23019967.645       -2431.114        -287.474          12.000                                                                                                                                  
C22  25932946.421      -14766.356       -4508.033          14.000                                                                                                                                  
C26  25171090.519        1069.949         145.192          16.000                                                                                                                                  
C29  22303236.437       -6884.668        -384.759          17.000                                                                                                                                  
C30  25946135.660        3654.917        1108.489          17.000                                                                                                                                  
C35  22642761.214      -97713.995       -2531.082          18.000                                                                                                                                  
> 2021  5 17  8 41 58.0000000  0 18                     
G 2  21836485.102     -355816.047       -2043.656          19.000                                                                  
G 6  20702057.897     -106580.906        -575.000          20.000                                                                  
G12  22397787.774      -22043.643       -3135.071          19.000                                                                  
G17  21809595.601       60045.110         404.191          17.000                                                                  
G19  20438129.536      -73431.668        -366.464          22.000                                                                  
G28  22905899.170      359138.970        2110.457          25.000                                                                  
R 8  23071208.727     -943181.107       -5489.464          17.000  
E11  26127301.927     -382570.288       -2572.911          10.000                                                                  
E12  23791293.406     -161938.106       -1058.913          18.000                                                                  
E19  25718092.848     -308239.801       -2945.430          10.000                                                                  
E24  24594154.380       -9244.111          -1.424          21.000                                                                  
E25  26780231.935     -368149.224       -2632.104           9.000                                                                  
C13  36523104.747      -22758.874        -972.429          17.000                                                                                                                                  
C19  22652755.329      -82130.886       -3191.431          17.000                                                                                                                                  
C20  23019912.341       -2716.435        -282.829          14.000                                                                                                                                  
C26  25171121.611        1214.504         142.332          18.000                                                                                                                                  
C29  22303164.123       -7268.605        -381.996          19.000                                                                                                                                  
C35  22642275.769     -100244.602       -2528.173          18.000                                                                                                                                  
> 2021  5 17  8 41 59.0000000  0 19                     
G 2  21836100.041     -357859.925       -2045.118          18.000                                                                  
G 6  20701947.865     -107155.905        -575.246          22.000                                                                  
G12  22397196.162      -25176.629       -3131.345          19.000                                                                  
G17  21809671.680       60449.256         404.028          17.000                                                                  
G19  20438058.501      -73798.983        -367.572          20.000                                                                  
G28  22906298.533      361250.973        2113.023          24.000                                                                  
R 8  23070190.480     -948671.915       -5493.569          14.000  
E11  26126812.180     -385143.298       -2573.259          12.000                                                                  
E12  23791092.594     -162996.206       -1058.711          18.000                                                                  
