     3.04           OBSERVATION DATA    M: Mixed            RINEX VERSION / TYPE
Higeo_Hi1105        Huawei CBG          20210720 020356 UTC PGM / RUN BY / DATE 
************************************************************COMMENT             
* If you have any problem,                                 *COMMENT             
*     please contact with LBS Technology Group, thanks.    *COMMENT             
*                                                          *COMMENT             
* Version Higeo2RinexV1.1 2020.07.21                       *COMMENT             
* Fuction:  Convert Higeo Log to Rinex file                *COMMENT             
*                                                          *COMMENT             
* Note that the verision support B1C B2A signal            *COMMENT             
*     BDS: C1D L1D D1D S1D indicate BDS B1C                *COMMENT             
*     BDS: C5D L5D D5D S5D indicate BDS B2A                *COMMENT             
*     Reference: RINEX V3.04                               *COMMENT             
*                                                          *COMMENT             
* Copyright(C) Huawei Technologies Co., Ltd. 2019 - 2020   *COMMENT             
*     All rights reserved.                                 *COMMENT             
************************************************************COMMENT             
                                                            MARKER NAME         
                                                            MARKER NUMBER       
                                                            MARKER TYPE         
                                                            OBSERVER / AGENCY   
                                                            REC # / TYPE / VERS 
                                                            ANT # / TYPE        
        0.0000        0.0000        0.0000                  APPROX POSITION XYZ 
        0.0000        0.0000        0.0000                  ANTENNA: DELTA H/E/N
G    8 C1C L1C D1C S1C C5I L5I D5I S5I                      SYS / # / OBS TYPES 
R    4 C1C L1C D1C S1C                                      SYS / # / OBS TYPES 
E    8 C1C L1C D1C S1C C5I L5I D5I S5I                      SYS / # / OBS TYPES 
J    8 C1C L1C D1C S1C C5I L5I D5I S5I                      SYS / # / OBS TYPES 
C   12 C2I L2I D2I S2I C1D L1D D1D S1D C5D L5D D5D S5D      SYS / # / OBS TYPES 
  2021     5    17     8    40   28.0000000     GPS         TIME OF FIRST OBS   
  2021     5    17     8    55   13.0000000     GPS         TIME OF LAST OBS    
G                                                           SYS / PHASE SHIFT   
R                                                           SYS / PHASE SHIFT   
E                                                           SYS / PHASE SHIFT   
J                                                           SYS / PHASE SHIFT   
C                                                           SYS / PHASE SHIFT   
  0                                                         GLONASS SLOT / FRQ #
 C1C    0.000 C1P    0.000 C2C    0.000 C2P    0.000        GLONASS COD/PHS/BIS 
                                                            END OF HEADER       
> 2021  5 17  8 40 28.0000000  0 11                     
G 2  21999738.467       -6217.272       -1654.938          13.000                                                                  
G 6  20840395.077       -1750.698        -192.747          23.000                                                                  
G 9  23725012.014      -20112.734       -2293.338          25.000                                                                  
G12  22579901.055      -24459.347       -2788.736          13.000                                                                  
G14  24615267.957       11780.129        3080.491          16.000                                                                  
G17  21931330.562        8261.209         777.706          28.000                                                                  
G28  22998419.031       26318.022        2493.370          26.000                                                                  
R 7  20665317.990      -32713.568       -3185.492          30.000  
R 8  23273639.063      -40045.360       -5089.785          20.000  
R22  20488353.657       -9580.087       -1136.370          20.000  
J 3  39026009.381      -11976.521       -1407.850          25.000                                                                  
> 2021  5 17  8 40 29.0000000  0 10                     
G 6  20840360.138       -1942.118        -191.388          26.000                                                                  
G 9  23724576.762      -22405.568       -2291.613          24.000                                                                  
G12  22579370.484      -27247.716       -2787.748          16.000                                                                  
G14  24615850.533       14856.819        3073.699          16.000                                                                  
G17  21931479.390        9038.747         777.496          28.000                                                                  
G28  22998893.044       28813.375        2496.366          24.000                                                                  
R 7  20664720.613      -35900.737       -3187.619          29.000  
R 8  23272688.165      -45137.392       -5084.199          20.000  
R22  20488123.606      -10810.291       -1130.703          18.000  
J 3  39025740.668      -13383.320       -1407.275          25.000                                                                  
> 2021  5 17  8 40 30.0000000  0 11                     
G 6  20840322.255       -2132.324        -191.425          23.000                                                                  
G 9  23724139.686      -24697.601       -2293.909          19.000                                                                  
G12  22578840.218      -30034.465       -2783.026          14.000                                                                  
G14  24616435.429       17930.349        3074.227          14.000                                                                  
G17  21931628.208        9816.574         777.151          28.000                                                                  
G28  22999369.863       31309.724        2496.208          24.000                                                                  
R 7  20664123.924      -39086.699       -3186.004          28.000  
R 8  23271737.696      -50219.946       -5080.814          18.000  
R21  21591513.589        2026.835         803.047          17.000  
R22  20487892.596      -12042.837       -1138.086          20.000  
J 3  39025473.989      -14791.770       -1409.625          27.000                                                                  
> 2021  5 17  8 40 31.0000000  0 11                     
G 6  20840285.542       -2322.078        -188.004          20.000                                                                  
G 9  23723702.955      -26992.662       -2295.117          20.000                                                                  
G12  22578310.593      -32817.729       -2780.625          15.000                                                                  
G14  24617018.989       21004.484        3072.336          16.000                                                                  
G17  21931776.522       10594.806         777.018          25.000                                                                  
G28  22999845.852       33805.901        2495.340          25.000                                                                  
R 7  20663526.830      -42272.272       -3185.250          30.000  
R 8  23270788.557      -55300.512       -5069.378          20.000  
R21  21591663.657        2829.492         810.910          17.000  
R22  20487661.119      -13278.899       -1137.414          19.000  
J 3  39025206.244      -16201.251       -1408.903          26.000                                                                  
> 2021  5 17  8 40 33.0000000  0 12                     
G 2  21998311.488      -13739.457       -1655.255          17.000                                                                  
G 6  20840228.045       -2616.833        -189.020          26.000                                                                  
G 9  23723024.592      -30557.899       -2293.995          22.000                                                                  
G12  22577489.312      -37133.685       -2780.715          15.000                                                                  
G14  24617923.397       25783.996        3078.191          17.000                                                                  
G17  21932006.215       11803.169         778.190          24.000                                                                  
G28  23000583.693       37684.365        2496.487          22.000                                                                  
R 7  20662601.295      -47222.590       -3184.509          29.000  
R 8  23269318.760      -63178.074       -5074.597          23.000  
R21  21591892.534        4081.379         803.501          20.000  
R22  20487301.360      -15197.960       -1134.558          17.000  
J 3  39024789.547      -18391.455       -1410.136          25.000                                                                  
> 2021  5 17  8 40 34.0000000  0 13                     
G 2  21998004.980      -15392.382       -1650.695          18.000                                                                  
G 6  20840193.521       -2805.297        -188.402          23.000                                                                  
G 9  23722588.376      -32850.591       -2292.451          22.000                                                                  
G12  22576959.954      -39915.571       -2784.468          15.000                                                                  
G14  24618509.473       28863.781        3076.175          17.000                                                                  
G17  21932154.354       12581.905         779.119          22.000                                                                  
G28  23001058.116       40181.141        2497.467          20.000                                                                  
R 7  20662006.984      -50407.324       -3185.063          28.000  
R 8  23268368.002      -68254.541       -5079.734          20.000  
R21  21592041.838        4892.860         808.618          19.000  
R22  20487069.892      -16434.261       -1131.057          16.000  
E33  25785979.424         938.426         810.086          15.000                                                                  
J 3  39024520.219      -19801.779       -1408.850          23.000                                                                  
> 2021  5 17  8 40 35.0000000  0 12                     
G 2  21997692.027      -17040.727       -1646.752          19.000                                                                  
G 6  20840156.646       -2995.195        -190.742          21.000                                                                  
G 9  23722153.534      -35143.073       -2292.268          23.000                                                                  
G14  24619088.291       31939.377        3075.089          18.000                                                                  
G17  21932301.983       13358.588         774.773          25.000                                                                  
G28  23001533.757       42677.927        2497.128          18.000                                                                  
R 7  20661412.302      -53590.349       -3184.342          26.000  
R 8  23267416.878      -73347.951       -5095.200          20.000  
R21  21592137.456        5703.969         814.274          21.000  
R22  20486838.420      -17670.399       -1126.701          18.000  
E11  26296869.460       -2301.997       -2178.338          16.000                                                                  
J 3  39024249.805      -21210.187       -1407.051          23.000                                                                  
> 2021  5 17  8 40 36.0000000  0 12                     
G 2  21997379.237      -18684.734       -1641.406          16.000                                                                  
G 6  20840120.769       -3184.796        -189.000          20.000                                                                  
G 9  23721717.418      -37434.267       -2290.137          23.000                                                                  
G14  24619673.565       35014.916        3076.256          16.000                                                                  
G17  21932449.717       14134.677         777.809          25.000                                                                  
G28  23002008.791       45174.133        2495.484          17.000                                                                  
R 7  20660818.615      -56774.701       -3185.561          24.000  
R 8  23266468.040      -78433.740       -5082.798          17.000  
R21  21592286.892        6503.470         795.362          17.000  
R22  20486607.091      -18905.923       -1149.953          17.000  
E24  24723398.008         800.936         363.867          17.000                                                                  
J 3  39023981.040      -22616.820       -1406.386          20.000                                                                  
> 2021  5 17  8 40 37.0000000  0 11                     
G 2  21997066.516      -20328.405       -1646.182          15.000                                                                  
G 6  20840084.504       -3375.712        -190.064          17.000                                                                  
G 9  23721282.371      -39724.364       -2290.015          19.000                                                                  
G14  24620258.178       38092.111        3077.191          15.000                                                                  
G17  21932599.304       14915.294         781.217          22.000                                                                  
G28  23002489.300       47670.710        2497.733          15.000                                                                  
R 7  20660221.608      -59959.395       -3184.684          23.000  
R 8  23265517.865      -83522.056       -5095.956          18.000  
R21  21592435.795        7300.193         810.798          16.000  
E24  24723473.785        1165.748         366.429          15.000                                                                  
J 3  39023713.723      -24023.555       -1406.085          19.000                                                                  
> 2021  5 17  8 40 38.0000000  0 12                     
G 2  21996753.005      -21976.432       -1648.954          17.000                                                                  
G 6  20840048.458       -3565.169        -189.287          17.000                                                                  
G 9  23720846.543      -42014.763       -2288.835          17.000                                                                  
G14  24620843.386       41167.298        3077.744          16.000                                                                  
G17  21932748.484       15698.909         785.591          17.000                                                                  
G28  23002969.901       50168.482        2498.250          20.000                                                                  
R 7  20659625.919      -63143.347       -3183.298          25.000  
R 8  23264568.407      -88606.594       -5074.199          24.000  
R21  21592578.668        8111.252         801.465          20.000  
E24  24723543.092        1529.365         363.096          20.000                                                                  
E33  25786595.875        4176.471         806.340          16.000                                                                  
J 3  39023447.161      -25429.747       -1406.857          20.000                                                                  
> 2021  5 17  8 40 39.0000000  0 13                     
G 2  21996440.759      -23626.482       -1650.347          17.000                                                                  
G 6  20840010.780       -3753.290        -189.032          29.000                                                                  
G 9  23720411.470      -44301.148       -2285.663          17.000                                                                  
G14  24621431.452       44246.747        3080.592          13.000                                                                  
G17  21932897.906       16483.878         784.761          19.000                                                                  
G28  23003441.977       52667.467        2499.455          20.000                                                                  
R 7  20659031.041      -66325.406       -3182.760          27.000  
R 8  23263618.949      -93682.787       -5072.471          20.000  
R21  21592740.825        8916.982         804.485          20.000  
E11  26295227.449      -11011.499       -2176.885          20.000                                                                  
E24  24723615.214         184.585         367.240          29.000                                                                  
E33  25786749.332        4982.790         807.707          18.000                                                                  
J 3  39023179.390      -26837.132       -1406.808          23.000                                                                  
> 2021  5 17  8 40 40.0000000  0 13                     
G 2  21996127.092      -25275.140       -1649.070          18.000                                                                  
G 6  20839971.523       -3942.358        -190.643          20.000                                                                  
G 9  23719990.252      -46588.842       -2289.572          19.000                                                                  
G14  24622015.478       47315.320        3063.542          13.000                                                                  
G17  21933068.992       17267.530         783.432          25.000                                                                  
G28  23003910.777       55165.546        2498.395          25.000                                                                  
R 7  20658436.827      -69507.105       -3180.286          23.000  
R 8  23262671.839      -98755.188       -5072.688          20.000  
R21  21592890.787        9723.264         806.285          18.000  
E11  26294818.464      -13187.870       -2176.679          23.000                                                                  
E24  24723686.363         551.626         367.242          29.000                                                                  
E33  25786899.700        5793.690         811.242          19.000                                                                  
J 3  39022913.051      -28244.731       -1408.214          20.000                                                                  
> 2021  5 17  8 40 41.0000000  0 14                     
G 2  21995778.000      -26924.957       -1652.013          20.000                                                                  
G 6  20839933.443       -4131.962        -188.113          22.000                                                                  
G 9  23719555.864      -48879.229       -2291.172          19.000                                                                  
G14  24622598.394       50378.832        3065.717          16.000                                                                  
G17  21933198.447       18048.964         780.036          28.000                                                                  
G28  23004389.116       57662.951        2497.350          24.000                                                                  
R 7  20657843.428      -72688.939       -3182.437          24.000  
R 8  23261724.288     -103829.693       -5071.802          20.000  
R21  21593042.491       10534.329         804.926          18.000  
R22  20485444.413      -25120.678       -1131.169          17.000  
E11  26294405.901      -15364.935       -2176.698          23.000                                                                  
E24  24723756.661         919.172         367.848          30.000                                                                  
E33  25787049.105        6603.422         808.169          17.000                                                                  
J 3  39022645.154      -29653.121       -1408.452          19.000                                                                  
> 2021  5 17  8 40 42.0000000  0 13                     
G 2  21995463.578      -28577.781       -1653.954          17.000                                                                  
G 6  20839897.379       -4319.374        -187.414          21.000                                                                  
G 9  23719112.611      -51169.827       -2285.801          20.000                                                                  
G14  24623174.431       53448.176        3071.575          15.000                                                                  
G17  21933346.019       18831.671         783.837          25.000                                                                  
G28  23004862.802       60161.206        2498.950          22.000                                                                  
R 7  20657249.366      -75866.697       -3175.393          28.000  
R 8  23260788.542     -108908.812       -5075.177          23.000  
R21  21593201.991       11345.244         815.510          20.000  
R22  20485212.997      -26356.934       -1127.286          17.000  
E24  24723827.099        1289.180         370.687          25.000                                                                  
E33  25787198.060        7411.534         806.266          17.000                                                                  
J 3  39022377.514      -31060.610       -1408.943          22.000                                                                  
> 2021  5 17  8 40 43.0000000  0 13                     
G 2  21995165.785      -30228.187       -1650.157          17.000                                                                  
G 6  20839862.384       -4506.513        -186.075          19.000                                                                  
G 9  23718671.548      -53457.377       -2287.190          23.000                                                                  
G14  24623759.085       56520.399        3073.064          15.000                                                                  
G17  21933492.937       19614.968         783.049          25.000                                                                  
G28  23005335.127       62661.200        2500.080          23.000                                                                  
R 7  20656658.362      -79043.802       -3177.611          29.000  
R 8  23259838.495     -113986.110       -5078.457          24.000  
R21  21593356.787       12164.182         817.890          20.000  
R22  20484985.360      -27573.033       -1110.706          15.000  
E24  24723896.547        1659.167         369.678          23.000                                                                  
E33  25787352.141        8219.910         809.842          15.000                                                                  
J 3  39022109.325      -32468.626       -1408.007          24.000                                                                  
> 2021  5 17  8 40 44.0000000  0 14                     
G 2  21994860.389      -31877.935       -1649.386          21.000                                                                  
G 6  20839826.874       -4693.666        -186.705          19.000                                                                  
G 9  23718238.071      -55744.554       -2287.431          23.000                                                                  
G14  24624344.176       59594.798        3075.773          14.000                                                                  
G17  21933641.124       20397.925         782.719          26.000                                                                  
G28  23005809.934       65161.444        2500.551          27.000                                                                  
R 7  20656064.933      -82220.127       -3175.416          30.000  
R 8  23258888.680     -119065.103       -5078.586          27.000  
R21  21593512.168       12967.449         797.369          18.000  
R22  20484758.708      -28783.626       -1112.546          15.000  
E24  24723967.455        2029.230         370.554          26.000                                                                  
E33  25787506.261        9029.518         806.695          13.000                                                                  
J 1  38422140.384      -11333.388        -590.526          27.000                                                                  
J 3  39021840.442      -33876.459       -1407.916          22.000                                                                  
> 2021  5 17  8 40 45.0000000  0 13                     
G 2  21994547.415      -33527.526       -1649.411          23.000                                                                  
G 6  20839790.823       -4880.285        -186.673          22.000                                                                  
G 9  23717803.077      -58032.232       -2287.170          19.000                                                                  
G14  24624945.170       62672.408          -0.009          12.000                                                                  
G17  21933790.356       21182.373         786.525          19.000                                                                  
G28  23006286.443       67662.012        2500.869          27.000                                                                  
R 7  20655470.792      -85398.033       -3178.959          20.000  
R 8  23257939.937     -124141.854       -5076.428          26.000  
R21  21593657.062       13759.666         795.016          16.000  
R22  20484529.098      -30009.904       -1134.722          18.000  
E24  24724037.382        2398.598         369.487          29.000                                                                  
J 1  38422028.323      -11922.234        -590.205          20.000                                                                  
J 3  39021572.489      -35284.298       -1406.675          20.000                                                                  
> 2021  5 17  8 40 46.0000000  0 14                     
G 2  21994233.399      -35176.645       -1649.195          19.000                                                                  
G 6  20839756.330       -5068.216        -187.946          20.000                                                                  
G 9  23717369.317      -60318.383       -2287.364          16.000                                                                  
G14  24625530.750       65749.446          -0.009          13.000                                                                  
G17  21933940.140       21965.112         782.589          19.000                                                                  
G19  20573063.017          76.967          10.291          22.000                                                                  
G28  23006762.420       70163.011        2500.999          19.000                                                                  
R 7  20654878.091      -88576.101       -3177.722          20.000  
R 8  23256989.132     -129218.960       -5077.934          29.000  
R21  21593807.505       14564.512         798.758          18.000  
R22  20484295.749      -31256.494       -1156.842          17.000  
E24  24724108.025        2768.495         370.495          28.000                                                                  
J 1  38421916.136      -12511.931        -592.425          15.000                                                                  
J 3  39021305.161      -36692.067       -1407.738          20.000                                                                  
> 2021  5 17  8 40 47.0000000  0 12                     
G 2  21993918.959      -36826.452       -1651.967          19.000                                                                  
G 6  20839720.558       -5256.437        -188.227          16.000                                                                  
G 9  23716934.196      -62605.056       -2286.417          16.000                                                                  
G17  21934089.924       22748.317         784.563          18.000                                                                  
G19  20573061.006          86.480          10.094          18.000                                                                  
G28  23007238.353       72664.128          -0.011          16.000                                                                  
R 7  20654284.671      -91753.065       -3175.483          18.000  
R 8  23256040.163     -134298.041       -5079.759          20.000  
R21  21593957.668       15359.202         791.705          18.000  
R22  20484058.889      -32521.129       -1170.813          16.000  
E24  24724178.611        3139.650         371.807          22.000                                                                  
J 3  39021037.299      -38100.094       -1407.521          17.000                                                                  
> 2021  5 17  8 40 48.0000000  0 12                     
G 2  21993608.397      -38477.354       -1650.730          19.000                                                                  
G 6  20839684.716       -5445.192        -188.545          22.000                                                                  
G 9  23716488.029      -64889.428          -0.004          17.000                                                                  
G17  21934238.975       23530.729         781.486          19.000                                                                  
G19  20573070.151          97.237          10.845          19.000                                                                  
G28  23007713.173       75164.311        2500.011          26.000                                                                  
R 7  20653693.362      -94927.841       -3173.381          23.000  
R 8  23255090.653     -139376.245       -5075.882          23.000  
R21  21594106.567       16156.224         794.988          17.000  
R22  20483820.772      -33792.215       -1163.655          16.000  
E24  24724249.058        3511.032         372.518          27.000                                                                  
J 3  39020769.311      -39508.570       -1409.503          18.000                                                                  
> 2021  5 17  8 40 49.0000000  0 13                     
G 2  21993296.099      -40125.400       -1645.643          18.000                                                                  
G 6  20839668.734       -5633.538        -186.776          19.000                                                                  
G 9  23716062.990      -67172.581       -2284.040          18.000                                                                  
G17  21934387.586       24311.413         783.006          16.000                                                                  
G19  20573071.177         107.517           8.777          26.000                                                                  
G28  23008195.983       77663.834        2498.553          25.000                                                                  
R 7  20653098.859      -98102.011       -3175.269          23.000  
R 8  23254145.178     -144455.823       -5083.876          19.000  
R21  21594256.386       16957.785         814.196          18.000  
E11  26291093.450      -32745.208       -2172.793          18.000                                                                  
E24  24724319.836        3882.274         370.679          32.000                                                                  
J 3  39020492.915      -40917.186       -1408.961          16.000                                                                  
C13  36665917.620        -646.210        -570.168          22.000                                                                                                                                  
> 2021  5 17  8 40 50.0000000  0 17                     
G 2  21992982.135      -41770.467       -1645.401          18.000                                                                  
G 6  20839618.810       -5820.568        -187.857          20.000                                                                  
G 9  23715628.554      -69455.536       -2282.955          17.000                                                                  
G14  24627872.092       78052.287          -0.009          17.000                                                                  
G17  21934536.803       25095.369         785.919          17.000                                                                  
G19  20573067.696         117.652          11.648          25.000                                                                  
G28  23008668.260       80163.391        2500.713          23.000                                                                  
R 7  20652505.909     -101275.954       -3174.831          21.000  
R 8  23253196.035     -149538.760       -5081.821          17.000  
R21  21594408.490       17770.931         805.960          21.000  
E11  26290679.330      -34919.427       -2178.573          20.000                                                                  
E12  23935025.917        -915.992        -659.208          20.000                                                                  
E24  24724390.247        4253.399         371.353          32.000                                                                  
J 1  38421464.253      -14868.999        -587.229          19.000                                                                  
J 3  39020235.798      -42327.521       -1409.092          24.000                                                                  
C13  36665798.447       -1217.410        -569.530          24.000                                                                                                                                  
C35  22805384.977       -1417.624       -2137.277          26.000                                                                                                                                  
> 2021  5 17  8 40 51.0000000  0 20                     
G 2  21992667.242      -43416.814       -1647.152          23.000                                                                  
G 6  20839565.230       -6009.001        -187.136          24.000                                                                  
G 9  23715194.392      -71737.316       -2281.994          15.000                                                                  
G14  24628457.636       81129.203          -0.009          16.000                                                                  
G17  21934684.069       25880.122         783.260          17.000                                                                  
G19  20573070.755         127.100           8.271          29.000                                                                  
G28  23009144.568       82663.606        2500.518          23.000                                                                  
R 7  20651911.459     -104449.422       -3173.283          23.000  
R 8  23252249.548     -154620.066       -5081.723          17.000  
R21  21594560.404       18577.969         810.763          22.000  
E11  26290268.203      -37098.019       -2179.020          20.000                                                                  
E12  23934895.621       -1575.352        -659.103          23.000                                                                  
E24  24724460.558        4625.449         371.770          33.000                                                                  
J 1  38421349.331      -15457.819        -589.474          20.000                                                                  
J 3  39019955.459      -43737.398       -1408.710          20.000                                                                  
C 2  37681992.922       -1300.003        -732.894          25.000                                                                                                                                  
C13  36665688.480       -1788.940        -572.462          24.000                                                                                                                                  
C20  23153800.229         118.065          83.429          25.000                                                                                                                                  
C29  22438261.172           4.399           4.237          19.000                                                                                                                                  
C35  22804968.798       -3554.820       -2137.324          24.000                                                                                                                                  
> 2021  5 17  8 40 52.0000000  0 19                     
G 2  21992352.909      -45064.945       -1650.432          22.000                                                                  
G 6  20839535.418       -6196.919        -187.670          24.000                                                                  
G 9  23714773.755      -74018.815          -0.004          16.000                                                                  
G14  24629037.547       84203.677        3073.055          14.000                                                                  
G17  21934848.398       26662.226         782.680          20.000                                                                  
G19  20573073.552         135.690          10.303          30.000                                                                  
G28  23009621.260       85163.931        2498.231          19.000                                                                  
R 7  20651318.370     -107622.987       -3173.195          20.000  
R 8  23251300.566     -159702.322       -5081.602          15.000  
R21  21594711.850       19390.505         811.626          22.000  
E11  26289855.894      -39276.644       -2177.852          20.000                                                                  
E12  23934773.700       -2235.273        -659.433          25.000                                                                  
E24  24724531.768        4997.157         372.115          32.000                                                                  
J 1  38421237.680      -16045.784        -588.645          19.000                                                                  
J 3  39019697.784      -45147.688       -1411.224          22.000                                                                  
C13  36665578.600       -2360.426        -568.266          24.000                                                                                                                                  
C20  23153816.628         202.901          84.822          27.000                                                                                                                                  
C29  22438262.010           8.301           3.989          24.000                                                                                                                                  
C35  22804557.797       -5691.196       -2137.312          23.000                                                                                                                                  
> 2021  5 17  8 40 53.0000000  0 21                     
G 2  21992038.696      -46715.701       -1650.408          20.000                                                                  
G 6  20839504.755       -6383.761        -186.156          24.000                                                                  
G 9  23714339.781      -76299.450          -0.004          14.000                                                                  
G14  24629622.112       87275.402        3070.963          15.000                                                                  
G17  21934992.452       27445.689         781.706          18.000                                                                  
G19  20573071.973         145.661          10.280          30.000                                                                  
G28  23010097.110       87662.626        2498.067          19.000                                                                  
R 7  20650724.870     -110796.956       -3173.262          20.000  
R 8  23250351.510     -164784.655       -5081.425          16.000  
R21  21594864.975       20200.647         802.598          24.000  
E11  26289443.266      -41453.273       -2174.822          19.000                                                                  
E12  23934648.700       -2894.532        -659.541          24.000                                                                  
E24  24724602.795        5369.419         372.387          31.000                                                                  
E33  25788892.711       16307.630         811.279          19.000                                                                  
J 1  38421125.545      -16634.237        -587.421          20.000                                                                  
J 3  39019424.988      -46558.008       -1410.851          22.000                                                                  
C 5  39227703.263       -2470.920        -729.047          25.000                                                                                                                                  
C13  36665468.314       -2930.580        -570.791          25.000                                                                                                                                  
C20  23153832.425         288.396          87.176          25.000                                                                                                                                  
C29  22438263.353          11.985           3.495          25.000                                                                                                                                  
C35  22804147.467       -7828.269       -2137.009          23.000                                                                                                                                  
> 2021  5 17  8 40 54.0000000  0 24                     
G 2  21991723.336      -48366.182       -1650.540          20.000                                                                  
G 6  20839471.160       -6571.292        -185.701          25.000                                                                  
G 9  23713914.397      -78579.576          -0.004          17.000                                                                  
G14  24630206.583       90346.729        3071.941          17.000                                                                  
G17  21935141.573       28228.850         781.731          18.000                                                                  
G19  20573072.842         155.660          10.643          31.000                                                                  
G28  23010572.847       90160.601        2499.064          20.000                                                                  
R 7  20650131.197     -113968.097       -3167.023          19.000  
R 8  23249403.387     -169864.479       -5078.370          18.000  
R21  21595015.165       21004.791         816.765          25.000  
R22  20482424.572      -41244.058       -1098.568          16.000  
E11  26289029.312      -43627.444       -2174.718          16.000                                                                  
E12  23934523.278       -3553.798        -659.058          25.000                                                                  
E24  24724673.952        5742.054         373.271          31.000                                                                  
E33  25789047.351       17118.592         810.420          23.000                                                                  
J 1  38421022.200      -17222.149        -587.711          20.000                                                                  
J 3  39019156.942      -47967.545       -1408.809          27.000                                                                  
C 5  39227563.416       -3188.235        -709.304          26.000                                                                                                                                  
C10  36352565.385         305.775         206.164          20.000                                                                                                                                  
C13  36665358.303       -3502.438        -572.466          24.000                                                                                                                                  
C20  23153849.517         376.219          89.053          28.000                                                                                                                                  
C29  22438263.602          15.624           4.863          23.000                                                                                                                                  
C30  26063087.811        2152.797        1501.397          17.000                                                                                                                                  
C35  22803737.090       -9966.033       -2138.318          24.000                                                                                                                                  
> 2021  5 17  8 40 55.0000000  0 24                     
G 2  21991409.236      -50014.711       -1648.276          21.000                                                                  
G 6  20839436.972       -6754.546        -182.602          21.000                                                                  
G 9  23713474.808      -80860.056       -2281.790          19.000                                                                  
G14  24630791.133       93418.515        3070.601          17.000                                                                  
G17  21935291.117       29011.855         783.679          17.000                                                                  
G19  20573074.549         162.076           5.634          18.000                                                                  
G28  23011048.548       92661.859        2503.401          21.000                                                                  
R 7  20649539.299     -117134.400       -3165.599          19.000  
R 8  23248456.150     -174943.068       -5080.341          19.000  
R21  21595166.293       21818.215         826.462          17.000  
R22  20482198.050      -42453.905       -1121.705          16.000  
E11  26288615.205      -45803.743       -2180.069          18.000                                                                  
E12  23934398.225       -4211.754        -657.102          17.000                                                                  
E24  24724744.184        6116.635         375.232          29.000                                                                  
J 1  38420911.544      -17811.037        -590.381          19.000                                                                  
J 3  39018888.509      -49375.841       -1406.422          19.000                                                                  
C 8  36454538.330        -798.485        -319.645          16.000                                                                                                                                  
C10  36352611.386         509.156         203.531          21.000                                                                                                                                  
C13  36665248.671       -4074.269        -570.607          22.000                                                                                                                                  
C19  22821888.634       -8859.039       -2815.649          26.000                                                                                                                                  
C20  23153866.666         464.073          87.240          18.000                                                                                                                                  
C29  22438263.829          19.739           4.394          19.000                                                                                                                                  
C30  26063378.547        3654.629        1504.666          16.000                                                                                                                                  
C35  22803326.756      -12104.270       -2138.736          17.000                                                                                                                                  
> 2021  5 17  8 40 56.0000000  0 26                     
G 2  21991094.783      -51662.043       -1647.460          21.000                                                                  
G 6  20839401.427       -6939.170        -184.782          27.000                                                                  
G 9  23713040.512      -83142.554       -2283.889          16.000                                                                  
G14  24631375.299       96487.853        3068.536          15.000                                                                  
G17  21935446.570       29795.001         783.355          22.000                                                                  
G19  20573073.323         171.943           9.882          25.000                                                                  
G28  23011524.760       95164.773        2502.191          21.000                                                                  
R 7  20648949.870     -120302.235       -3169.569          26.000  
R 8  23247519.699     -180023.872       -5080.404          22.000  
R21  21595321.273       22647.014         812.465          20.000  
R22  20481970.356      -43669.968       -1128.631          20.000  
E11  26288200.224      -47983.446       -2177.604          18.000                                                                  
E12  23934273.238       -4867.063        -656.747          20.000                                                                  
E24  24724814.718        6490.421         373.585          22.000                                                                  
J 1  38420792.917      -18399.825        -589.995          25.000                                                                  
J 3  39018622.139      -50784.384       -1410.388          19.000                                                                  
C 7  37468630.047        2045.978         588.272          19.000                                                                                                                                  
C 8  36454478.079       -1117.522        -315.732          17.000                                                                                                                                  
C10  36352650.384         713.085         203.101          18.000                                                                                                                                  
C13  36665139.450       -4642.805        -567.739          18.000                                                                                                                                  
C19  22821356.630      -11674.830       -2815.809          22.000                                                                                                                                  
C20  23153884.117         551.152          87.708          20.000                                                                                                                                  
C22  26116245.945      -14956.494       -4109.045          22.000                                                                                                                                  
C29  22438265.294          25.135           4.531          20.000                                                                                                                                  
C30  26063659.936        5156.974        1499.031          15.000                                                                                                                                  
C35  22802916.305      -14241.889       -2136.467          17.000                                                                                                                                  
> 2021  5 17  8 40 57.0000000  0 26                     
G 2  21990781.342      -53309.326       -1647.802          19.000                                                                  
G 6  20839367.644       -7123.487        -183.417          25.000                                                                  
G 9  23712606.499      -85423.404       -2280.960          17.000                                                                  
G14  24631961.613       99557.498          -0.009          15.000                                                                  
G17  21935582.508       30578.768         783.978          24.000                                                                  
G19  20573076.413         183.646          11.037          25.000                                                                  
G28  23012001.169       97668.790        2504.448          20.000                                                                  
R 7  20648358.325     -123471.510       -3169.027          27.000  
R 8  23246565.478     -185104.885       -5080.035          23.000  
R21  21595473.138       23456.776         811.935          18.000  
R22  20481742.840      -44891.909       -1117.179          19.000  
E11  26287786.113      -50160.181       -2176.142          18.000                                                                  
E12  23934147.675       -5525.714        -657.880          19.000                                                                  
E24  24724886.238        6864.047         373.868          19.000                                                                  
E33  25789508.172       19558.371         813.409          18.000                                                                  
J 1  38420679.181      -18988.555        -588.326          25.000                                                                  
J 3  39018354.691      -52194.862       -1409.262          19.000                                                                  
C 8  36454417.919       -1430.942        -313.638          17.000                                                                                                                                  
C10  36352688.431         917.979         204.849          18.000                                                                                                                                  
C13  36665030.062       -5212.786        -571.721          18.000                                                                                                                                  
C19  22820818.596      -14490.273       -2814.659          22.000                                                                                                                                  
C20  23153901.122         639.537          90.468          19.000                                                                                                                                  
C22  26115461.178      -19066.832       -4111.348          24.000                                                                                                                                  
C29  22438266.105          27.900          -0.023          19.000                                                                                                                                  
C30  26063945.888        6660.842        1510.353          14.000                                                                                                                                  
C35  22802504.375      -16378.314       -2137.081          17.000                                                                                                                                  
> 2021  5 17  8 40 58.0000000  0 26                     
G 2  21990466.702      -54956.801       -1647.586          24.000                                                                  
G 6  20839332.047       -7310.230        -186.386          25.000                                                                  
G 9  23712161.339      -87703.451       -2278.767          14.000                                                                  
