     3.04           OBSERVATION DATA    M: Mixed            RINEX VERSION / TYPE
Higeo_Hi1105        Huawei CBG          20210720 020247 UTC PGM / RUN BY / DATE 
************************************************************COMMENT             
* If you have any problem,                                 *COMMENT             
*     please contact with LBS Technology Group, thanks.    *COMMENT             
*                                                          *COMMENT             
* Version Higeo2RinexV1.1 2020.07.21                       *COMMENT             
* Fuction:  Convert Higeo Log to Rinex file                *COMMENT             
*                                                          *COMMENT             
* Note that the verision support B1C B2A signal            *COMMENT             
*     BDS: C1D L1D D1D S1D indicate BDS B1C                *COMMENT             
*     BDS: C5D L5D D5D S5D indicate BDS B2A                *COMMENT             
*     Reference: RINEX V3.04                               *COMMENT             
*                                                          *COMMENT             
* Copyright(C) Huawei Technologies Co., Ltd. 2019 - 2020   *COMMENT             
*     All rights reserved.                                 *COMMENT             
************************************************************COMMENT             
                                                            MARKER NAME         
                                                            MARKER NUMBER       
                                                            MARKER TYPE         
                                                            OBSERVER / AGENCY   
                                                            REC # / TYPE / VERS 
                                                            ANT # / TYPE        
        0.0000        0.0000        0.0000                  APPROX POSITION XYZ 
        0.0000        0.0000        0.0000                  ANTENNA: DELTA H/E/N
G    8 C1C L1C D1C S1C C5I L5I D5I S5I                      SYS / # / OBS TYPES 
R    4 C1C L1C D1C S1C                                      SYS / # / OBS TYPES 
E    8 C1C L1C D1C S1C C5I L5I D5I S5I                      SYS / # / OBS TYPES 
J    8 C1C L1C D1C S1C C5I L5I D5I S5I                      SYS / # / OBS TYPES 
C   12 C2I L2I D2I S2I C1D L1D D1D S1D C5D L5D D5D S5D      SYS / # / OBS TYPES 
  2021     5    17     8    39   26.0000000     GPS         TIME OF FIRST OBS   
  2021     5    17     8    55    8.0000000     GPS         TIME OF LAST OBS    
G                                                           SYS / PHASE SHIFT   
R                                                           SYS / PHASE SHIFT   
E                                                           SYS / PHASE SHIFT   
J                                                           SYS / PHASE SHIFT   
C                                                           SYS / PHASE SHIFT   
  0                                                         GLONASS SLOT / FRQ #
 C1C    0.000 C1P    0.000 C2C    0.000 C2P    0.000        GLONASS COD/PHS/BIS 
                                                            END OF HEADER       
> 2021  5 17  8 39 26.0000000  0 17                     
G 2  21913973.106      -24105.330       -1896.625          20.000                                                                  
G 6                                                                  20737300.382       -3880.303        -329.497          23.000  
G 9                                                                  23646955.218      -16081.524       -1906.505          25.000  
G12  22507655.898      -39225.526       -3049.247          17.000                                                                  
G14  24473302.314       36108.756        2836.163          22.000                                                                  
G17  21816766.265        7005.253         519.443          20.000                                                                  
G19  20467717.046       -3374.277        -262.002          27.000                                                                  
G28  22863397.114       27272.641        2245.136          27.000                                                                  
R 7  20597306.808      -45047.087       -3473.777          23.000  
R 8  23227444.867      -56023.395       -5332.167          22.000  
R21  21476309.221        2409.952         559.698          17.000  
R22  20397370.811      -19041.312       -1359.602          28.000  
E20                                                                  23047284.230        -206.271        -144.893          22.000  
C 8  36354492.751       -3763.890        -546.724          24.000                                                                                                                                  
C10  36243778.293        -194.403         -40.796          20.000                                                                                                                                  
C26  25185887.423        1144.046         243.796          15.000                                                                                                                                  
C35  22734446.609      -34447.235       -2377.089          27.000                                                                                                                                  
> 2021  5 17  8 39 27.0000000  0 17                     
G 2  21913615.918      -26002.685       -1897.694          19.000                                                                  
G 6                                                                  20737216.373       -4209.672        -329.095          25.000  
G 9                                                                  23646469.675      -17988.004       -1906.288          27.000  
G12  22507078.944      -42273.528       -3047.938          18.000                                                                  
G14  24473843.535       38944.936        2836.577          21.000                                                                  
G17  21816865.618        7527.006         522.460          18.000                                                                  
G19  20467667.658       -3634.425        -258.366          28.000                                                                  
G28  22863823.881       29517.005        2249.043          28.000                                                                  
R 7  20596657.250      -48519.927       -3471.396          20.000  
R 8  23226448.503      -61363.052       -5334.986          20.000  
R21  21476418.198        2969.129         558.674          18.000  
R22  20397094.893      -20521.007       -1356.584          29.000  
E20                                                                  23047247.043        -350.542        -143.454          22.000  
C 8  36354387.805       -4311.206        -547.696          24.000                                                                                                                                  
C10  36243771.192        -235.688         -42.569          21.000                                                                                                                                  
C26  25185933.675        1384.665         239.695          14.000                                                                                                                                  
C35  22733990.111      -36824.701       -2378.311          29.000                                                                                                                                  
> 2021  5 17  8 39 28.0000000  0 18                     
G 2  21913254.781      -27899.809       -1897.538          18.000                                                                  
G 6                                                                  20737132.666       -4538.724        -328.172          25.000  
G 9                                                                  23645984.053      -19894.043       -1904.989          25.000  
G12  22506509.550      -45321.865       -3048.329          17.000                                                                  
G14  24474389.000       41781.747        2838.014          23.000                                                                  
G17  21816964.966        8049.537         522.100          19.000                                                                  
G19  20467618.728       -3892.713        -257.146          26.000                                                                  
G28  22864252.219       31763.570        2245.240          28.000                                                                  
R 7  20596005.956      -51992.011       -3472.455          22.000  
R 8  23225453.780      -66687.726       -5329.047          19.000  
R21  21476521.032        3528.895         558.929          20.000  
R22  20396816.859      -22000.707       -1357.891          28.000  
E20                                                                  23047210.882        -494.054        -142.346          21.000  
C 8  36354282.680       -4859.675        -549.152          24.000                                                                                                                                  
C10  36243762.873        -278.142         -42.040          19.000                                                                                                                                  
C13  36569263.402       -2087.372        -803.694          20.000                                                                                                                                  
C26  25185979.992        1624.632         238.146          11.000                                                                                                                                  
C35  22733533.421      -39202.655       -2378.688          28.000                                                                                                                                  
> 2021  5 17  8 39 29.0000000  0 18                     
G 2  21912899.360      -29797.765       -1898.167          22.000                                                                  
G 6                                                                  20737048.985       -4867.217        -326.740          25.000  
G 9                                                                  23645498.622      -21799.347       -1905.120          27.000  
G12  22505936.111      -48368.869       -3045.562          18.000                                                                  
G14  24474925.843       44619.441        2837.449          22.000                                                                  
G17  21817066.064        8569.989         520.845          22.000                                                                  
G19  20467570.335       -4149.468        -257.286          25.000                                                                  
G28  22864679.937       34009.484        2246.461          25.000                                                                  
R 7  20595356.259      -55463.114       -3469.101          20.000  
R 8  23224460.029      -72009.629       -5324.565          20.000  
R21  21476626.863        4088.655         559.780          17.000  
R22  20396541.861      -23480.526       -1355.317          29.000  
E20                                                                  23047174.729        -637.083        -143.945          22.000  
C 8  36354177.569       -5409.008        -549.339          24.000                                                                                                                                  
C10  36243753.826        -320.319         -40.419          19.000                                                                                                                                  
C13  36569106.768       -2890.568        -803.659          22.000                                                                                                                                  
C26  25186025.860        1863.340         241.229          15.000                                                                                                                                  
C35  22733076.800      -41581.642       -2378.555          29.000                                                                                                                                  
> 2021  5 17  8 39 30.0000000  0 18                     
G 2  21912545.805      -31694.922       -1896.870          25.000                                                                  
G 6                                                                  20736965.517       -5194.935        -328.649          26.000  
G 9                                                                  23645013.455      -23703.797       -1903.766          27.000  
G12  22505356.330      -51415.471       -3046.436          16.000                                                                  
G14  24475462.736       47456.481        2837.467          21.000                                                                  
G17  21817167.533        9091.696         522.064          20.000                                                                  
G19  20467518.430       -4407.096        -258.356          26.000                                                                  
G28  22865108.690       36255.880        2246.611          25.000                                                                  
R 7  20594709.654      -58931.475       -3468.826          20.000  
R 8  23223467.282      -77329.853       -5312.486          17.000  
R21  21476731.312        4647.630         559.902          16.000  
R22  20396264.477      -24959.171       -1357.379          30.000  
E20                                                                  23047138.751        -778.868        -141.267          23.000  
C 8  36354072.240       -5959.197        -549.844          25.000                                                                                                                                  
C10  36243746.254        -360.745         -40.353          19.000                                                                                                                                  
C13  36568955.460       -3694.637        -804.781          22.000                                                                                                                                  
C26  25186073.155        2109.512         251.314          17.000                                                                                                                                  
C35  22732620.739      -43958.401       -2374.533          27.000                                                                                                                                  
> 2021  5 17  8 39 31.0000000  0 18                     
G 2  21912186.741      -33591.460       -1896.741          23.000                                                                  
G 6                                                                  20736882.320       -5522.068        -327.483          25.000  
G 9                                                                  23644528.513      -25607.590       -1903.110          26.000  
G12  22504776.584      -54461.978       -3046.419          15.000                                                                  
G14  24476003.342       50294.534        2838.381          22.000                                                                  
G17  21817267.426        9616.247         526.456          17.000                                                                  
G19  20467469.173       -4663.460        -254.608          26.000                                                                  
G28  22865537.102       38503.553        2249.815          24.000                                                                  
R 7  20594063.259      -62399.802       -3466.667          20.000  
R 8  23222477.530      -82630.291       -5293.217          16.000  
R21  21476823.122        5208.113         561.270          18.000  
R22  20395984.601      -26436.746       -1356.127          30.000  
E20                                                                  23047103.502        -920.014        -140.297          23.000  
C 8  36353967.543       -6507.701        -548.420          25.000                                                                                                                                  
C10  36243739.393        -398.276         -36.994          18.000                                                                                                                                  
C13  36568801.126       -4498.807        -803.570          20.000                                                                                                                                  
C26  25186119.799        2362.043         255.111          15.000                                                                                                                                  
C35  22732163.712      -46334.074       -2376.259          26.000                                                                                                                                  
> 2021  5 17  8 39 32.0000000  0 18                     
G 2  21911826.250      -35487.297       -1895.306          20.000                                                                  
G 6                                                                  20736799.162       -5849.085        -326.713          23.000  
G 9                                                                  23644043.650      -27511.017       -1902.216          27.000  
G12  22504209.280      -57506.998       -3044.300          16.000                                                                  
G14  24476543.383       53132.653        2839.169          18.000                                                                  
G17  21817363.623       10141.171         524.325          24.000                                                                  
G19  20467419.035       -4920.072        -256.181          28.000                                                                  
G28  22865965.854       40752.746        2250.059          19.000                                                                  
R 7  20593414.604      -65865.133       -3465.516          23.000  
R 8  23221485.878      -87940.091       -5320.333          18.000  
R21  21476927.862        5769.223         560.886          16.000  
R22  20395708.740      -27914.210       -1356.329          31.000  
E20                                                                  23047067.938       -1060.526        -139.727          22.000  
C 8  36353862.270       -7054.336        -546.561          26.000                                                                                                                                  
C10  36243731.578        -435.876         -37.535          19.000                                                                                                                                  
C13  36568646.350       -5302.695        -803.197          19.000                                                                                                                                  
C26  25186168.882        2617.511         256.416          17.000                                                                                                                                  
C35  22731707.921      -48709.988       -2377.331          29.000                                                                                                                                  
> 2021  5 17  8 39 33.0000000  0 18                     
G 2  21911465.759      -37381.881       -1893.797          20.000                                                                  
G 6                                                                  20736716.175       -6175.318        -325.273          25.000  
G 9                                                                  23643558.957      -29413.800       -1901.853          25.000  
G12  22503630.440      -60549.098       -3041.032          16.000                                                                  
G14  24477083.232       55971.581        2839.186          19.000                                                                  
G17  21817463.918       10665.253         524.031          20.000                                                                  
G19  20467372.671       -5174.170        -253.096          28.000                                                                  
G28  22866393.663       43000.288        2249.533          25.000                                                                  
R 7  20592766.184      -69330.158       -3464.977          22.000  
R 8  23220490.666      -93268.193       -5341.573          20.000  
R21  21477032.956        6331.169         562.513          16.000  
R22  20395430.282      -29391.555       -1354.409          31.000  
E20                                                                  23047032.755       -1200.378        -137.877          22.000  
C 8  36353757.241       -7601.071        -546.023          25.000                                                                                                                                  
C10  36243724.315        -473.626         -36.970          19.000                                                                                                                                  
C13  36568492.099       -6103.191        -800.202          17.000                                                                                                                                  
C26  25186216.443        2873.663         255.826          18.000                                                                                                                                  
C35  22731252.404      -51086.532       -2373.764          30.000                                                                                                                                  
> 2021  5 17  8 39 34.0000000  0 18                     
G 2  21911104.112      -39275.132       -1893.014          24.000                                                                  
G 6                                                                  20736633.231       -6501.474        -327.866          24.000  
G 9                                                                  23643074.286      -31315.940       -1901.742          28.000  
G12  22503048.796      -63590.789       -3039.735          17.000                                                                  
G14  24477622.708       58810.810        2839.002          21.000                                                                  
G17  21817564.274       11189.779         527.348          24.000                                                                  
G19  20467324.068       -5428.029        -254.033          27.000                                                                  
G28  22866820.016       45250.581        2250.099          24.000                                                                  
R 7  20592121.294      -72795.054       -3464.928          26.000  
R 8  23219494.498      -98597.930       -5320.256          20.000  
R21  21477143.586        6895.147         565.006          18.000  
R22  20395156.571      -30868.437       -1354.594          28.000  
E20                                                                  23046997.222       -1339.937        -141.644          24.000  
C 8  36353652.016       -8147.482        -546.103          24.000                                                                                                                                  
C10  36243717.301        -510.852         -37.634          17.000                                                                                                                                  
C13  36568338.497       -6903.296        -801.138          19.000                                                                                                                                  
C26  25186265.308        3129.309         256.979          20.000                                                                                                                                  
C35  22730797.014      -53458.916       -2372.944          29.000                                                                                                                                  
> 2021  5 17  8 39 35.0000000  0 18                     
G 2  21910742.500      -41168.158       -1892.103          20.000                                                                  
G 6                                                                  20736550.597       -6826.624        -324.658          26.000  
G 9                                                                  23642589.916      -33217.457       -1901.705          22.000  
G12  22502470.141      -66631.820       -3039.487          16.000                                                                  
G14  24478163.109       61650.522        2839.629          18.000                                                                  
G17  21817664.007       11715.251         526.911          18.000                                                                  
G19  20467275.972       -5680.737        -253.279          24.000                                                                  
G28  22867247.031       47500.504        2249.803          26.000                                                                  
R 7  20591476.194      -76257.205       -3461.119          22.000  
R 8  23218501.044     -103919.478       -5334.385          16.000  
R21  21477239.432        7458.898         562.912          17.000  
R22  20394877.416      -32344.607       -1354.877          31.000  
E20                                                                  23046962.383       -1477.807        -136.532          23.000  
C 8  36353547.080       -8693.869        -545.878          23.000                                                                                                                                  
C10  36243710.484        -546.355         -33.646          17.000                                                                                                                                  
C13  36568184.302       -7706.625        -802.609          19.000                                                                                                                                  
C26  25186316.572        3386.897         256.883          18.000                                                                                                                                  
C35  22730341.110      -55832.351       -2374.016          27.000                                                                                                                                  
> 2021  5 17  8 39 36.0000000  0 18                     
G 2  21910382.711      -43059.031       -1890.376          19.000                                                                  
G 6                                                                  20736467.958       -7151.766        -324.794          28.000  
G 9                                                                  23642104.796      -35118.770       -1900.999          27.000  
G12  22501891.668      -69671.861       -3040.593          14.000                                                                  
G14  24478703.570       64490.832        2841.948          16.000                                                                  
G17  21817765.681       12242.386         527.017          23.000                                                                  
G19  20467227.312       -5933.014        -250.968          29.000                                                                  
G28  22867675.002       49749.408        2249.196          24.000                                                                  
R 7  20590830.425      -79718.554       -3459.602          20.000  
R 8  23217505.876     -109242.944       -5321.155          19.000  
R21  21477344.945        8023.492         565.953          15.000  
R22  20394599.626      -33821.455       -1352.676          31.000  
E20                                                                  23046927.299       -1615.671        -137.235          25.000  
C 8  36353442.029       -9239.703        -546.207          23.000                                                                                                                                  
C10  36243704.517        -577.595         -29.915          18.000                                                                                                                                  
C13  36568028.602       -8509.242        -802.343          19.000                                                                                                                                  
C26  25186369.084        3643.865         257.232          19.000                                                                                                                                  
C35  22729885.030      -58207.797       -2375.740          23.000                                                                                                                                  
> 2021  5 17  8 39 37.0000000  0 18                     
G 2  21910023.411      -44949.716       -1890.495          17.000                                                                  
G 6                                                                  20736385.425       -7476.509        -324.812          25.000  
G 9                                                                  23641620.631      -37019.146       -1899.490          25.000  
G12  22501312.864      -72713.728          -0.011          12.000                                                                  
G14  24479244.274       67332.166          -0.009          14.000                                                                  
G17  21817867.411       12769.281         526.483          22.000                                                                  
G19  20467178.823       -6183.503        -252.099          29.000                                                                  
G28  22868103.113       51998.863        2248.716          19.000                                                                  
R 7  20590188.649      -83178.889       -3459.173          25.000  
R 8  23216511.972     -114563.795       -5318.684          24.000  
R21  21477444.228        8588.743         565.046          17.000  
R22  20394326.569      -35295.672       -1353.280          33.000  
E20                                                                  23046892.359       -1752.886        -136.383          23.000  
C 8  36353337.376       -9785.331        -545.246          25.000                                                                                                                                  
C10  36243700.504        -609.749         -33.777          18.000                                                                                                                                  
C13  36567873.164       -9312.108        -803.216          17.000                                                                                                                                  
C26  25186418.800        3902.654         261.591          16.000                                                                                                                                  
C35  22729429.163      -60583.138       -2375.001          24.000                                                                                                                                  
> 2021  5 17  8 39 38.0000000  0 18                     
G 2  21909663.695      -46840.293       -1892.142          19.000                                                                  
G 6                                                                  20736302.829       -7801.061        -324.181          28.000  
G 9                                                                  23641136.483      -38919.516       -1899.753          25.000  
G12  22500733.589      -75758.045          -0.011          13.000                                                                  
G14  24479785.273       70174.750          -0.009          15.000                                                                  
G17  21817966.873       13295.898         528.278          23.000                                                                  
G19  20467132.459       -6435.760        -254.211          28.000                                                                  
G28  22868531.773       54249.121        2251.515          24.000                                                                  
R 7  20589541.936      -86637.904       -3458.729          22.000  
R 8  23215518.148     -119882.688       -5329.864          20.000  
R21  21477545.971        9153.901         564.801          17.000  
R22  20394050.607      -36770.410       -1352.279          33.000  
E20                                                                  23046857.485       -1889.550        -133.156          23.000  
C 8  36353232.888      -10330.909        -543.791          24.000                                                                                                                                  
C10  36243687.125        -645.683         -36.825          17.000                                                                                                                                  
C13  36567719.021      -10115.028        -801.521          18.000                                                                                                                                  
C26  25186469.183        4164.907         263.128          16.000                                                                                                                                  
C35  22728973.228      -62957.145       -2372.225          25.000                                                                                                                                  
> 2021  5 17  8 39 39.0000000  0 18                     
G 2  21909297.066      -48732.676       -1892.177          19.000                                                                  
G 6                                                                  20736218.777       -8129.860        -332.463          22.000  
G 9                                                                  23640651.947      -40820.592       -1900.206          22.000  
G12  22500153.873      -78804.549          -0.011          15.000                                                                  
G14  24480325.590       73014.056          -0.009          13.000                                                                  
G17  21818067.552       13823.114         528.168          23.000                                                                  
G19  20467085.863       -6689.084        -253.408          32.000                                                                  
G28  22868962.154       56499.937        2250.064          21.000                                                                  
R 7  20588895.532      -90096.563       -3458.625          30.000  
R 8  23214524.484     -125205.258       -5320.360          20.000  
R21  21477677.066        9717.721         563.091          27.000  
R22  20393772.866      -38247.869       -1352.661          27.000  
E20                                                                  23046823.056       -2025.934        -136.887          24.000  
C 8  36353127.808      -10877.216        -546.696          23.000                                                                                                                                  
C10  36243679.526        -682.023         -37.130          24.000                                                                                                                                  
C13  36567565.315      -10917.467        -801.201          27.000                                                                                                                                  
C26  25186518.266        4426.273         260.529          17.000                                                                                                                                  
C35  22728517.685      -65329.776       -2371.378          22.000                                                                                                                                  
> 2021  5 17  8 39 40.0000000  0 17                     
G 2  21908943.821      -50625.662       -1892.044          18.000                                                                  
G 6                                                                  20736134.943       -8455.455        -320.345          24.000  
G 9                                                                  23640166.853      -42720.726       -1900.421          22.000  
G12  22499573.983      -81851.975          -0.011          14.000                                                                  
G14  24480865.616       75851.714          -0.009          13.000                                                                  
G17  21818165.786       14351.723         529.270          24.000                                                                  
G19  20467039.341       -6940.071        -253.207          33.000                                                                  
G28  22869390.286       58750.381        2250.260          22.000                                                                  
R 7  20588244.604      -93554.128       -3455.565          31.000  
R21  21477783.029       10281.791         565.518          30.000  
R22  20393495.311      -39724.199       -1355.457          23.000  
E20                                                                  23046788.575       -2162.030        -135.605          26.000  
C 8  36353022.635      -11423.102        -545.568          23.000                                                                                                                                  
C10  36243663.964        -717.615         -34.667          27.000                                                                                                                                  
C13  36567410.906      -11719.171        -803.394          30.000                                                                                                                                  
C26  25186568.317        4686.878         260.293          16.000                                                                                                                                  
C35  22728062.848      -67701.457       -2372.381          22.000                                                                                                                                  
> 2021  5 17  8 39 41.0000000  0 17                     
G 2  21908584.176      -52515.798       -1891.606          17.000                                                                  
G 6                                                                  20736052.226       -8779.659        -324.342          25.000  
G 9                                                                  23639681.598      -44621.290       -1898.535          21.000  
G12  22498994.236      -84898.398          -0.011          15.000                                                                  
G14  24481405.718       78690.066          -0.009          12.000                                                                  
G17  21818266.832       14882.230         533.426          31.000                                                                  
G19  20466992.427       -7191.427        -250.889          31.000                                                                  
G28  22869818.663       61001.172        2250.718          17.000                                                                  
R 7  20587597.641      -97008.902       -3455.696          30.000  
R21  21477886.334       10848.076         566.131          28.000  
R22  20393219.144      -41200.686       -1354.162          22.000  
E20                                                                  23046754.019       -2297.831        -135.037          28.000  
E35                                                                  22727604.683       -2412.237       -1787.728          21.000  
C 8  36352917.951      -11968.564        -544.968          21.000                                                                                                                                  
C10  36243654.424        -751.628         -34.867          26.000                                                                                                                                  
C13  36567256.336      -12522.848        -804.758          30.000                                                                                                                                  
C26  25186618.351        4947.203         261.220          17.000                                                                                                                                  
> 2021  5 17  8 39 42.0000000  0 17                     
G 2  21908216.142      -54408.426       -1893.468          19.000                                                                  
G 6                                                                  20735969.828       -9103.632        -323.385          28.000  
G 9                                                                  23639197.294      -46520.472       -1898.324          22.000  
G12  22498414.873      -87943.110          -0.011          16.000                                                                  
G14  24481945.940       81529.096          -0.009          13.000                                                                  
G17  21818367.781       15413.668         531.934          18.000                                                                  
G19  20466943.523       -7441.920        -250.626          30.000                                                                  
G28  22870248.636       63253.148        2252.746          18.000                                                                  
R 7  20586949.304     -100465.762       -3455.957          32.000  
R21  21477992.082       11412.474         562.985          31.000  
R22  20392940.316      -42676.616       -1354.144          23.000  
E20                                                                  23046719.791       -2433.257        -135.026          29.000  
E35                                                                  22727148.704       -4201.966       -1790.157          17.000  
C 8  36352813.211      -12512.963        -544.862          20.000                                                                                                                                  
C10  36243647.000        -786.949         -36.522          23.000                                                                                                                                  
C13  36567103.401      -13324.880        -802.189          30.000                                                                                                                                  
C26  25186663.504        5208.840         261.971          20.000                                                                                                                                  
> 2021  5 17  8 39 43.0000000  0 16                     
G 2  21907858.867      -56300.770       -1893.536          17.000                                                                  
G 6                                                                  20735887.342       -9427.443        -323.417          29.000  
G 9                                                                  23638713.037      -48419.773       -1898.580          21.000  
G12  22497836.069      -90984.827          -0.011          15.000                                                                  
G17  21818470.641       15946.209         530.426          28.000                                                                  
G19  20466896.352       -7691.286        -249.334          31.000                                                                  
G28  22870677.903       65506.266        2254.084          18.000                                                                  
R 7  20586302.997     -103919.817       -3451.450          30.000  
R21  21478096.801       11977.362         570.142          33.000  
R22  20392663.738      -44151.503       -1351.808          20.000  
E20                                                                  23046685.636       -2568.289        -135.690          26.000  
E35                                                                  22726692.516       -5991.557       -1788.683          15.000  
C 8  36352708.239      -13057.974        -545.244          24.000                                                                                                                                  
C10  36243640.069        -821.114         -33.442          23.000                                                                                                                                  
C13  36566949.437      -14128.039        -804.608          30.000                                                                                                                                  
C26  25186719.126        5470.592         261.442          20.000                                                                                                                                  
> 2021  5 17  8 39 44.0000000  0 16                     
G 2  21907498.310      -58195.826       -1895.753          14.000                                                                  
G 6                                                                  20735804.943       -9750.914        -323.317          26.000  
G 9                                                                  23638228.850      -50320.233       -1901.145          16.000  
G12  22497257.335      -94026.434          -0.011          15.000                                                                  
G17  21818571.237       16476.143         530.558          22.000                                                                  
G19  20466848.556       -7939.939        -249.748          32.000                                                                  
G28  22871108.692       67760.129        2252.830          23.000                                                                  
R 7  20585657.165     -107372.789       -3454.231          29.000  
R21  21478201.755       12544.766         564.539          32.000  
R22  20392387.214      -45625.399       -1351.128          20.000  
E20                                                                  23046651.425       -2702.409        -133.948          30.000  
E35                                                                  22726240.192       -7779.682       -1787.895          14.000  
C 8  36352602.818      -13602.037        -543.054          23.000                                                                                                                                  
C10  36243633.622        -853.631         -31.578          24.000                                                                                                                                  
C13  36566796.198      -14929.870        -801.769          30.000                                                                                                                                  
C26  25186771.141        5732.476         262.140          23.000                                                                                                                                  
> 2021  5 17  8 39 45.0000000  0 17                     
G 2  21907137.636      -60091.299           0.002          12.000                                                                  
G 6                                                                  20735722.519      -10074.507        -323.435          28.000  
G 9                                                                  23637744.096      -52223.112       -1904.731          13.000  
G12  22496689.647      -97066.378       -3039.972          15.000                                                                  
G14  24483568.773       90042.379        2839.720          19.000                                                                  
G17  21818674.482       17006.807         531.298          24.000                                                                  
G19  20466801.363       -8189.131        -247.823          31.000                                                                  
G28  22871535.886       70013.150        2253.440          23.000                                                                  
R 7  20585010.726     -110828.728       -3456.989          29.000  
R21  21478305.554       13111.856         568.995          32.000  
R22  20392111.832      -47099.050       -1351.636          21.000  
E20                                                                  23046617.306       -2836.465        -133.327          28.000  
E35                                                                  22725784.880       -9567.091       -1789.514          13.000  
C 8  36352498.095      -14146.650        -545.265          27.000                                                                                                                                  
C10  36243627.467        -886.290         -34.531          26.000                                                                                                                                  
C13  36566641.676      -15733.529        -805.031          30.000                                                                                                                                  
C26  25186825.245        5995.629         263.042          23.000                                                                                                                                  
> 2021  5 17  8 39 46.0000000  0 17                     
G 2  21906776.931      -61987.230           0.002          13.000                                                                  
G 6                                                                  20735640.106      -10397.604        -322.532          31.000  
G 9                                                                  23637259.539      -54125.382       -1899.675          17.000  
G12  22496111.471     -100105.050       -3038.004          16.000                                                                  
G14  24484104.860       92881.461        2840.144          17.000                                                                  
G17  21818775.095       17538.101         532.414          33.000                                                                  
G19  20466756.804       -8436.396        -247.414          31.000                                                                  
G28  22871965.816       72266.728        2252.823          20.000                                                                  
R 7  20584365.526     -114282.840       -3454.343          26.000  
R21  21478412.620       13679.607         568.241          30.000  
R22  20391834.649      -48574.487       -1356.326          20.000  
E20                                                                  23046583.286       -2969.984        -132.954          30.000  
E35                                                                  22725328.732      -11357.771       -1790.134          15.000  
C 8  36352392.495      -14692.736        -546.488          25.000                                                                                                                                  
C10  36243619.807        -922.468         -36.264          24.000                                                                                                                                  
C13  36566487.786      -16536.837        -801.449          31.000                                                                                                                                  
C26  25186877.247        6259.601         264.520          24.000                                                                                                                                  
> 2021  5 17  8 39 47.0000000  0 17                     
G 2  21906416.493      -63881.554           0.002          15.000                                                                  
G 6                                                                  20735558.035      -10720.466        -321.423          23.000  
G 9                                                                  23636776.460      -56023.981       -1896.665          20.000  
G12  22495534.394     -103143.785       -3038.131          14.000                                                                  
G14  24484645.199       95721.057        2838.944          14.000                                                                  
G17  21818876.737       18072.158         534.594          24.000                                                                  
G19  20466712.163       -8684.721        -246.862          32.000                                                                  
G28  22872394.494       74519.228        2252.206          18.000                                                                  
R 7  20583718.694     -117736.795       -3453.515          26.000  
R21  21478517.313       14246.513         566.761          26.000  
R22  20391556.976      -50049.811       -1351.949          26.000  
E20                                                                  23046549.564       -3102.922        -132.486          29.000  
E35                                                                  22724873.284      -13145.762       -1789.350          16.000  
C 8  36352287.754      -15237.366        -544.340          25.000                                                                                                                                  
C10  36243612.969        -956.602         -32.096          25.000                                                                                                                                  
C13  36566334.254      -17338.654        -803.963          32.000                                                                                                                                  
C26  25186928.647        6524.581         266.093          21.000                                                                                                                                  
> 2021  5 17  8 39 48.0000000  0 17                     
G 2  21906056.216      -65775.020           0.002          16.000                                                                  
G 6                                                                  20735475.829      -11043.214        -322.502          25.000  
G 9                                                                  23636289.979      -57921.272       -1896.672          22.000  
G12  22494956.707     -106179.694       -3033.616          15.000                                                                  
G14  24485185.744       98561.485          -0.009          15.000                                                                  
G17  21818977.730       18606.302         533.967          32.000                                                                  
G19  20466665.174       -8932.545        -246.368          30.000                                                                  
G28  22872822.872       76772.075        2252.811          17.000                                                                  
R 7  20583072.779     -121190.392       -3454.158          24.000  
R21  21478623.248       14813.629         566.537          25.000  
R22  20391281.311      -51521.391       -1348.726          27.000  
E20                                                                  23046515.912       -3235.500        -132.082          29.000  
E35                                                                  22724413.960      -14933.521       -1786.452          16.000  
C 8  36352182.795      -15782.230        -543.813          27.000                                                                                                                                  
C10  36243606.488        -990.917         -33.796          25.000                                                                                                                                  
C13  36566180.631      -18139.625        -800.579          31.000                                                                                                                                  
C26  25186981.002        6792.584         268.217          21.000                                                                                                                                  
> 2021  5 17  8 39 49.0000000  0 17                     
G 2  21905695.768      -67669.268           0.002          14.000                                                                  
G 6                                                                  20735393.657      -11365.533        -322.591          25.000  
G 9                                                                  23635807.375      -59818.052       -1895.582          22.000  
G12  22494379.169     -109214.539       -3034.822          16.000                                                                  
