$GPGGA,031505.000,3113.928450,N,12131.927300,E,1,19,0.8,19.0,M,,M,,*75
$GPRMC,031505.000,A,3113.928450,N,12131.927300,E,2.0,41.084800696,250122,,E,A*18
$GPGGA,031506.000,3113.927718,N,12131.927634,E,1,19,0.8,20.3,M,,M,,*7D
$GPRMC,031506.000,A,3113.927718,N,12131.927634,E,1.7,43.297532711,250122,,E,A*1D
$GPGGA,031507.000,3113.928240,N,12131.928349,E,1,19,0.8,20.4,M,,M,,*7C
$GPRMC,031507.000,A,3113.928240,N,12131.928349,E,1.8,46.147272081000004,250122,,E,A*16
$GPGGA,031508.000,3113.928675,N,12131.929020,E,1,19,0.8,20.6,M,,M,,*7E
$GPRMC,031508.000,A,3113.928675,N,12131.929020,E,1.9,47.455748511,250122,,E,A*14
$GPGGA,031509.000,3113.929097,N,12131.929440,E,1,19,0.8,20.6,M,,M,,*76
$GPRMC,031509.000,A,3113.929097,N,12131.929440,E,1.9,46.640019009,250122,,E,A*14
$GPGGA,031510.000,3113.929503,N,12131.930359,E,1,19,0.8,20.6,M,,M,,*71
$GPRMC,031510.000,A,3113.929503,N,12131.930359,E,2.1,46.063260753,250122,,E,A*1B
$GPGGA,031511.000,3113.929890,N,12131.931098,E,1,19,0.8,20.8,M,,M,,*76
$GPRMC,031511.000,A,3113.929890,N,12131.931098,E,2.1,45.231371023,250122,,E,A*15
$GPGGA,031512.000,3113.930227,N,12131.931584,E,1,19,0.8,20.8,M,,M,,*73
$GPRMC,031512.000,A,3113.930227,N,12131.931584,E,2.1,48.026841125,250122,,E,A*16
$GPGGA,031513.000,3113.930349,N,12131.932541,E,1,19,0.8,19.8,M,,M,,*7B
$GPRMC,031513.000,A,3113.930349,N,12131.932541,E,2.1,48.990290545,250122,,E,A*14
$GPGGA,031514.000,3113.930918,N,12131.933808,E,1,19,0.8,16.7,M,,M,,*73
$GPRMC,031514.000,A,3113.930918,N,12131.933808,E,2.4,51.891949598000004,250122,,E,A*1A
$GPGGA,031515.000,3113.931231,N,12131.934477,E,1,19,0.8,16.7,M,,M,,*70
$GPRMC,031515.000,A,3113.931231,N,12131.934477,E,2.4,52.639701642,250122,,E,A*14
$GPGGA,031516.000,3113.931411,N,12131.935437,E,1,19,0.8,16.4,M,,M,,*71
$GPRMC,031516.000,A,3113.931411,N,12131.935437,E,2.4,54.060958156999995,250122,,E,A*16
$GPGGA,031517.000,3113.931648,N,12131.936074,E,1,19,0.8,16.3,M,,M,,*79
$GPRMC,031517.000,A,3113.931648,N,12131.936074,E,2.4,50.668369006000006,250122,,E,A*15
$GPGGA,031518.000,3113.931900,N,12131.936633,E,1,19,0.8,15.8,M,,M,,*78
$GPRMC,031518.000,A,3113.931900,N,12131.936633,E,2.3,52.142238468,250122,,E,A*19
$GPGGA,031519.000,3113.932296,N,12131.937036,E,1,19,0.8,14.8,M,,M,,*7D
$GPRMC,031519.000,A,3113.932296,N,12131.937036,E,2.3,53.244210957,250122,,E,A*12
$GPGGA,031520.000,3113.932637,N,12131.937712,E,1,19,0.8,14.8,M,,M,,*79
$GPRMC,031520.000,A,3113.932637,N,12131.937712,E,2.3,51.24060226100001,250122,,E,A*28
$GPGGA,031521.000,3113.932954,N,12131.938289,E,1,19,0.8,14.8,M,,M,,*7A
$GPRMC,031521.000,A,3113.932954,N,12131.938289,E,2.3,51.478309922,250122,,E,A*15
$GPGGA,031522.000,3113.933211,N,12131.938864,E,1,19,0.8,14.5,M,,M,,*76
$GPRMC,031522.000,A,3113.933211,N,12131.938864,E,2.2,52.919059796999996,250122,,E,A*14
$GPGGA,031523.000,3113.933588,N,12131.939498,E,1,19,0.8,14.5,M,,M,,*7E
$GPRMC,031523.000,A,3113.933588,N,12131.939498,E,2.3,50.52782078600001,250122,,E,A*27
$GPGGA,031524.000,3113.933923,N,12131.940110,E,1,19,0.8,14.5,M,,M,,*7F
$GPRMC,031524.000,A,3113.933923,N,12131.940110,E,2.3,49.22615064,250122,,E,A*2C
$GPGGA,031525.000,3113.934268,N,12131.940695,E,1,19,0.8,14.5,M,,M,,*77
$GPRMC,031525.000,A,3113.934268,N,12131.940695,E,2.2,48.56894983,250122,,E,A*20
$GPGGA,031526.000,3113.936851,N,12131.944162,E,1,19,0.8,5.8,M,,M,,*40
$GPRMC,031526.000,A,3113.936851,N,12131.944162,E,3.1,55.933720062,250122,,E,A*18
$GPGGA,031527.000,3113.938249,N,12131.946783,E,1,19,0.8,1.8,M,,M,,*43
$GPRMC,031527.000,A,3113.938249,N,12131.946783,E,3.6,57.519402153,250122,,E,A*1E
$GPGGA,031528.000,3113.938676,N,12131.949787,E,1,19,0.8,-1.6,M,,M,,*6C
$GPRMC,031528.000,A,3113.938676,N,12131.949787,E,4.0,63.633013731000005,250122,,E,A*1C
$GPGGA,031529.000,3113.938688,N,12131.951959,E,1,19,0.8,-3.4,M,,M,,*68
$GPRMC,031529.000,A,3113.938688,N,12131.951959,E,4.1,68.660140706,250122,,E,A*12
$GPGGA,031530.000,3113.939472,N,12131.956346,E,1,19,0.8,-7.2,M,,M,,*67
$GPRMC,031530.000,A,3113.939472,N,12131.956346,E,5.2,73.56795386600001,250122,,E,A*21
$GPGGA,031531.000,3113.940368,N,12131.958334,E,1,19,0.8,-10.8,M,,M,,*53
$GPRMC,031531.000,A,3113.940368,N,12131.958334,E,5.1,72.80504781100001,250122,,E,A*2E
$GPGGA,031532.000,3113.941101,N,12131.960157,E,1,19,0.8,-12.7,M,,M,,*5D
$GPRMC,031532.000,A,3113.941101,N,12131.960157,E,5.0,72.346764314,250122,,E,A*19
$GPGGA,031533.000,3113.941598,N,12131.960838,E,1,19,0.8,-13.8,M,,M,,*56
$GPRMC,031533.000,A,3113.941598,N,12131.960838,E,4.5,71.142781,250122,,E,A*20
$GPGGA,031534.000,3113.943002,N,12131.959507,E,1,19,0.8,-20.1,M,,M,,*57
$GPRMC,031534.000,A,3113.943002,N,12131.959507,E,3.2,59.873793238999994,250122,,E,A*1E
$GPGGA,031535.000,3113.944288,N,12131.958560,E,1,19,0.8,-25.6,M,,M,,*53
$GPRMC,031535.000,A,3113.944288,N,12131.958560,E,2.2,28.779682008,250122,,E,A*17
$GPGGA,031536.000,3113.945443,N,12131.957748,E,1,19,0.8,-30.3,M,,M,,*56
$GPRMC,031536.000,A,3113.945443,N,12131.957748,E,1.8,13.497300047000001,250122,,E,A*14
$GPGGA,031537.000,3113.946268,N,12131.956867,E,1,19,0.8,-31.3,M,,M,,*59
$GPRMC,031537.000,A,3113.946268,N,12131.956867,E,1.9,13.903790223,250122,,E,A*17
$GPGGA,031538.000,3113.946946,N,12131.955833,E,1,19,0.8,-31.9,M,,M,,*59
$GPRMC,031538.000,A,3113.946946,N,12131.955833,E,2.2,15.81583084,250122,,E,A*2F
$GPGGA,031539.000,3113.947485,N,12131.955353,E,1,19,0.8,-31.9,M,,M,,*56
$GPRMC,031539.000,A,3113.947485,N,12131.955353,E,2.2,20.510259185,250122,,E,A*1B
$GPGGA,031540.000,3113.947831,N,12131.955191,E,1,19,0.8,-31.9,M,,M,,*57
$GPRMC,031540.000,A,3113.947831,N,12131.955191,E,2.1,28.670272621,250122,,E,A*14
$GPGGA,031541.000,3113.948306,N,12131.955199,E,1,19,0.8,-31.9,M,,M,,*5E
$GPRMC,031541.000,A,3113.948306,N,12131.955199,E,1.9,55.083229167,250122,,E,A*1D
$GPGGA,031542.000,3113.948836,N,12131.955037,E,1,19,0.8,-32.0,M,,M,,*5A
$GPRMC,031542.000,A,3113.948836,N,12131.955037,E,1.9,59.313670803,250122,,E,A*16
$GPGGA,031543.000,3113.949223,N,12131.955057,E,1,19,0.8,-32.0,M,,M,,*52
$GPRMC,031543.000,A,3113.949223,N,12131.955057,E,1.8,68.331774575,250122,,E,A*14
$GPGGA,031544.000,3113.949628,N,12131.955307,E,1,19,0.8,-32.1,M,,M,,*5D
$GPRMC,031544.000,A,3113.949628,N,12131.955307,E,1.7,75.137177068,250122,,E,A*11
$GPGGA,031545.000,3113.950140,N,12131.955551,E,1,19,0.8,-32.1,M,,M,,*58
$GPRMC,031545.000,A,3113.950140,N,12131.955551,E,1.7,67.720902939,250122,,E,A*10
$GPGGA,031546.000,3113.950637,N,12131.955696,E,1,19,0.8,-32.2,M,,M,,*57
$GPRMC,031546.000,A,3113.950637,N,12131.955696,E,1.7,59.830593186,250122,,E,A*17
