     3.03           OBSERVATION DATA    M: Mixed            RINEX VERSION / TYPE
RTKCONV 2.4.3 b34                       20211028 100537 UTC PGM / RUN BY / DATE 
format: RINEX                                               COMMENT             
log: E:\Dropbox\210930_qw\bag_hw\0geo++\best\GEOP273L.21o   COMMENT             
                                                            MARKER NAME         
                                                            MARKER NUMBER       
                                                            MARKER TYPE         
                                                            OBSERVER / AGENCY   
                                                            REC # / TYPE / VERS 
                                                            ANT # / TYPE        
        0.0000        0.0000        0.0000                  APPROX POSITION XYZ 
        0.0000        0.0000        0.0000                  ANTENNA: DELTA H/E/N
G    8 C1C L1C D1C S1C C5Q L5Q D5Q S5Q                      SYS / # / OBS TYPES 
C    4 C2I L2I D2I S2I                                      SYS / # / OBS TYPES 
  2021    09    30    11    26   59.9998999     GPS         TIME OF FIRST OBS   
  2021    09    30    11    59   59.9994217     GPS         TIME OF LAST OBS    
G L1C                                                       SYS / PHASE SHIFT   
G L5Q  0.00000                                              SYS / PHASE SHIFT   
C L2I                                                       SYS / PHASE SHIFT   
  0                                                         GLONASS SLOT / FRQ #
                                                            GLONASS COD/PHS/BIS 
                                                            END OF HEADER       
> 2021 09 30 11 26 59.9998999  0  7                     
C06  36532142.324   190232428.6251        184.995          28.000  
C19  22178959.326   115491681.5361      -2394.494          26.000  
C22  22336394.436   116311486.5041        629.058          32.000  
C36  22604110.300   117705572.3451      -1484.681          34.000  
G25  23805255.165   125097489.9871      -3873.757          41.000    23805262.060    93416958.6721      -2890.676          33.000  
G26                                                                  20426451.762    80157781.3361        788.886          31.000  
G32  20797965.668   109294127.4731       -720.076          32.000                                                                  
> 2021 09 30 11 27 00.9998996  0  7                     
C06  36532016.711   190231774.900         185.694          28.000  
C10  37356553.296   194525385.9341        518.767          21.000  
C19  22179332.867   115493609.201       -2396.339          27.000  
C22  22336177.386   116310390.194         629.699          30.000  
C36  22604311.161   117706587.899       -1486.580          34.000  
G25  23805902.716   125100891.133       -3875.619          40.000    23805909.312    93419498.485       -2895.514          33.000  
G26  20426159.764   107340163.9611       1050.702          32.000    20426160.963    80156640.192         787.576          31.000  
> 2021 09 30 11 27 01.9998994  0  8                     
C06  36531921.677   190231277.281         185.250          29.000  
C19  22179736.388   115495693.156       -2397.417          25.000  
C22  22335996.012   116309450.467         626.870          26.000  
C30  25703499.038   133844958.7431       1244.659          23.000  
C36  22604539.003   117707760.045       -1482.825          35.000  
G25                                                                  23806585.644    93422156.442       -2893.121          33.000  
G26                                                                  20425900.144    80155616.724         787.936          31.000  
G32  20798094.279   109294778.8691       -720.875          30.000                                                                  
> 2021 09 30 11 27 02.9998994  0  8                     
C01  37486298.975   195200866.6001       -345.960          37.000  
C06  36531885.402   190231092.540         183.873          27.000  
C10  37356295.175   194524041.1091        515.761          20.000  
C19  22180202.265   115498091.476       -2398.567          22.000  
C30  25703265.500   133843715.685        1241.290          19.000  
C36  22604830.701   117709244.762       -1484.368          34.000  
G25                                                                  23807323.133    93425049.927       -2895.080          33.000  
G26  20425690.589   107337738.2181       1055.546          29.000    20425699.283    80154828.805         787.733          32.000  
> 2021 09 30 11 27 03.9998991  0 10                     
C01  37486270.795   195200743.723        -344.472          38.000  
C06  36531758.290   190230439.792         184.370          22.000  
C10  37356107.805   194523055.667         519.093          17.000  
C19  22180575.807   115500022.040       -2399.557          19.000  
C22  22335673.435   116307730.5821        624.972          32.000  
C30  25702939.925   133842005.194        1243.307          18.000  
C36  22605029.464   117710261.130       -1485.855          35.000  
G10  23187072.324   121848887.7931      -3876.460          28.000                                                                  
G25  23807965.588   125111727.2111      -3875.455          38.000    23807969.486    93427590.424       -2891.579          34.000  
G26                                                                  20425409.084    80153688.760         786.939          34.000  
> 2021 09 30 11 27 04.9998989  0  8                     
C01  37486275.891   195200774.894        -343.466          38.000  
C06  36531662.656   190229943.654         183.098          25.000  
C19  22180979.627   115502109.301       -2399.629          25.000  
C22  22335494.759   116306793.631         624.346          29.000  
C36  22605253.708   117711434.345       -1482.976          36.000  
G25  23808644.319   125115287.464       -3874.675          39.000    23808647.017    93430249.041       -2894.020          32.000  
G26  20425138.371   107334841.6621       1053.516          33.000    20425148.564                         786.224          34.000  
G29  23730870.660   124706465.7201        184.397          33.000                                                                  
> 2021 09 30 11 27 05.9998986  0  9                     
C01  37486253.407   195200650.122        -344.025          38.000  
C06  36531537.943   190229291.656         184.109          27.000  
C19  22181349.871   115504039.764       -2398.515          27.000  
C22  22335286.103   116305700.598         624.723          28.000  
C30  25702322.652   133838737.2531       1244.399          20.000  
C36  22605446.175   117712451.319       -1485.951          36.000  
G25  23809292.170   125118690.116       -3874.917          40.000    23809293.369    93432789.978       -2894.909          33.000  
G26  20424847.572                        1052.077          33.000    20424858.365    80151531.7991        786.058          33.000  
G29  23730742.049   124705809.488         184.586          34.000                                                                  
> 2021 09 30 11 27 06.9998984  0  7                     
C01  37486261.501   195200682.150        -344.074          37.000  
C06  36531441.709   190228794.753         184.386          28.000  
C22  22335107.727   116304763.857         623.959          29.000  
C36  22605665.324   117713624.908       -1486.953          37.000  
G25  23809969.101   125122250.859       -3876.162          39.000    23809972.099    93435448.960       -2895.304          32.000  
G26  20424588.851                        1051.190          33.000    20424598.445    80150511.094         784.367          33.000  
G29  23730653.910   124705311.768         183.159          33.000                                                                  
> 2021 09 30 11 27 07.9998981  0  8                     
C01  37486237.518   195200557.965        -344.382          38.000  
C06  36531316.696   190228141.591         185.632          26.000  
C22  22334898.771   116303671.750         622.833          30.000  
C36  22605855.992   117714642.625       -1485.858          35.000  
G25  23810617.552   125125654.192       -3875.830          39.000    23810620.251    93437990.414       -2895.287          33.000  
G26  20424299.252   107330408.3681       1050.914          35.000    20424308.246    80149373.192         785.410          34.000  
G29  23730525.599   124704656.825         183.443          31.000                                                                  
G32  20798516.087   109296940.1291       -722.875          31.000                                                                  
> 2021 09 30 11 27 08.9998979  0 10                     
C01  37486242.914   195200591.339        -346.679          38.000  
C06  36531221.961   190227643.893         185.092          25.000  
C19  22182520.561   115510146.7871      -2400.500          26.000  
C22  22334719.795   116302736.593         622.204          29.000  
C30  25701411.583   133833907.2151       1246.445          23.000  
C36  22606080.236   117715816.844       -1486.756          35.000  
G10  23190435.396   121866385.1291      -3878.518          21.000                                                                  
G25                                                                  23811297.482    93440649.851       -2896.028          32.000  
G26  20424038.133   107329042.951        1047.999          36.000    20424048.625    80148353.515         781.917          34.000  
G29  23730420.971   124704160.163         180.659          29.000                                                                  
> 2021 09 30 11 27 09.9998976  0  8                     
C01  37486218.331   195200468.923        -345.271          38.000  
C06  36531095.749   190226990.697         184.704          26.000  
C10  37355059.131   194517596.0161        516.270          12.000  
C19  22182893.502   115512079.268       -2401.542          28.000  
C22  22334511.140   116301646.199         621.547          29.000  
G10  23191098.836   121869792.636       -3879.868          21.000                                                                  
G25                                                                  23811944.734    93443191.608       -2893.988          32.000  
G26  20423747.634   107327520.463        1049.076          36.000    20423759.026    80147216.615         783.718          35.000  
> 2021 09 30 11 27 10.9998976  0  9                     
C01  37486282.786   195200813.993        -345.210          38.000  
C06  36531059.774   190226806.023         184.112          23.000  
C07  36587859.352   190522542.9691        476.865          22.000  
C19  22183354.283   115514480.848       -2402.025          27.000  
C22  22334391.522   116301025.847         620.074          30.000  
C36  22606562.303   117718321.7121      -1487.584          31.000  
G10  23191547.026   121872402.637       -3878.088          19.000                                                                  
G25  23812681.024   125136495.9171      -3877.864          37.000    23812683.123    93446086.524       -2895.560          31.000  
G26  20423549.471   107326471.344        1048.175          36.000    20423559.964    80146433.218         782.924          35.000  
> 2021 09 30 11 27 11.9998973  0 12                     
C01  37486259.702   195200690.883        -345.210          39.000  
C06  36530934.760   190226153.221         183.017          23.000  
C07  36587677.678   190521598.783         477.417          23.000  
C10  37354772.829   194516103.1631        506.643          11.000  
C22  22334182.567   116299937.185         620.373          28.000  
C30  25700535.889   133829242.0231       1241.294          23.000  
C36  22606755.969   117719340.257       -1486.851          32.000  
G10  23192186.483   121875808.567       -3877.751          20.000                                                                  
G25  23813329.175   125139900.531       -3876.992          37.000    23813330.674    93448628.913       -2895.718          32.000  
G26  20423261.970   107324950.800        1048.336          36.000    20423270.064    80145297.673         782.593          35.000  
G29  23729965.587   124701811.5461        179.973          29.000                                                                  
G32  20798832.068   109298578.2311       -726.394          30.000                                                                  
> 2021 09 30 11 27 12.9998973  0 13                     
C01  37486325.357   195201035.971        -345.317          34.000  
C06  36530902.383   190225970.376         182.769          23.000  
C07  36587587.140   190521122.094         476.784          24.000  
C10  37354674.197   194515595.031         509.443          14.000  
C19  22184187.107   115518817.3341      -2402.923          27.000  
C22  22334064.449   116299316.632         620.194          32.000  
C30  25700302.351   133827999.610        1241.667          23.000  
C36  22607048.866   117720826.666       -1481.253          35.000  
G10  23192929.969   121879686.751       -3878.339          20.000                                                                  
G25  23814064.566   125143777.590       -3876.538          40.000    23814069.063    93451524.106       -2897.408          33.000  
G26  20423059.910   107323903.064        1047.933          33.000    20423069.803    80144515.259         781.897          35.000  
G29  23729936.807   124701632.018         179.409          32.000                                                                  
G32  20798982.564   109299304.248        -725.880          37.000                                                                  
> 2021 09 30 11 27 13.9998971  0 10                     
C01  37486331.952   195201068.954        -345.359          34.000  
C06  36530809.747   190225474.977         183.841          28.000  
C07  36587432.448   190520332.640         476.753          20.000  
C19  22184585.831   115520908.333       -2404.345          28.000  
C22  22333885.473   116298384.887         619.167          33.000  
C36  22607277.308   117722000.018       -1486.187          31.000  
G25                                                                  23814746.594    93454184.518       -2896.984          32.000  
G26                                                                  20422810.183    80143498.136         780.601          34.000  
G29  23729864.257   124701137.929         177.658          33.000                                                                  
G32  20799055.713   109299715.529        -726.939          39.000                                                                  
> 2021 09 30 11 27 14.9998968  0  8                     
C06  36530685.033   190224822.459         184.217          27.000  
C10  37354328.237   194513792.7011        512.084          16.000  
C19  22184954.875   115522844.330       -2404.818          26.000  
C22  22333679.216   116297298.261         617.206          32.000  
C36  22607470.074   117723018.496       -1487.544          30.000  
G25                                                                  23815394.745    93456727.584       -2896.072          32.000  
G26  20422517.285   107321022.4081       1044.099          35.000    20422521.183    80142364.288         781.869          34.000  
G29  23729739.243                         178.748          33.000                                                                  
> 2021 09 30 11 27 15.9998966  0  8                     
C06  36530589.999   190224325.316         185.420          27.000  
C07  36587093.982   190518601.3251        474.927          24.000  
C10  37354169.646   194512966.168         515.372          18.000  
C19  22185355.998   115524937.280       -2405.370          31.000  
C22  22333499.940                         619.699          31.000  
C36  22607692.820   117724193.990       -1488.107          33.000  
G25  23816077.073   125154308.7831      -3877.639          35.000    23816072.576    93459388.260       -2894.751          32.000  
G26  20422262.462   107319661.913        1045.205          34.000    20422263.061    80141348.273         781.472          34.000  
> 2021 09 30 11 27 16.9998963  0 10                     
C01  37486295.078   195200851.0311       -343.867          25.000  
C06  36530464.985   190223670.330         186.993          25.000  
C07  36586912.607   190517658.751         473.995          24.000  
C10  37353982.276   194511982.900         515.416          20.000  
C19  22185726.541   115526874.698       -2404.358          31.000  
C22  22333288.886   116295310.1741        618.055          32.000  
C36  22607882.888   117725213.861       -1488.679          33.000  
G25  23816718.929   125157714.666       -3877.072          36.000    23816721.327    93461931.694       -2896.907          31.000  
G26  20421973.162   107318144.620        1044.653          36.000    20421973.762    80140215.225         779.341          34.000  
G29  23729470.330   124699208.7431        175.819          29.000                                                                  
> 2021 09 30 11 27 17.9998961  0  8                     
C01  37486302.573   195200883.322        -344.943          30.000  
C06  36530369.352   190223171.446         186.279          25.000  
C07  36586761.212   190516871.876         475.411          22.000  
C22  22333110.509                         611.136          31.000  
C36  22608110.431                       -1493.120          32.000  
G25                                                                  23817398.558    93464593.425       -2899.960          32.000  
G26  20421709.345   107316785.997        1041.591          35.000    20421715.940    80139200.620         777.698          34.000  
G32  20799306.939   109301095.8751       -729.106          34.000                                                                  
> 2021 09 30 11 27 18.9998958  0  9                     
C06  36530242.539   190222516.570         187.238          25.000  
C07  36586579.538   190515928.532         473.679          27.000  
C22  22332908.449   116293295.3611        617.425          29.000  
C30  25698464.024   133818646.0941       1241.962          25.000  
C36  22608317.288   117727384.7711      -1488.069          32.000  
G25  23818049.707   125164685.7751      -3880.022          34.000    23818045.810    93467136.477       -2894.800          29.000  
G26  20421417.947   107315270.335        1042.393          40.000    20421426.641    80138068.752         777.562          34.000  
G29  23729230.496   124698070.4671        174.472          22.000                                                                  
G32  20799355.206   109301352.389        -728.863          40.000                                                                  
> 2021 09 30 11 27 19.9998956  0  9                     
C01  37486290.881   195200794.2001       -346.633          29.000  
C07  36586428.742   190515142.793         473.149          29.000  
C22  22332729.173   116292366.271         615.859          31.000  
C30  25698180.720   133817091.146        1243.305          24.000  
C36  22608542.432   117728561.617       -1490.189          30.000  
G25                                                                  23818726.039    93469797.204       -2897.316          24.000  
G26  20421158.026   107313912.803        1040.764          39.000    20421167.320    80137055.034         777.066          33.000  
G29  23729134.562   124697580.679         176.184          23.000                                                                  
G32  20799439.448                        -730.755          39.000                                                                  
> 2021 09 30 11 27 20.9998953  0  7                     
C07  36586248.267   190514201.694         472.408          29.000  
C22  22332519.319   116291282.697         612.979          31.000  
C30  25697868.636   133815381.304        1242.392          23.000  
G25  23819374.790   125171656.8541      -3880.352          35.000    23819376.289    93472343.673       -2900.209          23.000  
G26  20420871.725   107312398.347        1041.373          39.000    20420878.620    80135924.106         778.371          32.000  
G29  23728993.660   124696933.098         175.277          15.000                                                                  
G32  20799488.314   109302051.0671       -730.934          40.000                                                                  
> 2021 09 30 11 27 21.9998950  0 11                     
C06  36529888.185   190220722.1581        180.388          20.000  
C07  36586067.193   190513260.842         472.994          29.000  
C10  37353105.083   194507378.0331        514.292          20.000  
C16  36907688.139   192188043.8071        229.885          28.000  
C22  22332305.866   116290200.352         613.183          31.000  
C30  25697417.148   133813194.778        1240.129          22.000  
C36  22608920.170   117730605.3811      -1490.253          27.000  
G25  23820023.541   125175063.641       -3879.831          35.000    23820024.740    93474890.125       -2898.512          24.000  
G26  20420581.526   107310884.319        1042.272          39.000    20420590.819    80134793.543         777.752          32.000  
G29  23728863.250   124696018.739         175.341          18.000                                                                  
G32  20799534.782   109302309.438        -731.376          38.000                                                                  
> 2021 09 30 11 27 22.9998948  0 10                     
C01  37486258.503   195200590.2051       -349.016          29.000  
C07  36585915.198   190512476.028         471.529          27.000  
C19  22188047.834   115538980.5851      -2411.230          25.000  
C22  22332125.691   116289275.045         612.909          26.000  
C30  25697136.543   133811642.563        1239.754          20.000  
C36  22609145.015   117731783.443       -1490.629          30.000  
G25  23820707.068   125178628.152       -3880.633          35.000    23820701.671    93477552.493       -2897.133          28.000  
G26  20420326.702   107309528.958        1040.075          38.000    20420334.497    80133781.508         776.696          32.000  
G29  23728764.018   124695528.098         174.375          19.000                                                                  
G32  20799615.426   109302727.083        -736.298          39.000                                                                  
> 2021 09 30 11 27 23.9998948  0  9                     
C01  37486324.757   195200939.252        -349.719          34.000  
C06  36529764.670   190220048.8201        180.811          25.000  
C10  37352847.262   194506037.5301        515.182          19.000  
C16  36907546.937   192187278.1121        225.714          26.000  
C19  22188509.515   115541391.905       -2411.233          26.000  
C22  22332008.772   116288662.505         611.771          30.000  
G25  23821435.863   125182508.890       -3880.038          35.000    23821439.461    93480450.122       -2898.068          30.000  
G26                                                                  20420136.634    80133005.744         774.832          34.000  
G29  23728724.746   124695355.488         170.438          20.000                                                                  
> 2021 09 30 11 27 24.9998945  0  9                     
C01  37486299.875   195200820.706        -349.996          30.000  
C06  36529642.954   190219399.016         181.755          33.000  
C07  36585640.288   190511066.5371        470.546          26.000  
C16  36907413.229   192186583.656         225.956          25.000  
C19  22188881.857   115543334.653       -2411.339          33.000  
C22  22331803.114   116287582.743         610.590          34.000  
G25  23822081.916   125185917.436       -3881.236          39.000    23822087.912    93482995.260       -2897.769          32.000  
G26  20419842.537   107306978.7151       1037.659          28.000    20419849.133    80131877.398         775.458          33.000  
G29  23728604.529   124694712.022         170.437          23.000                                                                  
> 2021 09 30 11 27 25.9998943  0  9                     
C06  36529550.618   190218904.896         180.134          32.000  
C07  36585490.692   190510284.173         470.871          28.000  
C16  36907308.302   192186044.698         227.297          29.000  
C19  22189285.377   115545433.352       -2409.674          36.000  
C22  22331630.734   116286659.656         612.260          33.000  
G25  23822758.547   125189483.361       -3880.076          37.000    23822766.342    93485657.963       -2898.599          33.000  
G26                                                                  20419590.412    80130866.947         773.603          32.000  
G29  23728513.692   124694226.782         169.944          24.000                                                                  
G32  20799850.163   109304141.5021       -732.958          21.000                                                                  
> 2021 09 30 11 27 26.9998940  0 12                     
C06  36529427.703   190218255.648         181.606          30.000  
C07  36585311.716   190509345.464         470.177          29.000  
C10  37352302.539   194503245.0881        511.729          22.000  
C16  36907174.295   192185348.998         227.268          31.000  
C19  22189660.718   115547376.149       -2412.008          34.000  
C22  22331426.875   116285579.856         611.100          33.000  
C30  25695989.537   133805760.9411       1238.747          24.000  
C36  22610059.681   117736499.2901      -1492.258          26.000  
G25  23823409.697   125192892.086       -3881.249          37.000    23823414.493                       -2897.431          32.000  
G26  20419293.018   107304116.4571       1037.368          25.000    20419303.211    80129739.536         777.174          31.000  
G29  23728393.175   124693584.534         169.454          24.000                                                                  
G32  20799893.633   109304402.912        -734.598          24.000                                                                  
> 2021 09 30 11 27 27.9998940  0  9                     
C07  36585222.677   190508875.764         469.177          30.000  
C19  22190123.297   115549787.886       -2411.837          31.000  
C22  22331309.956                         610.082          32.000  
C30  25695760.795   133804521.941        1239.469          26.000  
G10  23203073.447   121932974.1881      -3883.359          25.000                                                                  
G25  23824149.584   125196773.717       -3881.983          37.000    23824153.182    93491094.3261      -2901.247          33.000  
G26  20419097.553   107303079.758        1035.585          28.000    20419105.947    80128965.510         775.135          30.000  
G29  23728363.196   124693415.241         170.989          23.000                                                                  
G32  20800046.228   109305137.903        -735.581          33.000                                                                  
> 2021 09 30 11 27 28.9998938  0  9                     
C07  36585073.381   190508094.133         469.488          30.000  
C10  37352041.120   194501910.6351        510.202          23.000  
C16  36907019.902   192184580.3881        227.160          32.000  
C22  22331133.378   116284070.6981        608.554          32.000  
C30  25695468.198   133802970.125        1238.982          25.000  
G25  23824831.612   125200340.974       -3883.174          37.000    23824831.612    93493758.183       -2899.484          31.000  
G26  20418840.631   107301729.094        1034.093          27.000    20418849.025    80127956.965         770.495          30.000  
G29  23728273.858   124692929.070         169.090          22.000                                                                  
G32  20800128.671   109305558.696        -736.801          31.000                                                                  
> 2021 09 30 11 27 29.9998935  0 12                     
C06  36529186.370   190216928.2781        182.579          27.000  
C07  36584893.205   190507155.662         470.341          31.000  
C10  37351852.551   194500932.126         510.344          23.000  
C16  36906887.094                         227.990          34.000  
C19  22190903.057   115553830.2871      -2412.079          31.000  
C22  22330930.119   116282993.979         608.438          32.000  
C30  25695151.017   133801262.529        1239.827          21.000  
G10  23204406.024   121939953.7421      -3884.136          23.000                                                                  
G25  23825483.961   125203750.753       -3882.260          37.000    23825480.963    93496304.445       -2899.675          32.000  
G26  20418556.128   107300223.128        1032.753          26.000    20418562.423    80126831.305         773.072          30.000  
G29  23728154.540   124692286.818         170.537          17.000                                                                  
G32  20800186.830   109305821.830        -735.778          31.000                                                                  
> 2021 09 30 11 27 30.9998932  0 11                     
C03  36477527.333                        -363.561          32.000  
C07  36584713.030   190506216.917         470.312          31.000  
C10  37351664.281   194499952.320         511.074          22.000  
C16  36906753.386   192183150.8651        225.817          33.000  
C22  22330713.968   116281917.924         605.902          32.000  
C36  22610954.562   117741221.4281      -1493.198          24.000  
G10  23205055.075   121943365.364       -3883.578          24.000                                                                  
G25  23826133.311   125207160.994       -3883.058          37.000    23826128.814    93498851.026       -2898.900          32.000  
G26  20418269.226   107298716.083        1035.903          23.000    20418275.822    80125706.158         771.969          31.000  
G29  23728032.225   124691643.046         171.475          17.000                                                                  
G32  20800235.397   109306085.345        -736.358          30.000                                                                  
> 2021 09 30 11 27 31.9998930  0 10                     
C01  37486301.374   195200847.4531       -348.211          32.000  
C06  36528973.518   190215781.0951        182.289          24.000  
C07  36584569.130   190505435.450         467.511          31.000  
C10  37351506.290   194499129.089         511.105          22.000  
C16  36906646.960   192182610.665         230.364          31.000  
C19  22191679.520   115557876.8631      -2414.285          20.000  
C22  22330540.988   116280998.562         606.746          32.000  
G25  23826812.041   125210728.844       -3882.852          37.000    23826807.544    93501515.305       -2901.554          30.000  
G26  20418014.103   107297365.613        1034.887          21.000    20418018.900    80124699.141         771.462          30.000  
G32  20800309.146   109306507.129        -737.549          27.000                                                                  
> 2021 09 30 11 27 32.9998927  0 12                     
C03  36477521.637   189948027.6381       -364.347          32.000  
C06  36528850.303   190215130.144         182.477          28.000  
C07  36584385.657                         468.970          32.000  
C10  37351316.821   194498149.272         511.030          21.000  
C16  36906516.250   192181914.832         226.965          31.000  
C19  22192050.663   115559823.888       -2416.730          26.000  
C22  22330335.331   116279924.026         607.438          33.000  
G10  23206390.350   121950346.5701      -3885.137          23.000                                                                  
G25  23827457.195   125214139.641       -3881.926          38.000    23827457.494    93504062.350       -2897.931          30.000  
G26  20417727.501   107295858.951        1033.255          21.000    20417733.197    80123575.182         771.811          31.000  
G29  23727824.769   124690516.9651        166.353          17.000                                                                  
G32  20800361.010   109306772.419        -738.367          25.000                                                                  
> 2021 09 30 11 27 33.9998925  0 10                     
C01  37486287.883   195200770.3981       -354.499          31.000  
C06  36528756.768   190214635.486         182.627          27.000  
C07  36584230.664   190503716.0231        466.666          30.000  
C10  37351159.430   194497326.039         510.476          24.000  
C16  36906410.424   192181374.729         225.054          29.000  
C19  22192455.982   115561929.206       -2417.414          25.000  
C22  22330156.055   116279005.882         606.363          33.000  
C30  25693935.958   133795067.5031       1238.174          23.000  
G25  23828134.126   125217708.257       -3884.909          37.000    23828136.824    93506727.316       -2900.705          30.000  
G26  20417470.279   107294511.906        1031.206          25.000    20417477.474    80122569.225         770.186          31.000  
> 2021 09 30 11 27 34.9998922  0 11                     
C01  37486267.197   195200657.272        -355.797          33.000  
C06  36528632.654   190213985.714         181.112          22.000  
C07  36584049.290   190502778.598         468.958          23.000  
C16  36906279.414   192180680.600         226.003          26.000  
C19  22192832.522   115563878.178       -2417.392          29.000  
C22  22329949.198   116277931.839         604.724          30.000  
C30  25693618.478   133793362.131        1235.870          26.000  
C36  22611808.970   117745637.3291      -1493.414          31.000  
G25  23828788.873   125221119.999       -3885.244          34.000    23828785.875    93509275.160       -2901.883          29.000  
G26  20417183.978   107293008.539        1030.316          30.000    20417191.772    80121446.311         768.457          33.000  
G29  23727643.394   124689399.8501        163.205          26.000                                                                  
> 2021 09 30 11 27 35.9998922  0 11                     
C01  37486336.149   195201012.534        -354.916          33.000  
C06  36528597.578   190213804.967         181.058          18.000  
C07  36583956.654   190502308.995         469.019          19.000  
C16  36906239.842   192180454.126         226.988          28.000  
C19  22193298.099   115566294.699       -2417.008          24.000  
C22  22329833.778   116277326.613         605.666          24.000  
C30  25693396.332   133792124.293        1237.762          23.000  
C36  22612097.071   117747131.410       -1494.253          31.000  
G25  23829525.763   125225003.424       -3883.161          31.000    23829524.264    93512174.872       -2899.805          26.000  
G26  20416987.913   107291978.278        1029.820          36.000    20416994.809    80120676.687         767.270          35.000  
G29  23727632.002   124689547.867         162.864          24.000                                                                  
> 2021 09 30 11 27 36.9998920  0 12                     
C01  37486343.944   195201054.956        -354.570          33.000  
C06  36528501.944   190213310.912         181.899          26.000  
C07  36583809.156   190501527.422         468.988          28.000  
C10  37350718.735   194495016.8361        508.846          19.000  
C16  36906137.313   192179915.064         226.125          22.000  
C22  22329658.399   116276409.401         604.422          31.000  
C36  22612326.412   117748314.086       -1495.318          29.000  
G10  23209115.164   121964787.5811      -3886.922          22.000                                                                  
G25  23830205.992   125228572.429       -3883.141          35.000    23830202.994    93514838.900       -2900.089          28.000  
G26  20416733.090   107290633.373        1029.508          28.000    20416738.486    80119672.252         770.341          34.000  
G29  23727550.459   124689069.954         162.743          25.000                                                                  
G32  20800723.459   109308628.0781       -740.197          29.000                                                                  
> 2021 09 30 11 27 37.9998917  0  9                     
C01  37486320.260   195200940.418        -352.817          33.000  
C03  36477586.093   189948354.2781       -362.068          29.000  
C06  36528376.631   190212660.771         182.338          30.000  
C07  36583631.979   190500590.223         468.878          29.000  
C22  22329453.041   116275337.108         604.235          33.000  
C36  22612525.474   117749341.238       -1495.433          28.000  
G25  23830850.845   125231984.137       -3883.675          36.000    23830852.344    93517386.056       -2901.008          30.000  
G26  20416444.390   107289131.873        1028.790          24.000    20416452.784    80118550.561         767.510          33.000  
G29  23727446.131   124688434.568         162.618          25.000                                                                  
> 2021 09 30 11 27 38.9998915  0 11                     
C01  37486325.057   195200980.182        -351.192          33.000  
C06  36528280.098   190212166.396         181.662          26.000  
C07  36583483.581   190499809.430         467.501          29.000  
C10  37350374.274   194493216.9341        510.747          20.000  
C16  36905894.481   192178679.0791        229.127          21.000  
C19  22194466.391   115572451.8791      -2417.330          28.000  
C22  22329276.464   116274422.279         602.214          31.000  
C36  22612754.816   117750523.652       -1494.396          29.000  
G25  23831525.378   125235553.423       -3883.861          34.000    23831531.374    93520051.272       -2900.993          29.000  
G26  20416186.868   107287788.007        1028.941          25.000    20416196.761    80117547.140         768.604          33.000  
G29  23727373.281   124687956.893         162.241          28.000                                                                  
> 2021 09 30 11 27 39.9998912  0 12                     
C01  37486302.273   195200864.413        -360.607          33.000  
C06  36528155.384   190211516.908         179.973          26.000  
C07  36583304.605   190498873.970         467.173          30.000  
C10  37350182.407   194492238.418         509.863          23.000  
C16  36905760.773   192177981.834         228.856          28.000  
C19  22194842.330   115574400.758       -2417.660          26.000  
C22  22329071.106   116273351.475         602.417          33.000  
C36  22612952.679   117751550.162       -1495.040          29.000  
G25  23832176.528   125238965.612       -3884.236          37.000    23832180.725    93522598.800       -2900.881          29.000  
G26                                                                  20415911.359    80116426.645         767.952          33.000  
G29  23727274.949   124687671.459         161.241          25.000                                                                  
G32  20800908.131   109309590.7331       -743.476          25.000                                                                  
> 2021 09 30 11 27 40.9998909  0 11                     
C06  36528029.471   190210868.303         180.193          28.000  
C07  36583125.329   190497938.343         467.275          30.000  
C10  37349995.336   194491260.115         510.862          24.000  
C16  36905626.466   192177285.122         228.059          30.000  
C19  22195217.371   115576350.885       -2419.276          32.000  
C22  22328865.148   116272281.104         601.404          33.000  
C30  25691803.235   133783913.3971       1235.197          24.000  
G10  23211744.943   121978599.4471      -3886.162          26.000                                                                  
G25  23832826.777   125242378.049       -3884.687          37.000    23832830.675    93525146.673       -2900.728          31.000  
G26                                                                  20415626.256    80115306.548         766.813          32.000  
G29  23727158.630   124687037.789         160.651          19.000                                                                  
> 2021 09 30 11 27 41.9998907  0 10                     
C06  36527934.137   190210375.530         180.891          30.000  
C07  36582975.733   190497159.286         466.581          29.000  
C10  37349836.446   194490436.551         511.457          25.000  
C16  36905522.438   192176745.388         226.971          30.000  
C22  22328692.468                         599.754          33.000  
C36  22613376.285   117753760.7861      -1494.603          28.000  
G10  23212423.973   121982170.744       -3887.333          26.000                                                                  
G25  23833506.407   125245948.304       -3886.424          37.000    23833510.604    93527813.154       -2902.374          31.000  
G26  20415359.441   107283444.0971       1026.499          23.000    20415371.432    80114304.636         765.337          33.000  
G29  23727060.298   124686562.187         160.238          20.000                                                                  
> 2021 09 30 11 27 42.9998907  0 11                     
C01  37486352.338   195201133.2521       -348.550          27.000  
C07  36582886.695   190496692.085         467.330          26.000  
C16  36905478.669   192176518.345         226.452          27.000  
C19  22196086.469   115580877.6831      -2419.872          26.000  
C22  22328571.352   116270761.4651        599.593          33.000  
C30  25691259.411   133781130.1311       1235.982          27.000  
G10  23213164.760   121986057.947       -3887.096          22.000                                                                  
G25  23834244.196   125249833.876       -3886.079          38.000    23834249.592    93530714.739       -2900.817          31.000  
G26  20415163.077   107282417.535        1025.788          25.000    20415176.268    80113538.543         765.659          33.000  
G29  23727035.115   124686401.693         160.201          27.000                                                                  
G32  20801183.940   109311030.8441       -743.058          31.000                                                                  
> 2021 09 30 11 27 43.9998904  0 10                     
C01  37486329.854   195201013.552        -348.954          34.000  
C06  36527768.052   190209546.2051        178.666          18.000  
C16  36905345.261   192175822.579         229.616          25.000  
C22  22328358.799   116269693.215         599.240          31.000  
C30  25690937.734   133779426.053        1236.202          27.000  
G10  23213808.415   121989470.070       -3886.249          21.000                                                                  
G25  23834893.247   125253246.787       -3886.448          39.000    23834898.043    93533262.639       -2901.350          28.000  
G26                                                                  20414890.865    80112419.952         763.087          35.000  
G29  23726931.687   124685769.260         159.325          28.000                                                                  
G32  20801232.506   109311301.510        -743.404          34.000                                                                  
> 2021 09 30 11 27 44.9998902  0 11                     
C01  37486337.049   195201050.295        -349.399          34.000  
C07  36582549.428   190494975.1271        466.975          25.000  
C10  37349396.651   194488121.3471        508.996          20.000  
C16  36905242.133   192175281.010         228.382          24.000  
C19  22196871.925   115584939.0381      -2421.804          26.000  
C22  22328192.114   116268781.736         599.419          29.000  
C30  25690643.038   133777877.872        1235.419          28.000  
C36  22614073.902   117757465.7131      -1497.016          27.000  
G25  23835572.576   125256817.642       -3884.394          39.000    23835577.373    93535928.954       -2901.789          27.000  
G26  20414623.750   107279579.6901       1024.052          31.000    20414634.842    80111419.471         765.342          34.000  
G32  20801336.235   109311730.724        -744.802          29.000                                                                  
> 2021 09 30 11 27 45.9998899  0 11                     
C01  37486314.864   195200931.088        -349.212          32.000  
C06  36527539.611   190208406.3891        180.896          20.000  
C07  36582367.454   190494040.481         466.480          25.000  
C10  37349211.079   194487145.224         506.153          20.000  
C19  22197249.964   115586892.687       -2422.110          25.000  
C22  22327991.553   116267714.792         598.070          31.000  
C36  22614270.566   117758494.635       -1497.273          24.000  
G25  23836223.426   125260231.180       -3886.128          39.000    23836227.023    93538477.273       -2900.693          28.000  
G26  20414339.547   107278083.307        1023.499          30.000    20414350.939    80110302.061         764.678          32.000  
G29  23726734.124   124684663.1541        158.472          27.000                                                                  
G32  20801410.283   109312003.157        -745.408          33.000                                                                  
> 2021 09 30 11 27 46.9998897  0  8                     
C01  37486322.059   195200968.111        -349.627          30.000  
C06  36527443.677   190207913.570         181.824          20.000  
C07  36582217.858   190493262.321         465.198          27.000  
C10  37349048.592   194486325.875         507.657          23.000  
C22  22327816.474   116266804.509         596.270          30.000  
C30  25690020.369   133774626.5691       1234.704          26.000  
G25  23836903.955   125263802.498       -3888.369          39.000    23836907.252    93541143.727       -2902.504          29.000  
G26  20414085.623   107276744.917        1022.857          30.000    20414096.415    80109302.609         764.828          32.000  
> 2021 09 30 11 27 47.9998897  0  9                     
C01  37486388.913   195201317.896        -350.153          33.000  
C06  36527405.903   190207731.206         181.844          19.000  
C07  36582128.519   190492797.560         464.012          26.000  
C10  37348950.560   194485817.606         507.751          21.000  
C22  22327703.453   116266207.026         596.272          29.000  
C30  25689785.631   133773391.922        1234.449          27.000  
G25  23837644.142   125267689.075       -3887.156          36.000    23837647.740    93544045.806       -2901.899          29.000  
G26  20413891.957   107275722.718        1021.725          26.000    20413901.850    80108538.990         763.510          34.000  
G29  23726620.203   124684032.2961        157.404          27.000                                                                  
> 2021 09 30 11 27 48.9998894  0  8                     
C06  36527282.089   190207080.422         182.062          18.000  
C07  36581951.342   190491864.595         465.146          26.000  
C10  37348762.590   194484840.767         507.514          23.000  
C16  36904838.012   192173122.6741        226.946          28.000  
C22  22327495.397   116265142.073         596.540          30.000  
C30  25689461.256   133771688.779        1235.027          26.000  
G25  23838293.493   125271103.392       -3886.285          37.000    23838297.390    93546595.055       -2902.418          29.000  
G26  20413607.454   107274228.117        1022.659          26.000    20413617.047    80107423.040         762.312          34.000  
> 2021 09 30 11 27 49.9998892  0 11                     
C01  37486371.525   195201237.9331       -350.586          31.000  
C06  36527198.747   190206588.782         176.565          18.000  
C07  36581803.245   190491086.416         466.047          29.000  
C10  37348605.498   194484020.556         507.609          23.000  
C16  36904737.282   192172583.782         226.456          30.000  
C19  22198911.413   115595484.2911      -2423.658          21.000  
C22  22327321.517   116264234.012         594.871          29.000  
C30  25689165.061   133770142.629        1233.953          26.000  
G25  23838974.022   125274675.857       -3886.592          39.000    23838977.319    93549262.199       -2902.560          29.000  
G26  20413353.230   107272891.273        1021.367          28.000    20413362.823    80106425.514         761.661          33.000  
G31  21247073.657   111653943.0751       -889.227          26.000                                                                  
> 2021 09 30 11 27 50.9998889  0  8                     
C01  37486348.741   195201120.703        -351.317          32.000  
C07  36581623.069   190490152.352         465.377          26.000  
C10  37348418.728   194483044.436         507.937          22.000  
C22  22327115.560   116263170.353         595.558          29.000  
C36  22615420.870   117764420.3511      -1498.061          28.000  
G25  23839625.171   125278090.777       -3886.677          39.000    23839627.569    93551812.735       -2903.506          29.000  
G26  20413069.326   107271397.829        1021.782          26.000    20413079.519    80105310.694         763.122          34.000  
G29  23726304.521   124682572.3811        154.222          28.000                                                                  
> 2021 09 30 11 27 51.9998886  0  9                     
C01  37486326.256   195201003.616        -351.395          34.000  
C06  36526940.625   190205293.9371        179.295          13.000  
C07  36581443.194   190489218.529         465.422          26.000  
C10  37348232.856   194482066.517         511.013          21.000  
C22  22326912.600   116262107.096         595.862          30.000  
G25  23840274.222   125281505.850       -3889.651          39.000    23840277.819    93554362.874       -2903.391          29.000  
G26  20412783.024   107269903.936        1020.019          22.000    20412795.016    80104196.275         760.864          34.000  
G29  23726192.998   124681945.846         153.992          25.000                                                                  
G31  21247231.648   111654777.5811       -890.099          23.000                                                                  
> 2021 09 30 11 27 52.9998884  0  8                     
C01  37486334.351   195201042.727        -351.563          33.000  
C06  36526844.692   190204801.246         180.493          14.000  
C07  36581293.897   190488441.439         465.211          26.000  
C10  37348074.266   194481245.346         506.100          22.000  
C22  22326737.221   116261200.573         592.479          29.000  
G25  23840954.151   125285078.652       -3888.284          39.000    23840958.048    93557031.355       -2904.105          29.000  
G26  20412525.503   107268567.786        1020.676          21.000    20412540.492    80103199.996         760.225          33.000  
G29  23726089.270   124681477.454         151.526          25.000                                                                  
> 2021 09 30 11 27 53.9998881  0  7                     
C01  37486312.466   195200925.762        -351.474          34.000  
C07  36581114.621   190487508.885         462.731          26.000  
C22  22326533.962   116260138.659         592.102          29.000  
G25  23841604.401   125288494.221       -3888.349          38.000    23841607.698    93559582.280       -2904.340          30.000  
G26  20412242.499   107267075.337        1018.436          26.000    20412257.488    80102086.740         759.828          34.000  
G29  23725950.166   124680852.139         152.544          23.000                                                                  
G31  21247415.121   111655771.2191       -890.961          23.000                                                                  
> 2021 09 30 11 27 54.9998879  0  8                     
C01  37486320.260   195200964.923        -351.557          34.000  
C10  37347734.002   194479454.5151        504.477          20.000  
C19  22200830.685   115605590.6351      -2427.792          23.000  
C22  22326360.982   116259233.535         594.623          29.000  
C36  22616262.387   117768853.4051      -1498.704          29.000  
G25  23842283.131   125292067.626       -3888.753          39.000    23842287.628    93562251.013       -2903.065          30.000  
G26  20411987.075   107265742.498        1016.161          25.000    20412003.264    80101091.564         758.921          34.000  
G29  23725838.943   124680384.070         152.075          24.000                                                                  
> 2021 09 30 11 27 55.9998876  0 10                     
C01  37486298.076   195200848.063        -351.641          34.000  
C06  36526494.534   190203008.5531        180.504          14.000  
C07  36580786.948   190485803.5121        461.469          25.000  
C16  36904017.181   192168724.3861        227.094          27.000  
C19  22201203.627   115607549.502       -2426.314          24.000  
C22  22326157.123   116258172.838         589.483          29.000  
G25  23842933.680   125295483.651       -3889.153          39.000    23842937.278    93564801.519       -2903.608          30.000  
G26  20411702.273   107264254.758        1014.222          23.000    20411720.560    80099979.335         758.238          33.000  
G29  23725696.542   124679376.992         153.365          23.000                                                                  
G31  21247599.793   111656772.2491       -899.530          15.000                                                                  
> 2021 09 30 11 27 56.9998874  0 11                     
C01  37486305.571   195200887.213        -351.361          33.000  
C06  36526399.200   190202519.100         175.511          15.000  
C07  36580637.652   190485029.552         461.802          26.000  
C16  36903918.249   192168185.548         225.624          28.000  
C19  22201605.348   115609662.580       -2424.815          21.000  
C22  22325985.042   116257268.870         590.173          28.000  
G10  23222585.139   122035282.6501      -3890.184          21.000                                                                  
G25                                                                  23843617.207    93567470.156       -2903.475          29.000  
G26  20411446.250   107262924.746        1015.491          24.000    20411466.636    80098985.244         759.797          33.000  
G29  23725594.613   124678909.803         151.436          21.000                                                                  
G32  20802329.147   109316978.2851       -751.137          31.000                                                                  
> 2021 09 30 11 27 57.9998871  0  9                     
C01  37486283.386   195200770.269        -351.576          33.000  
C07  36580456.877   190484099.054         463.454          26.000  
C10  37347201.570   194476692.3261        505.627          20.000  
C16  36903789.038   192167491.083         225.968          28.000  
C19  22201979.789   115611620.249       -2426.370          23.000  
C22  22325777.586   116256210.548         591.979          28.000  
G25  23844262.660   125302474.0171      -3888.956          38.000    23844267.457    93570021.230       -2904.544          30.000  
G26  20411161.447   107261435.904        1016.368          24.000    20411183.332    80097873.951         759.059          33.000  
G31  21247775.471   111657781.3761       -897.232          16.000                                                                  
> 2021 09 30 11 27 58.9998871  0  6                     
C01  37486351.739   195201121.553        -351.361          33.000  
C16  36903750.065   192167265.345         225.124          27.000  
C22  22325663.065   116255619.499         590.024          28.000  
C30  25686395.279   133755768.6291       1228.184          25.000  
G25  23845000.749   125306363.247       -3890.419          38.000    23845007.945    93572925.232       -2903.293          30.000  
G26  20410967.481   107260419.582        1016.012          27.000    20410990.565    80097116.019         756.775          34.000  
> 2021 09 30 11 27 59.9998871  0  8                     
C01  37486420.091   195201472.757        -351.306          33.000  
C16  36903709.893   192167302.042         224.411          26.000  
C19  22202910.945   115616477.1461      -2430.328          23.000  
C22  22325547.045   116255029.326         589.967          26.000  
C30  25686159.342   133754539.516        1230.478          23.000  
C36  22617473.849   117775105.7671      -1502.205          29.000  
G25  23845741.537   125310253.108       -3890.539          37.000    23845748.132    93575830.010       -2906.716          30.000  
G26                                                                  20410797.799    80096358.854         757.539          34.000  
> 2021 09 30 11 28 00.9998868  0  7                     
C01  37486398.506   195201355.790        -351.655          33.000  
C07  36580098.325   190482238.7261        461.963          24.000  
C16  36903580.383   192166608.704         225.593          26.000  
C36  22617669.313   117776139.316       -1502.045          27.000  
G25                                                                  23846398.682    93578382.533       -2905.231          31.000  
G26                                                                  20410515.094    80095249.115         754.864          34.000  
G32  20802680.804   109319043.6641       -754.270          30.000                                                                  
> 2021 09 30 11 28 01.9998866  0  8                     
C01  37486406.601   195201395.156        -351.954          32.000  
C07  36579950.527   190481464.175         461.214          24.000  
C16  36903480.852   192166070.041         227.190          26.000  
C19  22203697.300   115620560.8511      -2433.420          22.000  
C30  25685536.673   133751294.7631       1232.828          21.000  
G10  23226059.434   122053766.2111      -3890.731          21.000                                                                  
