     3.03           OBSERVATION DATA    M: Mixed            RINEX VERSION / TYPE
Geo++ RINEX Logger  Geo++               20210930 111604 UTC PGM / RUN BY / DATE
************************************************************COMMENT
This file was generated by the Geo++ RINEX Logger App       COMMENT
for Android devices (Version 2.1.6). If you encounter       COMMENT
any issues, please send an email to android@geopp.de        COMMENT
Filtering Mode: BEST                                        COMMENT
************************************************************COMMENT
Geo++                                                       MARKER NAME
GEODETIC                                                    MARKER TYPE
Geo++               Geo++                                   OBSERVER / AGENCY
unknown             HUAWEI              ELS-AN00            REC # / TYPE / VERS
unknown             ELS-AN00                                ANT # / TYPE
 -2418823.9076  5385593.4840  2405545.9922                  APPROX POSITION XYZ
        0.0000        0.0000        0.0000                  ANTENNA: DELTA H/E/N
G    8 C1C L1C D1C S1C C5Q L5Q D5Q S5Q                      SYS / # / OBS TYPES
R    4 C1C L1C D1C S1C                                      SYS / # / OBS TYPES
E   12 C1B L1B D1B S1B C1C L1C D1C S1C C5Q L5Q D5Q S5Q      SYS / # / OBS TYPES
C    4 C2I L2I D2I S2I                                      SYS / # / OBS TYPES
J    8 C1C L1C D1C S1C C5Q L5Q D5Q S5Q                      SYS / # / OBS TYPES
  2021     9    30    11    16   22.8682691     GPS         TIME OF FIRST OBS
 24 R01  1 R02 -4 R03  5 R04  6 R05  1 R06 -4 R07  5 R08  6 GLONASS SLOT / FRQ #
    R09 -2 R10 -5 R11  0 R12 -1 R13 -2 R14 -7 R15  0 R16 -1 GLONASS SLOT / FRQ #
    R17  4 R18 -3 R19  3 R20  2 R21  4 R22 -3 R23  3 R24  2 GLONASS SLOT / FRQ #
G L1C                                                       SYS / PHASE SHIFT
G L5Q -0.25000                                              SYS / PHASE SHIFT
R L1C                                                       SYS / PHASE SHIFT
E L1B                                                       SYS / PHASE SHIFT
E L1C +0.50000                                              SYS / PHASE SHIFT
E L5Q -0.25000                                              SYS / PHASE SHIFT
C L2I                                                       SYS / PHASE SHIFT
J L1C                                                       SYS / PHASE SHIFT
J L5Q -0.25000                                              SYS / PHASE SHIFT
 C1C    0.000 C1P    0.000 C2C    0.000 C2P    0.000        GLONASS COD/PHS/BIS
                                                            END OF HEADER
> 2021  9 30 11 16 22.8682691  3  1
Geo++                                                       MARKER NAME
> 2021  9 30 11 16 22.8682691  0  4
C06  36675482.092                           0.000          38.000  
C19  22222817.763                           0.000          34.000  
C36  22241979.298                           0.000          35.000  
J020498977533.030                           0.000          39.000  
> 2021  9 30 11 17 10.6329705  0  4
C06  37793486.114                         237.956          37.000  
C19  23164047.364                       -2057.451          35.000  
C36  23683250.427                       -1307.450          36.000  
J02  40084122.340                       -1083.954          40.000  
> 2021  9 30 11 17 11.6329705  0  4
C06  37793440.546                         237.892          38.000  
C19  23164446.088                       -2060.403          34.000  
C36  23683498.655                       -1308.184          36.000  
J02  40084328.597                       -1084.515          41.000  
> 2021  9 30 11 17 12.6329705  0  3
C06  37793392.579                         237.667          39.000  
C36  23683751.980                       -1309.224          39.000  
J02  40084535.454                       -1084.558          40.000  
> 2021  9 30 11 17 13.6329705  0  6
C06  37793344.612                         237.846          38.000  
C19  23165233.942                       -2059.291          32.000  
C36  23684004.105                       -1308.371          39.000  
E08  23002729.342                        -379.762          39.000  
G26  21805005.709                        1473.852          39.000  
J02  40084739.612                       -1083.379          40.000    40084751.004                        -810.479          31.000  
> 2021  9 30 11 17 14.6329705  0  7
C06  37793299.343                         236.436          38.000  
C19  23165629.968                       -2060.649          33.000  
C36  23684259.528                       -1308.099          40.000  
E08  23002801.892                        -379.632          39.000  
G10  23999204.996                       -3702.519          36.000  
G26  21804715.210                        1473.195          37.000  
J02  40084947.668                       -1085.156          38.000    40084956.662                        -810.669          32.000  
> 2021  9 30 11 17 15.6329705  0  8
C06  37793253.775                         237.088          38.000  
C164056449099.279                           0.000          38.000  
C19  23166029.292                       -2062.174          33.000  
C36  23684512.253                       -1310.754          40.000  
E08  23002875.641                        -381.088          41.000  
G10  23999909.209                       -3704.561          36.000  
G26  21804436.703                        1470.694          36.000  
J02  40085153.026                       -1086.354          41.000    40085162.919                        -811.227          35.000  
> 2021  9 30 11 21  0.9999706  0 13
C01  37485770.441   195198243.7071       -280.714          41.000  
C04  38370738.890   199806507.2681       -260.355          33.000  
C07  36647401.132   190832635.2801        588.773          31.000  
C16  36948773.496   192401960.5011        279.283          36.000  
C19  22042217.690   114779611.8441      -2179.719          30.000  
C22  22409041.643   116689760.4551        868.319          26.000  
C36  22526851.685   117303228.8971      -1367.248          34.000  
G10  22944244.630   120572819.7741      -3763.879          23.000  
G25  23565569.596   123837904.4051      -3758.231          30.000  
G26  20528872.557   107879953.9181       1325.999          38.000    20528876.754    80559721.9541        989.613          33.000  
G31  21206544.715   111441144.6781       -772.494          17.000  
G32  20777363.930   109185784.6121       -501.430          31.000  
J02  38916409.430   204507112.5021      -1102.372          21.000    38916428.317   152716423.9231       -820.492          36.000  
> 2021  9 30 11 21  1.9999703  0 16
C01  37485732.068   195198055.659        -280.396          40.000  
C04  38370700.817   199806300.066        -261.994          32.000  
C07  36647197.873   190831578.137         588.293          31.000  
C16  36948627.497   192401214.020         278.235          37.000  
C19  22042545.363   114781323.578       -2180.486          29.000  
C36  22527022.867   117304127.975       -1368.191          33.000  
G10  22944890.383   120576110.181       -3762.720          24.000  
G25  23566194.363   123841189.313       -3757.456          30.000  
G26  20528530.794   107878156.663        1323.850          38.000    20528534.092    80558379.941         989.572          34.000  
G29  23772794.237   124926877.4651        420.270          27.000  
G31  21206610.069   111441442.555        -769.441          18.000  
G32  20777381.918   109185813.324        -501.643          27.000  
J02  38916544.637   204507740.209       -1099.445          22.000    38916547.635   152716892.865        -822.101          35.000  
R04  19500644.685   104425067.4601      -1598.573          27.000  
R14  22482975.560   119846912.1621      -3598.522          30.000  
R15  19888864.526   106280062.0871      -1674.178          30.000  
> 2021  9 30 11 21  2.9999700  0 13
C01  37485695.193   195197867.711        -280.290          39.000  
C04  38370662.443   199806094.685        -264.516          30.000  
C07  36646991.616                         587.052          32.000  
C16  36948490.492   192400467.175         279.754          35.000  
C19  22042872.437   114783036.887       -2182.240          30.000  
C30  25813711.439   134418769.8581       1339.352          13.000  
C36  22527193.448   117305027.207       -1367.104          36.000  
G10  22945519.647   120579400.101       -3762.558          25.000  
G26  20528186.632   107876360.381        1324.288          38.000    20528192.928    80557038.554         987.919          34.000  
G32  20777385.515   109185842.930        -502.732          39.000  
J01  36567844.608   192165320.6801        553.678          32.000  
J02  38916664.254   204508368.073       -1101.050          30.000    38916668.451   152717362.106        -819.215          37.000  
R14  22483560.155   119850027.831       -3599.263          22.000  
> 2021  9 30 11 21  3.9999698  0 11
C01  37485694.893   195197836.275        -281.554          39.000  
C07  36646821.933   190829602.6741        587.538          30.000  
C16  36948375.372   192399876.804         276.724          21.000  
C19  22043230.389   114784907.270       -2183.067          30.000  
C36  22527396.708   117306082.644       -1367.550          33.000  
G10  22946175.893   120582847.762       -3763.511          22.000  
G26  20527872.749   107874722.568        1321.671          39.000    20527882.643    80555815.426         987.983          36.000  
G31  21206755.469   111442198.7781       -774.605          20.000  
J01  36567666.531   192164452.907         551.739          38.000  
J02                                                                  38916818.647   152717949.141        -821.958          33.000  
R04  19501091.975   104427462.4651      -1599.959          28.000  
> 2021  9 30 11 21  4.9999698  0 13
C01  37485748.256   195198118.070        -281.785          37.000  
C07  36646713.108   190829015.080         590.991          30.000  
C16  36948316.013   192399600.003         276.616          24.000  
C19  22043647.400   114787090.562       -2183.240          31.000  
C36  22527662.024   117307450.992       -1369.323          31.000  
G10  22946898.093   120586612.594       -3765.907          22.000  
G25  23568196.977   123851675.5481      -3758.926          28.000  
G26  20527626.620   107873400.033        1326.212          39.000    20527631.416    80554828.086         989.255          36.000  
G32  20777504.233                        -507.148          38.000  
J02                                                                  38917028.202   152718772.032        -822.949          34.000  
J03  37317006.774   196102194.6431       -185.055          17.000  
R04  19501395.065   104429085.498       -1601.018          27.000  
R14  22484840.569   119856852.9431      -3600.016          29.000  
> 2021  9 30 11 21  5.9999695  0 12
C01  37485709.883   195197931.468        -281.690          40.000  
C07  36646511.048   190827958.913         587.111          23.000  
C16  36948171.513   192398855.090         276.322          31.000  
C36  22527834.405   117308352.053       -1369.631          34.000  
G10  22947520.762   120589905.728       -3765.888          24.000  
G25  23568824.442   123854961.957       -3759.520          31.000  
G26  20527286.655   107871605.110        1320.731          33.000    20527286.955    80553488.757         986.533          30.000  
G32  20777521.921   109186555.1031       -502.497          42.000  
J02  38917141.823   204510884.9211      -1101.952          36.000    38917146.320   152719241.965        -822.411          33.000  
J03  37316953.111   196101908.022        -186.561          17.000  
R04  19501605.519   104430212.682       -1602.415          32.000  
R14  22485422.166   119859953.218       -3602.018          25.000  
> 2021  9 30 11 21  6.9999693  0 15
C01  37485702.688   195197900.722        -280.861          37.000  
C07  36646337.768   190827060.150         585.298          24.000  
C16  36948057.592   192398266.524         275.934          34.000  
C22  22407647.608   116682540.9891        862.071          27.000  
C30  25812482.590   134412325.3501       1337.905          24.000  
C36  22528034.067   117309408.949       -1369.566          36.000  
G10  22948176.408   120593356.081       -3765.401          24.000  
G25  23569484.286   123858406.612       -3759.884          24.000  
G26  20526974.871   107869969.726        1319.536          35.000    20526975.171    80552267.427         984.079          30.000  
G31  21207062.456   111443723.2561       -770.559          20.000  
G32  20777549.802   109186747.162        -505.739          37.000  
J01  36567185.664   192162011.0141        550.364          31.000  
J02  38917290.820                       -1102.374          35.000    38917295.017   152719831.155        -823.658          33.000  
R04  19501846.553   104431502.837       -1604.348          34.000  
R14  22486040.638   119863250.372       -3603.366          26.000  
> 2021  9 30 11 21  7.9999693  0 15
C01  37485756.950   195198181.487        -280.581          31.000  
C07  36646225.346   190826474.485         586.042          21.000  
C16  36948003.929   192397990.492         278.853          31.000  
C19  22044757.232   114792863.4031      -2184.569          25.000  
C22  22407483.622   116681678.721         861.600          25.000  
C36  22528296.085                       -1372.388          36.000  
G10  22948893.811   120597122.016       -3766.304          26.000  
G26  20526725.144   107868649.981        1319.182          31.000    20526725.144    80551283.788         983.418          26.000  
G31  21207213.851   111444493.934        -770.582          20.000  
G32  20777644.236   109187254.377        -507.261          36.000  
J01  36567083.135   192161459.662         551.811          29.000  
J02  38917499.476   204512845.4391      -1102.245          33.000    38917504.272   152720654.552        -822.042          32.000  
R04  19502141.249   104433081.715       -1605.401          32.000  
R14  22486714.272   119866841.698       -3604.836          28.000  
R15  19890432.140   106288438.7691      -1677.965          25.000  
> 2021  9 30 11 21  8.9999690  0 15
C01  37485722.774   195197994.135        -281.145          27.000  
C07  36646022.087   190825421.118         584.855          23.000  
C16  36947861.828   192397244.333         275.808          30.000  
C19  22045085.805   114794578.204       -2182.389          24.000  
C22  22407229.398   116680348.744         860.682          23.000  
C36  22528467.866   117311650.0551      -1370.971          39.000  
G10  22949544.661   120600415.880       -3766.538          23.000  
G25  23570823.159   123865455.7481      -3761.510          30.000  
G26  20526385.479   107866858.152        1318.556          28.000    20526386.378    80549948.111         982.987          24.000  
G32  20777650.232   109187289.137        -507.538          35.000  
J01  36566890.668   192160435.999         549.448          26.000  
J02  38917618.194   204513475.285       -1103.915          37.000    38917623.890   152721124.250        -823.330          31.000  
R04  19502351.703   104434208.383       -1607.305          30.000  
R14  22487302.165   119869974.961       -3602.571          30.000  
R15  19890655.486   106289632.616       -1681.397          25.000  
> 2021  9 30 11 21  9.9999688  0 12
C01  37485718.877   195197963.495        -282.403          33.000  
C07  36645847.907   190824524.540         583.031          22.000  
C16  36947748.806   192396656.906         273.759          33.000  
C36  22528671.425   117312709.518       -1372.804          31.000  
G10  22950207.202   120604153.695       -3768.188          25.000  
G25  23571479.404   123868902.644       -3763.078          26.000  
G26                                                                  20526076.093    80548729.255         984.729          20.000  
G31  21207358.651   111445247.5411       -771.908          20.000  
J01  36566728.481   192159572.193         547.996          27.000  
J02  38917769.889                       -1105.589          38.000    38917773.186   152721712.664        -824.259          31.000  
R14  22487917.639   119873255.547       -3603.769          33.000  
R15  19890902.815   106290953.986       -1686.772          24.000  
> 2021  9 30 11 21 10.9999685  0 11
C16  36947606.404   192395914.994         272.761          31.000  
C19  22045783.722   114798172.8901      -2190.917          25.000  
C36  22528845.905   117313615.019       -1374.562          35.000  
G10  22950857.452   120607449.640       -3768.966          28.000  
G25  23571894.917   123871144.511       -3763.168          30.000  
G26  20525738.227   107863437.4231       1314.738          30.000    20525737.028    80547393.529         980.928          26.000  
G29  23771497.635   124920313.2821        408.962          29.000  
G31  21207416.811   111445549.106        -776.718          19.000  
J02  38917893.703                       -1104.804          35.000    38917891.604   152722184.366        -825.338          28.000  
R04  19502810.685   104436665.9521      -1612.796          26.000  
R15  19891127.959   106292157.559       -1683.631          15.000  
> 2021  9 30 11 21 11.9999685  0 11
C16  36947553.041   192395643.080         270.820          28.000  
C30  25810968.938   134404401.9921       1329.500          14.000  
C36  22529113.319   117314990.088       -1374.685          34.000  
G25  23572615.018   123874908.053       -3764.839          29.000  
G26  20525486.102   107862123.383        1313.333          28.000    20525488.200    80546413.119         980.618          27.000  
G32  20777789.935   109188028.6481       -510.951          27.000  
J01  36566440.080   192158007.7571        542.598          23.000  
J02  38918108.654                       -1104.415          33.000    38918099.660   152723010.657        -828.695          24.000  
R04  19503111.377   104438276.367       -1613.360          26.000  
R14  22489176.767   119879967.5991      -3604.178          31.000  
R15  19891443.640   106293844.260       -1682.995          19.000  
> 2021  9 30 11 21 12.9999683  0 10
C19  22046559.285   114802249.5261      -2194.698          19.000  
C30  25810658.353   134402758.213        1328.254          15.000  
C36  22529319.277   117316051.640       -1373.758          35.000  
G10  22952255.084   120614674.2251      -3770.585          31.000  
G25  23573275.161   123878358.147       -3765.751          30.000  
G26  20525172.819   107860495.926        1311.260          26.000    20525178.814    80545197.033         981.487          26.000  
J02  38918254.053   204516791.2321      -1105.497          33.000    38918249.556   152723606.295        -832.702          21.000  
R04  19503354.209   104439576.225       -1615.754          24.000  
R14  22489794.040   119883258.644       -3604.696          31.000  
R15  19891699.963   106295213.831       -1684.717          26.000  
> 2021  9 30 11 21 13.9999680  0 11
C01  37485705.986   195197852.2171       -286.811          32.000  
C16  36947293.721   192394319.6881        271.746          27.000  
C19  22046887.557   114803977.100       -2197.742          18.000  
C30  25810315.990   134400961.603        1330.722          14.000  
C36  22529496.154                       -1376.264          35.000  
G10  22952901.137   120618310.255       -3770.931          28.000  
G25  23573904.426   123881651.255       -3765.994          31.000  
G26                                                                  20524840.049    80543862.935         980.556          26.000  
J01  36566102.514   192156133.3101        544.828          21.000  
J02                                                                  38918371.572   152724084.686        -829.904          22.000  
R14  22490383.132   119886398.014       -3605.304          31.000  
> 2021  9 30 11 21 14.9999677  0 13
C01  37485673.308   195197671.086        -287.773          36.000  
C07  36644980.908   190819899.2881        579.029          23.000  
C16  36947151.619   192393579.675         271.416          28.000  
C30  25809979.023   134399161.624        1330.385          15.000  
C36  22529666.436                       -1376.994          35.000  
G10  22953556.184   120621608.291       -3770.465          23.000  
G25  23574535.189   123884944.794       -3766.472          29.000  
G26  20524496.487   107856928.9551       1309.850          25.000    20524503.082    80542529.493         980.170          24.000  
G32  20777847.196   109188307.7251       -513.717          34.000  
J02  38918494.187   204518059.3911      -1107.560          35.000    38918493.887   152724560.234        -826.812          21.000  
R04  19503775.117   104441830.8551      -1615.443          23.000  
R14  22490970.125   119889527.582       -3604.787          25.000  
R15  19892149.052   106297613.8131      -1684.819          25.000  
> 2021  9 30 11 21 15.9999677  0 13
C01  37485731.168   195197959.082        -288.371          37.000  
C07  36644869.085   190819320.433         578.273          23.000  
C22  22405717.844   116672321.3251        855.579          23.000  
C36  22529929.055   117319283.1231      -1374.417          35.000  
G10  22954305.065   120625687.371       -3771.590          22.000  
G25  23575252.292   123888711.237       -3766.530          28.000  
G26  20524250.057   107855619.271        1309.414          31.000    20524253.955    80541550.420         977.279          24.000  
G29  23770846.785   124916643.2641        403.606          29.000  
G32  20777940.731                        -514.338          37.000  
J02  38918707.040   204519166.278       -1107.245          37.000    38918706.440   152725386.644        -826.097          25.000  
R04  19504075.809   104443440.447       -1616.618          23.000  
R14  22491640.761   119893102.553       -3606.915          23.000  
R15  19892463.534   106299294.291       -1685.992          26.000  
> 2021  9 30 11 21 16.9999675  0 15
C01  37485726.372   195197934.723        -287.734          35.000  
C16  36946987.033   192392722.3971        272.079          28.000  
C22  22405490.002   116671154.235         854.647          25.000  
C36  22530141.907   117320347.205       -1377.837          33.000  
G10  22954978.999   120629144.029       -3771.946          24.000  
G25  23575910.936   123892162.885       -3766.912          26.000  
G26                                                                  20523945.468    80540339.774         973.989          26.000  
G29  23770705.883   124915924.506         403.084          28.000  
G31  21208028.687   111448943.8581       -779.148          20.000  
G32  20777979.404   109189015.7711       -515.267          37.000  
J01  36565635.737   192153710.1271        545.692          29.000  
J02  38918855.737   204519958.317       -1107.694          38.000    38918857.236   152725978.254        -826.441          28.000  
R04  19504318.941   104444743.163       -1617.400          25.000  
R14  22492255.935   119896381.393       -3606.589          24.000  
R15  19892716.559   106300646.316       -1686.398          27.000  
> 2021  9 30 11 21 17.9999672  0 14
C01  37485691.896   195197754.006        -287.841          36.000  
C07  36644500.640   190817382.1331        578.010          18.000  
C16  36946843.433   192391982.886         271.050          26.000  
C36  22530317.286   117321256.069       -1377.298          30.000  
G10  22955609.762   120632443.641       -3772.489          24.000  
G25  23576534.205   123895457.107       -3767.035          20.000  
G26  20523610.000   107852213.5921       1308.088          31.000    20523605.504    80539012.184         975.191          27.000  
G29  23770530.204   124915048.162         403.538          25.000  
G31  21208088.946   111449251.546        -781.554          21.000  
J01  36565442.971   192152691.690         545.937          25.000  
J02  38918977.153   204520593.316       -1108.413          38.000    38918978.952   152726451.758        -825.679          26.000  
R04  19504531.194   104445879.837       -1618.433          22.000  
R14  22492841.130   119899501.164       -3605.215          22.000  
R15  19892942.303   106301853.198       -1686.249          26.000  
> 2021  9 30 11 21 18.9999670  0 11
C01  37485687.099   195197729.541        -287.901          35.000  
C16  36946731.310   192391399.193         271.338          22.000  
C19  22048708.197   114813388.9691      -2195.298          29.000  
C22  22405003.139   116668670.3381        848.850          25.000  
C36  22530519.346   117322321.120       -1377.591          34.000  
G26  20523299.415   107850590.817        1307.739          31.000  
G29  23770387.803   124914330.083         402.604          24.000  
G31  21208184.280   111449717.580        -780.731          22.000  
J02  38919128.548   204521386.088       -1109.493          35.000    38919129.148   152727042.286        -825.846          25.000  
R14  22493459.302   119902796.452       -3603.096          25.000  
R15  19893193.828   106303196.843       -1688.292          25.000  
> 2021  9 30 11 21 19.9999670  0 14
C01  37485741.961   195198017.312        -287.901          38.000  
C07  36644213.739   190815908.4191        584.114          17.000  
C16  36946676.448   192391127.702         271.210          23.000  
C19  22049131.804   114815585.039       -2197.514          29.000  
C30  25808501.946   134391410.8041       1333.312          20.000  
C36  22530781.065   117323699.076       -1379.057          33.000  
G25  23577904.856   123902678.0971      -3769.392          21.000  
G26  20523043.992                        1306.671          33.000  
G29  23770303.261   124913927.527         401.690          24.000  
G31  21208339.272   111450497.586        -780.416          21.000  
J02  38919334.805   204522494.492       -1108.902          37.000    38919340.501   152727868.708        -826.852          27.000  
R04  19505089.408   104448869.0061      -1621.120          26.000  
R14  22494134.135   119906393.491       -3602.387          25.000  
R15  19893514.307   106304909.307       -1689.883          25.000  
> 2021  9 30 11 21 20.9999670  0 14
C01  37485797.123   195198305.177        -288.144          38.000  
C07  36644100.417   190815325.205         583.720          18.000  
C16  36946625.483   192390857.593         269.506          25.000  
C19  22049554.211   114817782.992       -2198.945          31.000  
C22  22404663.174   116666974.4571        847.123          25.000  
C36  22531044.882   117325078.181       -1379.063          29.000  
G10  22957705.911   120643449.7301      -3775.097          25.000  
G25  23578621.660   123906448.264       -3771.305          18.000  
G26  20522795.165   107848019.8621       1304.595          36.000  
J01  36565062.534   192150742.3681        544.058          26.000  
J02  38919549.157   204523603.433       -1109.930          38.000    38919552.454   152728696.530        -828.819          30.000  
R04  19505396.095   104450510.521       -1622.805          30.000  
R14  22494801.173   119909949.417       -3603.626          21.000  
R15  19893830.887   106306601.479       -1690.599          26.000  
> 2021  9 30 11 21 21.9999667  0 15
C01  37485765.345   195198125.636        -290.888          37.000  
C06  36565444.170   190405863.9591        221.863          27.000  
C07  36643896.858   190814274.508         580.405          18.000  
C16  36946484.281   192390119.048         269.923          25.000  
C19  22049883.983   114819513.867       -2198.996          30.000  
C22  22404407.152   116665658.643         847.473          26.000  
C36  22531219.062   117325988.707       -1378.705          29.000  
G10  22958332.777   120646752.331       -3775.564          28.000  
G26  20522461.196   107846243.003        1302.085          32.000  
G32  20778232.129   109190345.1681       -520.812          36.000  
J01  36564866.470   192149727.186         541.384          27.000  
J02  38919672.072   204524240.132       -1109.429          38.000    38919673.571   152729172.501        -829.176          27.000  
R04  19505609.547   104451654.272       -1624.000          28.000  
R14  22495391.165   119913093.926       -3605.641          27.000  
R15  19894059.929   106307824.661       -1694.528          26.000  
> 2021  9 30 11 21 22.9999665  0 15
C01  37485756.351   195198104.146        -290.581          36.000  
C06  36565341.041   190405328.763         222.286          21.000  
C07  36643722.978   190813383.010         579.141          20.000  
C16  36946374.257   192389536.665         270.529          25.000  
C19  22050244.333   114821400.883       -2199.598          29.000  
C22  22404182.907   116664499.004         847.472          25.000  
C36  22531423.220   117327055.499       -1379.514          30.000  
G26  20522160.504   107844625.029        1301.976          32.000  
G29  23769916.229   124911937.3501        400.784          25.000  
G32  20778271.402   109190551.116        -523.355          34.000  
J01  36564703.083   192148871.674         539.809          28.000  
J02  38919822.567   204525035.193       -1110.874          38.000    38919824.666   152729767.323        -831.004          23.000  
R04  19505852.679   104452955.657       -1625.204          29.000  
R14  22496012.934   119916408.698       -3608.192          25.000  
R15  19894324.945   106309240.837       -1694.007          25.000  
> 2021  9 30 11 21 23.9999662  0 14
C01  37485720.676   195197926.184        -290.502          35.000  
C06  36565208.533   190404638.854         220.815          21.000  
C16  36946232.755   192388799.282         268.834          23.000  
C19  22050577.703   114823132.708       -2200.930          29.000  
C36  22531597.699   117327967.292       -1380.678          35.000  
G10  22959632.077   120653515.0131      -3775.133          17.000  
G25  23580539.432   123916499.5071      -3771.155          21.000  
G26  20521821.439   107842850.521        1300.073          33.000  
G31  21208688.530   111452368.1321       -787.778          18.000  
G32  20778273.501   109190600.269        -524.832          34.000  
J02  38919944.283   204525673.030       -1111.876          39.000    38919946.382   152730245.508        -830.346          24.000  
R04  19506065.832   104454097.142       -1626.961          26.000  
R14  22496602.926   119919553.473       -3609.578          31.000  
R15  19894553.987   106310464.764       -1695.086          24.000  
> 2021  9 30 11 21 24.9999662  0 11
C01  37485775.538   195198216.702        -290.745          37.000  
C06  36565166.562   190404417.506         220.239          23.000  
C19  22051003.108   114825334.133       -2202.358          31.000  
C36  22531861.217   117329348.098       -1381.329          29.000  
G25  23581257.135   123920270.510       -3770.532          20.000  
G26  20521581.605   107841549.696        1297.761          32.000  
G31  21208833.030   111453158.566        -793.531          17.000  
J02  38920156.536   204526783.883       -1111.713          37.000  
R04  19506369.521   104455723.563       -1628.117          28.000  
R14  22497285.553   119923192.515       -3608.560          28.000  
R15  19894871.467   106312161.743       -1694.651          25.000  
> 2021  9 30 11 21 25.9999660  0 14
C01  37485770.741   195198195.155        -290.856          36.000  
C16  36946068.169   192387948.4231        268.387          20.000  
C19  22051366.457   114827224.624       -2202.572          30.000  
C22  22403545.548   116661177.8361        845.611          25.000  
C36  22532064.177   117330418.053       -1382.187          29.000  
G10  22960791.974   120659776.5961      -3778.938          19.000  
G25  23581920.276   123923727.675       -3772.253          21.000  
G29  23769537.292   124909954.7481        396.900          26.000  
G32  20778411.405   109191322.7451       -521.944          31.000  
J01  36564238.404   192146461.1691        541.355          28.000  
J02  38920307.931   204527579.420       -1111.384          37.000  
R04  19506614.752   104457037.103       -1629.051          32.000  
R14  22497906.723   119926503.679       -3608.605          28.000  
R15  19895129.588   106313540.556       -1694.676          30.000  
> 2021  9 30 11 21 26.9999657  0 10
C01  37485737.464   195198017.411        -290.513          36.000  
C06  36564930.925   190403195.9051        218.780          23.000  
C19  22051702.824   114828958.309       -2201.734          27.000  
C36  22532239.555   117331332.303       -1383.356          31.000  
G10  22961420.639   120663082.824       -3776.582          20.000  
G25  23582550.740   123927027.457       -3775.666          22.000  
G26  20520924.759   107838161.6171       1300.060          30.000  
J02  38920429.647   204528217.784       -1110.745          37.000  
R04  19506828.803   104458182.924       -1629.824          31.000  
R14  22498493.117   119929628.848       -3608.420          28.000  
> 2021  9 30 11 21 27.9999654  0 14
C01  37485703.288   195197839.963        -290.884          37.000  
C07  36642819.404   190808786.1851        575.156          19.000  
C19  22052037.392   114830692.622       -2203.354          28.000  
C22  22403043.096   116658553.4521        841.731          22.000  
C36  22532414.634   117332247.109       -1383.244          31.000  
G10  22962048.704   120666386.560       -3775.883          25.000  
G25  23583181.503   123930329.671       -3775.095          20.000  
G26  20520584.795   107836389.663        1301.558          30.000  
G29  23769209.319   124908218.0551        396.042          22.000  
G32  20778434.789                        -522.441          35.000  
J02  38920550.164   204528855.751       -1109.301          37.000  
R04  19507041.056   104459319.271       -1630.441          30.000  
R14  22499078.012   119932747.038       -3609.923          30.000  
R15  19895584.374   106315971.0991      -1698.038          23.000  
> 2021  9 30 11 21 28.9999654  0 13
C01  37485762.047   195198130.554        -291.639          37.000  
C06  36564751.349   190402284.2161        220.163          16.000  
C19  22052460.100   114832895.774       -2202.935          29.000  
C36  22532680.550   117333630.270       -1383.238          28.000  
G10  22962765.508   120670162.475       -3776.831          25.000  
G25  23583901.605   123934105.162       -3776.801          19.000  
G26  20520340.164   107835090.734        1298.974          31.000  
G29  23769127.775   124907821.191         397.281          23.000  
J01  36563753.340   192143895.4351        539.897          27.000  
J02  38920760.618   204529966.303       -1109.650          36.000  
R04  19507340.249   104460922.205       -1631.081          27.000  
R14  22499754.044   119936350.718       -3607.807          30.000  
R15  19895900.355   106317659.555       -1697.706          22.000  
> 2021  9 30 11 21 29.9999652  0 11
C01  37485758.449   195198108.590        -287.151          35.000  
C19  22052822.848   114834786.952       -2203.495          27.000  
C22  22402663.259   116656558.7391        841.324          22.000  
C36  22532885.308   117334700.756       -1383.027          32.000  
G10  22963424.152   120673623.763       -3775.542          26.000  
G25  23584563.247   123937565.479       -3773.679          21.000  
G26  20520037.374   107833477.281        1297.444          30.000  
J01  36563592.652   192143040.323         539.893          26.000  
J02  38920909.315   204530761.731       -1109.864          35.000  
R04  19507581.282   104462212.775       -1630.802          29.000  
R15  19896159.076   106319042.341       -1696.612          25.000  
> 2021  9 30 11 21 30.9999649  0 14
C01  37485723.074   195197929.480        -290.908          35.000  
C06  36564520.509   190401064.1461        219.115          17.000  
C19  22053155.318   114836522.400       -2204.332          27.000  
C22  22402413.532   116655248.813         842.030          28.000  
C36  22533060.986   117335615.794       -1384.004          31.000  
G10  22964052.217   120676926.960       -3776.576          27.000  
G25  23585195.809   123940866.931       -3774.298          23.000  
G26  20519711.200   107831707.493        1296.272          30.000  
G31  21209351.971   111455807.2401       -772.903          17.000  
J01  36563400.485   192142027.712         540.268          27.000    36563405.281   143482656.6541        399.758          26.000  
J02  38921030.132   204531400.128       -1112.067          37.000  
R04  19507793.835   104463350.898       -1631.769          30.000  
R14  22500955.912   119942757.1201      -3608.461          29.000  
R15  19896386.918   106320259.986       -1695.643          27.000  
> 2021  9 30 11 21 31.9999647  0 14
C01  37485718.277   195197908.041        -290.908          34.000  
C06  36564419.779   190400532.879         219.072          19.000  
C19  22053518.667   114838414.015       -2203.675          28.000  
C22  22402193.184   116654094.259         841.588          28.000  
C36  22533268.143   117336687.958       -1384.252          28.000  
G10  22964710.562   120680388.915       -3777.552          26.000  
G25  23585856.251   123944325.448       -3773.901          23.000  
G29  23768710.164   124905532.8341        392.214          25.000  
G32  20778620.061   109192409.3551       -526.553          32.000  
J01  36563240.695   192141172.228         540.456          28.000    36563242.794   143482020.683         400.263          28.000  
J02  38921182.726   204532195.914       -1110.958          38.000  
R04  19508036.967   104464652.635       -1633.552          30.000  
R14  22501574.084   119946052.740       -3608.083          30.000  
R15  19896643.540   106321631.409       -1696.389          28.000  
> 2021  9 30 11 21 32.9999647  0 14
C01  37485772.240   195198198.709        -290.866          32.000  
C06  36564377.808   190400312.211         220.976          20.000  
C07  36642053.434   190804822.6941        574.842          17.000  
C19  22053945.571   114840618.383       -2205.371          27.000  
C22  22402033.095   116653253.017         841.292          26.000  
C36  22533535.258   117338071.301       -1382.416          29.000  
G10  22965430.064   120684166.757       -3778.083          25.000  
G25  23586577.852   123948098.338       -3773.112          22.000  
G31  21209597.201   111457044.1821       -777.709          17.000  
J01  36563139.665   192140631.920         540.324          27.000    36563139.665   143481618.355         403.817          25.000  
J02  38921394.080   204533306.703       -1111.702          35.000  
R04  19508341.256   104466281.766       -1635.779          33.000  
R14  22502255.213   119949682.947       -3610.952          25.000  
R15  19896964.018   106323343.259       -1699.213          26.000  
> 2021  9 30 11 21 33.9999644  0 10
C01  37485734.766   195198021.138        -290.973          32.000  
C06  36564246.199   190399621.835         222.143          30.000  
C16  36945181.983   192383291.9701        268.412          28.000  
C19  22054277.142   114842355.965       -2206.285          22.000  
G10  22966064.724   120687472.976       -3778.910          17.000  
G25  23587208.915   123951398.825       -3773.406          22.000  
G32  20778736.080   109192989.7461       -527.052          26.000  
J01                                                                  36562945.400   143480861.186         404.552          20.000  
J02  38921515.496   204533945.360       -1111.508          29.000  
R14  22502845.204   119952828.500       -3609.123          26.000  
> 2021  9 30 11 21 34.9999642  0 10
C01  37485728.770   195198000.081        -291.313          34.000  
C06  36564144.270   190399087.774         221.344          32.000  
C16  36945068.361   192382710.777         269.010          28.000  
C19  22054639.291   114844250.818       -2207.568          25.000  
C22  22401564.520   116650791.2211        840.251          22.000  
C36  22533917.494   117340056.1831      -1383.560          31.000  
G10  22966724.268   120690936.584       -3778.768          23.000  
G25  23587867.859   123954857.441       -3774.309          27.000  
J01  36562786.809   192138765.3631        537.957          25.000    36562782.912   143480223.024         402.337          21.000  
J02  38921666.591   204534741.595       -1111.777          31.000  
> 2021  9 30 11 21 35.9999639  0 13
C01  37485693.994   195197823.276        -291.723          33.000  
C06  36564010.262   190398398.091         221.552          28.000  
C16  36944924.761   192381973.224         268.762          25.000  
C19  22054972.660   114845989.907       -2207.988          27.000  
C22  22401315.692   116649482.940         838.739          27.000  
C36  22534095.870   117340972.112       -1383.754          32.000  
G10  22967355.031   120694242.881       -3779.355          25.000  
G25  23588498.023   123958159.397       -3775.035          26.000  
G26  20518156.176   107823653.8531       1293.547          24.000  
J01  36562592.844   192137754.846         538.178          29.000    36562590.146   143479468.513         401.648          22.000  
J02  38921786.808   204535380.355       -1111.219          33.000  
R04  19509039.473   104470020.5831      -1637.495          32.000  
R15  19897667.631   106327103.1411      -1701.045          26.000  
> 2021  9 30 11 21 36.9999639  0 13
C06  36563968.591   190398176.770         220.535          30.000  
C22  22401155.003   116648644.987         837.334          27.000  
C36  22534360.287   117342355.791       -1384.267          30.000  
G10  22968066.738   120698023.449       -3782.052          17.000  
G25  23589218.724   123961934.542       -3775.564          28.000  
G26  20517905.849   107822360.824        1292.496          26.000  
G31  21209989.630   111459248.2311       -790.421          18.000  
G32  20778895.270                        -529.547          41.000  
J01  36562489.415   192137217.796         536.542          27.000  
J02  38921997.262   204536491.825       -1111.652          36.000    38922006.556   152738324.4841       -829.475          34.000  
R04  19509344.662   104471654.870       -1639.489          33.000  
R14  22504742.591   119962942.5371      -3608.436          21.000  
R15  19897983.613   106328791.720       -1700.775          25.000  
> 2021  9 30 11 21 37.9999636  0 13
C06  36563837.282   190397488.126         219.726          34.000  
C22  22400903.477   116647339.589         837.140          27.000  
C30  25802833.770   134362202.4381       1324.843          25.000  
C36  22534535.066   117343272.441       -1384.832          30.000  
G10  22968693.604   120701332.529       -3781.607          20.000  
G25  23589850.087   123965237.591       -3776.092          24.000  
G26  20517564.985   107820596.386        1291.362          30.000  
G29  23767971.476   124901449.3911        390.489          23.000  
G31  21210051.387   111459570.915        -801.796          17.000  
G32  20778908.761   109193888.7761       -530.037          42.000  
J02  38922121.376   204537130.715       -1111.848          37.000    38922128.871   152738801.513        -830.269          31.000  
R04  19509562.611   104472822.481       -1637.332          25.000  
R15  19898211.455   106330009.462       -1701.328          27.000  
> 2021  9 30 11 21 38.9999636  0 10
C06  36563795.311   190397268.169         219.562          33.000  
C22  22400742.489   116646502.422         837.472          26.000  
C36  22534800.382   117344657.719       -1386.178          26.000  
G10  22969408.010   120705113.728       -3780.666          20.000  
G25  23590579.482   123969332.477       -3775.896          22.000  
G26  20517318.256   107819305.457        1290.561          27.000  
G29  23767900.725   124901059.890         388.523          23.000  
G31  21210204.281   111460373.878        -800.854          16.000  
G32  20779008.592   109194418.690        -530.043          41.000  
J02  38922332.730                       -1112.655          36.000    38922341.124                        -830.243          31.000  
> 2021  9 30 11 21 39.9999634  0 12
C06  36563693.981   190396737.202         218.624          32.000  
C22  22400520.342   116645352.803         836.793          25.000  
C36  22535006.040   117345731.591       -1385.986          27.000  
G10  22970066.354   120708579.453       -3780.850          21.000  
G25  23591239.025   123972793.470       -3776.466          25.000  
G26  20517013.967   107817699.955        1290.150          28.000  
G31  21210293.020   111460860.685        -799.585          13.000  
G32  20779050.563   109194634.224        -530.380          42.000  
J01  36562037.928   192134820.9681        536.637          22.000  
J02  38922482.626   204539036.7241      -1112.971          36.000    38922491.920   152740222.2471       -830.368          31.000  
R04  19510114.829   104475779.0631      -1640.530          20.000  
R14  22506625.887   119972981.6231      -3607.817          25.000  
> 2021  9 30 11 21 40.9999634  0 10
C06  36563652.910   190396518.090         219.667          30.000  
C22  22400359.354   116644516.816         835.290          25.000  
C36  22535273.455   117347117.875       -1387.236          31.000  
G10  22970790.353   120712360.679       -3781.813          25.000  
G25  23591959.726   123976569.745       -3776.156          21.000  
G26  20516767.537   107816410.126        1289.423          30.000  
G29  23767695.367   124899967.1481        387.549          24.000  
G32  20779153.092   109195165.764        -531.434          41.000  
J02  38922694.879   204540149.518       -1112.388          35.000    38922703.573   152741053.114        -831.104          33.000  
R15  19899103.937   106334778.2481      -1706.261          20.000  
> 2021  9 30 11 21 41.9999631  0  9
C06  36563520.701   190395829.326         220.747          29.000  
C22  22400106.329   116643212.718         835.636          20.000  
G10  22971421.416   120715669.873       -3782.132          24.000  
G25  23592587.791   123979876.869       -3780.229          19.000  
G26  20516429.971   107814648.447        1288.624          27.000  
G32  20779163.584   109195225.472        -531.814          41.000  
J01  36561750.727   192133279.9301        535.258          24.000  
J02  38922817.494   204540789.847       -1111.819          36.000    38922824.989   152741531.363        -830.559          32.000  
R04  19510644.862   104478617.9011      -1643.305          25.000  
> 2021  9 30 11 21 42.9999629  0 12
C06  36563418.172   190395296.655         219.804          32.000  
C16  36944295.796   192378529.2641        269.234          27.000  
C22  22399885.982   116642068.646         829.610          19.000  
C36  22535663.485   117349113.1071      -1388.323          26.000  
G10  22972083.957   120719137.046       -3782.864          26.000  
G25  23593253.031   123983341.483       -3779.276          20.000  
G26  20516121.784   107813045.038        1288.092          26.000  
G29  23767396.474   124898405.7121        386.632          21.000  
G32  20779203.757   109195443.561        -534.410          42.000  
J01  36561589.738   192132429.376         535.254          27.000  
J02  38922973.086   204541588.444       -1110.252          35.000    38922976.384   152742127.623        -830.281          31.000  
R15  19899584.504   106337346.8421      -1705.258          23.000  
> 2021  9 30 11 21 43.9999626  0 12
C06  36563287.163   190394609.404         218.154          33.000  
C16  36944153.994   192377792.594         267.156          29.000  
C22  22399638.353   116640770.863         830.475          24.000  
C36  22535839.463   117350033.107       -1387.821          29.000  
G10  22972713.821   120722447.479       -3782.922          25.000  
G25  23593881.096   123986647.864       -3778.892          25.000  
G26  20515783.019   107811285.530        1285.958          25.000  
G32  20779212.750   109195504.604        -533.467          39.000  
J02                                                                  38923098.100   152742606.254        -832.703          32.000  
R04  19511118.234   104481152.2861      -1647.989          25.000  
R14  22509102.772   119986184.2201      -3612.079          23.000  
R15  19899807.550   106338538.735       -1703.756          18.000  
> 2021  9 30 11 21 44.9999624  0 10
C06  36563186.133                         217.877          34.000  
C36  22536046.620   117351108.633       -1387.918          30.000  
G10  22973380.260   120725915.359       -3783.193          20.000  
G25  23594552.931   123990111.375       -3778.318          27.000  
G32  20779261.317   109195723.562        -534.673          37.000  
J01  36561234.184   192130570.1431        535.654          28.000  
J02                                                                  38923250.694   152743202.460        -833.753          32.000  
R04  19511369.160   104482496.263       -1647.425          21.000  
R14  22509726.940   119989511.554       -3611.109          20.000  
R15  19900066.870   106339924.656       -1705.094          21.000  
> 2021  9 30 11 21 45.9999624  0  9
C06  36563145.061   190393887.1951        217.460          32.000  
C07  36639954.587   190793811.4041        569.548          28.000  
C36  22536312.835   117352496.598       -1387.915          33.000  
G10  22974104.858   120729698.528       -3783.438          20.000  
G25  23595299.414   123993889.729       -3778.787          27.000  
J01  36561131.955   192130034.578         535.673          28.000  
J02  38923453.654   204544139.1831      -1114.124          29.000    38923462.947   152744034.062        -829.923          30.000  
R04  19511674.049   104484128.908       -1648.381          27.000  
R15  19900388.248   106341641.358       -1707.082          25.000  
> 2021  9 30 11 21 46.9999621  0 12
C06  36563010.455   190393200.016         217.977          32.000  
C07  36639755.225   190792773.423         569.771          28.000  
C16  36943836.814   192376212.3831        266.149          28.000  
C36  22536489.113   117353415.951       -1388.643          33.000  
G10  22974737.720   120733009.098       -3783.267          15.000  
G25  23595955.360   123997582.736       -3778.747          29.000  
G26  20514909.424   107806641.2311       1284.653          30.000  
G29  23766852.650   124895612.0461        379.863          14.000  
J01  36560940.687   192129025.929         535.738          26.000  
J02                                                                  38923584.963   152744512.642        -830.745          29.000  
R04  19511890.799   104485290.069       -1647.488          30.000  
R15  19900622.086   106342891.574       -1706.574          25.000  
> 2021  9 30 11 21 47.9999619  0 15
C06  36562907.926   190392669.181         219.125          34.000  
C07  36639586.442   190791891.957         568.784          28.000  
C16  36943724.392   192375633.391         266.647          30.000  
C19  22059445.564   114869397.7451      -2211.236          20.000  
C30  25799759.998   134346308.1751       1322.297          24.000  
C36  22536695.670   117354492.319       -1389.662          35.000  
G10  22975381.974   120736478.095       -3786.929          15.000  
G26  20514606.633   107805041.576        1284.359          30.000  
G29  23766728.836   124894917.676         378.809          18.000  
G32  20779402.819   109196538.2551       -535.260          30.000  
J01  36560776.401   192128175.112         535.730          31.000  
J02                                                                  38923736.958   152745109.041        -832.404          31.000  
R04  19512141.126   104486629.793       -1647.658          31.000  
R14  22511603.042   119999512.3941      -3609.330          26.000  
R15  19900887.402   106344308.498       -1706.431          25.000  
> 2021  9 30 11 21 48.9999616  0 12
C06  36562783.811   190391982.917         218.923          33.000  
C07  36639386.181   190790855.030         568.571          26.000  
C16  36943581.990   192374898.947         265.137          31.000  
C19  22059787.927   114871141.843       -2213.899          21.000  
C36  22536871.648                       -1390.114          34.000  
G10  22976001.045   120739791.502       -3785.742          17.000  
G25  23597278.044   124004353.2981      -3780.706          25.000  
J01  36560581.836   192127167.178         534.688          32.000  
J02  38923853.577   204546220.5381      -1114.545          32.000    38923858.374   152745588.343        -831.995          29.000  
R04  19512359.974   104487801.675       -1650.430          28.000  
R14  22512186.438   120002622.399       -3613.629          25.000  
R15  19901114.645   106345523.608       -1710.013          26.000  
> 2021  9 30 11 21 49.9999616  0 11
C06  36562741.541   190391765.027         217.033          29.000  
C07  36639277.056   190790286.534         568.039          25.000  
C16  36943530.126   192374633.869         264.659          29.000  
C22  22398379.824   116634223.1151        829.381          25.000  
C30  25799163.711   134343194.8941       1321.442          22.000  
C36  22537138.763   117356794.4301      -1387.993          31.000  
G10  22976731.640   120743577.438       -3785.120          26.000  
G25  23598017.932   124008421.554       -3778.765          18.000  
G32  20779512.843   109197138.2161       -537.461          27.000  
J02  38924069.727   204547334.987       -1113.724          31.000    38924070.627   152746420.647        -831.284          29.000  
R15  19901435.723   106347238.810       -1710.276          26.000  
> 2021  9 30 11 21 50.9999613  0 13
C06  36562608.433   190391079.381         217.885          30.000  
C07  36639075.896   190789250.397         568.389          26.000  
C16  36943386.825   192373900.801         264.923          32.000  
C19  22060549.999   114875106.4231      -2217.581          21.000  
C36  22537309.945   117357715.504       -1388.490          34.000  
G10  22977378.592   120746889.832       -3785.088          28.000  
G25  23598661.587   124011727.103       -3778.530          26.000  
G26  20513700.061   107800247.5891       1280.208          26.000  
G29  23766349.599   124892829.8831        381.942          29.000  
J01  36560277.846   192125627.1581        534.732          33.000  
J02  38924189.944   204547976.490       -1114.320          33.000    38924193.542   152746899.786        -832.514          32.000  
R14  22513437.771   120009292.6941      -3612.873          34.000  
R15  19901661.167   106348443.659       -1710.210          25.000  
> 2021  9 30 11 21 51.9999611  0 11
C06  36562504.705   190390549.292         217.587          33.000  
C16  36943273.204   192373323.209         265.474          34.000  
C22  22397919.343   116631785.0081        827.825          25.000  
C36  22537515.303   117358794.482       -1390.834          31.000  
G10  22978053.724   120750359.855       -3785.513          27.000  
G25  23599330.424   124015190.462       -3778.808          26.000  
G29  23766220.088   124892133.277         380.493          28.000  
J02  38924339.540   204548775.903       -1115.480          35.000    38924345.836   152747496.952        -832.559          32.000  
R04  19513127.743   104491913.6061      -1654.183          34.000  
R14  22514049.948   120012555.853       -3612.676          32.000  
R15  19901927.382   106349866.577       -1710.361          22.000  
> 2021  9 30 11 21 52.9999608  0 13
C06  36562370.398   190389863.232         217.333          32.000  
C07  36638701.755   190787337.9791        563.877          24.000  
C16  36943130.203   192372589.651         264.562          33.000  
C19  22061259.908   114878761.1581      -2218.823          21.000  
C22  22397670.815   116630489.106         826.994          27.000  
C30  25798174.096   134337983.9161       1320.739          23.000  
C36  22537692.180   117359716.791       -1390.752          28.000  
G25  23599970.480   124018496.791       -3780.537          29.000  
G32  20779590.789                        -540.147          37.000  
J02  38924462.156                       -1116.996          35.000    38924467.852   152747976.593        -831.278          32.000  
R04  19513341.495   104493058.288       -1654.711          31.000  
R14  22514633.643   120015667.110       -3612.651          33.000  
R15  19902161.220   106351115.681       -1711.111          23.000  
> 2021  9 30 11 21 53.9999608  0 12
C06  36562322.131                         218.506          32.000  
C07  36638592.630   190786773.930         564.892          25.000  
C16  36943076.540                         266.172          33.000  
C19  22061684.414   114880980.026       -2219.822          22.000  
C36  22537958.396   117361107.313       -1390.505          31.000  
G10  22979408.187   120757458.9371      -3790.457          10.000  
G29  23765987.449   124890901.0091        378.243          20.000  
G32  20779695.116   109198026.3071       -541.624          31.000  
J01  36559825.160   192123178.3781        534.090          29.000  
J02  38924672.310   204550545.4341      -1115.036          29.000    38924679.205   152748809.082        -833.084          30.000  
R14  22515308.776   120019265.807       -3612.671          29.000  
R15  19902485.596   106352849.128       -1711.607          25.000  
> 2021  9 30 11 21 54.9999606  0 16
C06  36562223.799   190389077.4411        216.369          32.000  
C07  36638425.046   190785896.223         566.067          27.000  
C16  36942967.116   192371717.2871        264.215          31.000  
C19  22062048.362   114882886.546       -2218.552          22.000  
C22  22397296.075   116628522.2571        827.392          23.000  
C30  25797608.687   134335032.2181       1318.983          23.000  
C36  22538165.553   117362185.505       -1390.544          32.000  
G10  22980063.233   120760933.357       -3787.940          18.000  
G26  20512528.472   107794037.0171       1274.417          20.000  
G29  23765855.840   124890208.315         376.102          17.000  
G32  20779738.287   109198252.935        -541.165          31.000  
J01  36559660.873   192122331.092         534.069          30.000  
J02  38924822.806   204551345.979       -1116.509          31.000    38924831.200   152749407.035        -833.325          32.000  
R04  19513894.012   104496017.2061      -1656.143          30.000  
R14  22515922.451   120022537.141       -3612.931          30.000  
R15  19902749.413   106354259.434       -1711.952          26.000  
> 2021  9 30 11 21 55.9999603  0 13
C06  36562089.492   190388392.022         217.710          31.000  
C07  36638228.082   190784862.062         565.697          26.000  
C16  36942826.513   192370984.688         264.515          30.000  
C19  22062384.729   114884638.098       -2221.289          22.000  
C22  22397049.046   116627228.402         824.006          21.000  
C30  25797265.725   134333244.026        1320.132          24.000  
C36  22538344.229   117363107.844       -1390.466          32.000  
G25  23601992.581   124029055.7581      -3783.769          25.000  
G29  23765700.548   124889358.760         376.212          18.000  
G32  20779751.178   109198321.407        -541.281          33.000  
J02  38924945.421   204551989.634       -1116.079          35.000    38924954.415   152749887.162        -833.125          32.000  
R14  22516510.344   120025670.975       -3613.196          30.000  
R15  19902988.947   106355539.432       -1713.089          25.000  
> 2021  9 30 11 21 56.9999601  0 13
C06  36561989.062   190387862.637         217.411          31.000  
C07  36638058.700   190783983.853         566.130          27.000  
