     3.03           OBSERVATION DATA    M: Mixed            RINEX VERSION / TYPE
Geo++ RINEX Logger  Geo++               20210930 115942 UTC PGM / RUN BY / DATE
************************************************************COMMENT
This file was generated by the Geo++ RINEX Logger App       COMMENT
for Android devices (Version 2.1.6). If you encounter       COMMENT
any issues, please send an email to android@geopp.de        COMMENT
Filtering Mode: BEST                                        COMMENT
************************************************************COMMENT
Geo++                                                       MARKER NAME
GEODETIC                                                    MARKER TYPE
Geo++               Geo++                                   OBSERVER / AGENCY
unknown             HUAWEI              ELS-AN00            REC # / TYPE / VERS
unknown             ELS-AN00                                ANT # / TYPE
 -2411101.8936  5386050.7747  2412209.9482                  APPROX POSITION XYZ
        0.0000        0.0000        0.0000                  ANTENNA: DELTA H/E/N
G    8 C1C L1C D1C S1C C5Q L5Q D5Q S5Q                      SYS / # / OBS TYPES
R    4 C1C L1C D1C S1C                                      SYS / # / OBS TYPES
E   12 C1B L1B D1B S1B C1C L1C D1C S1C C5Q L5Q D5Q S5Q      SYS / # / OBS TYPES
C    4 C2I L2I D2I S2I                                      SYS / # / OBS TYPES
J    8 C1C L1C D1C S1C C5Q L5Q D5Q S5Q                      SYS / # / OBS TYPES
  2021     9    30    12     0    0.9994214     GPS         TIME OF FIRST OBS
 24 R01  1 R02 -4 R03  5 R04  6 R05  1 R06 -4 R07  5 R08  6 GLONASS SLOT / FRQ #
    R09 -2 R10 -5 R11  0 R12 -1 R13 -2 R14 -7 R15  0 R16 -1 GLONASS SLOT / FRQ #
    R17  4 R18 -3 R19  3 R20  2 R21  4 R22 -3 R23  3 R24  2 GLONASS SLOT / FRQ #
G L1C                                                       SYS / PHASE SHIFT
G L5Q -0.25000                                              SYS / PHASE SHIFT
R L1C                                                       SYS / PHASE SHIFT
E L1B                                                       SYS / PHASE SHIFT
E L1C +0.50000                                              SYS / PHASE SHIFT
E L5Q -0.25000                                              SYS / PHASE SHIFT
C L2I                                                       SYS / PHASE SHIFT
J L1C                                                       SYS / PHASE SHIFT
J L5Q -0.25000                                              SYS / PHASE SHIFT
 C1C    0.000 C1P    0.000 C2C    0.000 C2P    0.000        GLONASS COD/PHS/BIS
                                                            END OF HEADER
> 2021  9 30 12  0  0.9994214  0 12
C06  36319104.407   189123114.213         209.347          25.000  
C07  36329580.055   189177652.004         169.672          33.000  
C10  37074024.087   193054121.477         245.565          30.000  
E08                                                                                                                                  22070921.019    86611028.065       -1041.415          28.000  
G16  21871220.569   114934086.883        2398.096          29.000  
G22  23017307.949   120956781.785          58.948          24.000  
G26  20116301.174   105711969.326        -130.909          22.000  
G32  21111155.851   110939867.232       -1683.125          37.000    21111158.549    82844718.463       -1255.269          32.000  
J01  36252086.703   190505939.648         202.000          27.000    36252084.604   142260978.899         147.628          28.000  
J02  39266822.145   206348569.604       -1120.891          28.000    39266832.338   154091515.3941       -838.001          23.000  
R04  20461864.446   109572355.651       -3408.923          36.000  
R05  19238293.906   102839706.731         490.412          31.000  
> 2021  9 30 12  0  1.9994212  0 14
C06  36319004.277   189122593.255         208.052          24.000  
C07  36329486.520   189177169.761         168.384          33.000  
C10  37073915.862   193053563.837         245.423          28.000  
C16  36681609.250   191010857.4251        240.754          23.000  
C19  23103939.875   120308367.5801      -3137.332          21.000  
E08                                                                                                                                  22071126.677    86611835.159       -1042.513          27.000  
G16  21870704.027   114931373.268        2398.477          29.000  
G26  20116266.698   105711784.426        -130.090          22.000  
G29  23724656.862   124673811.9091       -903.802          23.000  
G32  21111413.073   110941235.257       -1683.714          38.000    21111418.469    82845739.991       -1257.280          33.000  
J01  36251988.670   190505423.530         200.068          28.000    36251987.172   142260595.533         148.151          30.000  
J02  39266977.737   206349375.568       -1121.603          28.000    39266985.831   154092117.352        -834.975          24.000  
R04  20462440.947   109575442.534       -3409.397          36.000  
R05  19238139.213   102838880.116         489.654          31.000  
> 2021  9 30 12  0  2.9994209  0 14
C06  36318874.766   189121916.840         207.760          24.000  
C07  36329363.305   189176531.858         169.518          33.000  
C10  37073779.157   193052849.604         245.757          30.000  
C16  36681473.444   191010147.167         241.511          21.000  
C19  23104452.221   120311037.574       -3139.152          22.000  
E08                                                                                                                                  22071302.056    86612525.357       -1042.997          28.000  
G16  21870158.404   114928501.874        2398.941          27.000  
G22  23017146.361   120955872.6571         63.342          16.000  
G26  20116201.044   105711441.366        -129.724          24.000  
G32  21111640.615   110942446.490       -1684.166          38.000    21111648.410    82846644.416       -1254.858          32.000  
J01  36251860.060   190504751.405         199.089          30.000    36251859.160   142260094.570         146.884          29.000  
J02  39267101.251   206350024.439       -1121.241          29.000    39267109.346   154092599.510        -835.707          26.000  
R04  20462985.370   109578358.466       -3410.124          36.000  
R05  19237958.738   102837915.053         488.687          30.000  
> 2021  9 30 12  0  3.9994207  0 15
C03  36484750.833   189985606.0171       -400.884          30.000  
C06  36318775.535   189121396.163         208.317          24.000  
C07  36329269.470   189176050.270         169.241          34.000  
C09  37180692.342   193609622.6881        295.905          24.000  
C10  37073671.831   193052291.529         245.629          31.000  
C19  23104993.946   120313863.826       -3138.294          23.000  
E08                                                                                                                                  22071508.013    86613332.684       -1043.080          29.000  
G16  21869643.661   114925787.590        2399.072          28.000  
G26  20116165.968   105711255.414        -130.487          26.000  
G31  21477088.221   112862778.5901      -1074.211          23.000  
G32  21111901.135   110943815.730       -1684.130          37.000    21111908.930    82847666.973       -1257.856          31.000  
J01  36251761.728   190504237.993         198.143          33.000    36251761.428   142259712.113         147.296          29.000  
J02  39267254.745   206350830.505       -1120.230          29.000    39267262.540   154093199.008        -835.034          26.000  
R04  20463562.470   109581448.692       -3410.857          36.000  
R05  19237808.842   102837114.084         488.047          30.000  
> 2021  9 30 12  0  4.9994204  0 14
C06  36318644.526   189120719.572         207.986          20.000  
C07  36329148.354   189175413.060         168.570          35.000  
C09  37180547.243   193608857.803         297.813          25.000  
C10  37073535.425   193051578.048         244.699          30.000  
C16  36681230.612   191008883.7681        241.509          21.000  
E08                                                                                                                                  22071684.591    86614022.621       -1043.003          28.000  
G16  21869097.739   114922916.740        2396.015          29.000  
G22  23016968.284   120954964.2581         58.249          27.000  
G29  23724929.073   124675264.1801       -907.115          21.000  
G32  21112131.376   110945028.094       -1685.658          37.000    21112138.870    82848572.219       -1258.498          31.000  
J01  36251634.016   190503567.303         197.825          33.000    36251634.016   142259210.866         148.369          30.000  
J02  39267378.859   206351478.041       -1120.052          27.000    39267385.755   154093681.510        -837.378          24.000  
R04  20464106.894   109584364.152       -3411.544          36.000  
R05  19237631.665   102836166.794         487.066          30.000  
> 2021  9 30 12  0  5.9994202  0 16
C06  36318545.594   189120200.275         205.922          18.000  
C07  36329057.817   189174932.288         168.785          34.000  
C09  37180431.223   193608247.634         298.288          24.000  
C10  37073428.400   193051021.360         244.552          33.000  
C16  36681123.587   191008329.847         241.245          26.000  
C19  23106051.913   120319358.6201      -3136.080          23.000  
E08                                                                                                                                  22071891.148    86614830.102       -1043.471          31.000  
G22  23016894.835   120954592.283          55.759          27.000  
G26  20116072.133   105710732.4111       -134.189          27.000  
G29  23725039.997   124675855.889        -905.645          27.000  
G31  21477349.640   112864137.6981      -1073.386          16.000  
G32  21112395.193   110946399.125       -1687.560          39.000    21112399.690    82849596.091       -1259.364          31.000  
J01  36251536.284   190503054.359         197.271          31.000    36251536.284   142258827.752         147.739          28.000  
J02  39267531.454   206352281.653       -1118.437          25.000    39267537.749   154094284.547        -837.677          27.000  
R04  20464684.294   109587455.961       -3412.671          29.000  
R05  19237478.771   102835349.877         485.941          32.000  
> 2021  9 30 12  0  6.9994199  0 14
C06  36318415.184   189119525.039         206.068          21.000  
C07  36328934.302   189174295.669         166.920          33.000  
C09  37180284.625   193607481.917         297.655          21.000  
C10  37073291.095   193050308.371         244.332          34.000  
C16  36680988.680   191007619.701         240.480          24.000  
E08                                                                                                                                  22072067.426    86615521.262       -1044.429          30.000  
G16  21868040.371   114917339.1211       2395.056          23.000  
G22  23016791.107   120954064.147          55.220          26.000  
G26  20116011.275   105710394.972        -136.497          26.000  
G32  21112622.436   110947613.382       -1686.309          37.000    21112632.029    82850502.908       -1259.346          31.000  
J01                                                                  36251408.272   142258326.842         149.209          27.000  
J02  39267653.769   206352928.329       -1120.106          28.000  
R04  20465238.910   109590425.169       -3413.362          26.000  
R05  19237301.293   102834400.623         485.093          34.000  
> 2021  9 30 12  0  7.9994196  0 16
C06  36318282.376   189118849.867         207.490          26.000  
C07  36328813.786   189173659.377         167.033          32.000  
C09  37180137.426   193606715.988         298.219          26.000  
C10  37073153.790   193049596.203         243.516          27.000  
C16  36680852.574   191006911.087         239.974          26.000  
C19  23107079.602   120324698.8311      -3140.918          13.000  
E08                                                                                                                                  22072243.704    86616212.892       -1045.051          32.000  
G16  21867494.149   114914471.263        2394.817          33.000  
G22  23016690.976   120953536.849          51.730          24.000  
G26  20115950.717   105710058.369        -136.615          25.000  
G29  23725202.484   124676720.3091       -904.763          25.000  
G32  21112857.173   110948828.697       -1687.824          35.000    21112863.469    82851410.360       -1261.262          34.000  
J01  36251282.359   190501715.5721        195.046          34.000    36251280.261   142257824.798         147.381          26.000  
J02  39267777.883   206353576.357       -1121.027          33.000  
R04  20465790.528   109593379.325       -3414.947          30.000  
R05  19237122.617   102833445.303         484.237          33.000  
> 2021  9 30 12  0  8.9994194  0 13
C03  36484736.742   189985539.5701       -394.105          32.000  
C06  36318183.745   189118329.323         208.474          24.000  
C07  36328722.649   189173179.964         168.555          31.000  
C09  37180020.807   193606106.628         295.901          28.000  
C10  37073046.164   193049040.504         243.716          27.000  
E08                                                                                                                                  22072450.261    86617023.991       -1045.444          29.000  
G16  21866978.206   114911760.882        2395.112          29.000  
G29  23725313.707   124677310.622        -906.355          25.000  
G32  21113120.091   110950201.865       -1687.816          31.000    21113123.689    82852435.784       -1262.696          30.000  
J01                                                                  36251183.428   142257442.064         148.179          30.000  
J02  39267930.777   206354383.530       -1123.253          26.000  
R04  20466368.828   109596476.409       -3415.854          31.000  
R05  19236973.920   102832651.245         482.694          33.000  
> 2021  9 30 12  0  9.9994191  0 13
C03  36484724.151   189985466.062        -395.983          32.000  
C06  36318054.534   189117652.785         207.310          27.000  
C07  36328602.732   189172544.823         168.638          31.000  
C09  37179873.909   193605342.122         296.199          29.000  
C10  37072910.658   193048328.976         241.323          26.000  
E08                                                                                                                                  22072626.239    86617717.527       -1046.460          27.000  
G16  21866433.183   114908893.666        2393.243          29.000  
G26  20115862.578   105709544.8091       -137.079          11.000  
G32  21113359.925   110951418.206       -1688.712          29.000    21113354.529    82853344.272       -1262.599          28.000  
J01  36251054.517   190500535.7001        197.328          32.000    36251056.916   142256942.343         146.206          29.000  
J02  39268056.690   206355034.160       -1123.780          25.000  
R04  20466917.748   109599415.837       -3416.644          33.000  
R05  19236793.745   102831687.402         481.114          33.000  
> 2021  9 30 12  0 10.9994189  0 14
C03  36484741.239   189985550.265        -397.426          32.000  
C06  36317955.603   189117132.637         208.029          29.000  
C07  36328506.798   189172065.363         164.025          30.000  
C09  37179756.390   193604734.819         294.875          30.000  
C10  37072804.232   193047775.315         241.105          26.000  
E08                                                                                                                                  22072832.796    86618528.235       -1045.641          26.000  
G16  21865918.739   114906185.266        2393.974          29.000  
G26  20115826.003   105709367.195        -137.993          16.000  
G29  23725513.669   124678341.2081       -906.869          25.000  
G32  21113619.845   110952791.280       -1688.028          31.000    21113616.847    82854369.933       -1260.197          28.000  
J01  36250956.185   190500023.239         196.925          27.000    36250960.083   142256560.409         146.928          30.000  
J02  39268211.983   206355843.020       -1123.987          27.000  
R04  20467495.748   109602511.365       -3416.840          34.000  
R05  19236643.249   102830883.093         480.334          34.000  
> 2021  9 30 12  0 11.9994186  0 14
C06  36317825.193   189116457.417         204.809          25.000  
C07  36328383.883   189171430.260         166.921          30.000  
C09  37179607.094   193603971.562         295.847          27.000  
C10  37072669.025   193047064.604         243.555          24.000  
E08                                                                                                                                  22073009.973    86619221.465       -1045.625          29.000  
G16  21865373.717   114903318.253        2394.044          28.000  
G22  23016345.016   120951762.5631         49.184          21.000  
G29  23725597.311   124678776.288        -909.578          22.000  
G31  21478103.318   112868082.6711      -1081.203          16.000  
G32                                                                  21113848.587    82855278.549       -1261.362          32.000  
J01  36250829.373   190499353.820         196.578          30.000    36250832.071   142256060.056         146.880          29.000  
J02  39268337.296   206356494.335       -1123.617          30.000  
R04  20468041.969   109605435.682       -3417.576          32.000  
R05  19236463.673   102829923.362         479.558          32.000  
> 2021  9 30 12  0 12.9994186  0 15
C06  36317786.819   189116253.410         203.892          21.000  
C07  36328349.107   189171263.823         165.712          34.000  
C09  37179550.733   193603674.310         299.195          24.000  
C10  37072622.857   193046821.424         242.426          28.000  
C19  23109798.419   120338848.5341      -3141.901          19.000  
E08                                                                                                                                  22073276.489    86620267.335       -1046.215          29.000  
G16  21864918.632   114900924.002        2393.710          28.000  
G22  23016333.624   120951713.043          50.492          25.000  
G26  20115781.634   105709172.7311       -139.988          28.000  
G29  23725770.591   124679686.365        -910.542          23.000  
G32  21114167.566   110955696.8031      -1692.399          38.000    21114170.564    82856541.212       -1263.035          31.000  
J01  36250791.899   190499157.874         195.231          28.000    36250795.496   142255913.900         145.411          28.000  
J02  39268554.645   206357617.473       -1123.295          27.000  
R04  20468679.628   109608850.325       -3418.354          29.000  
R05  19236369.538   102829420.225         478.571          32.000  
> 2021  9 30 12  0 13.9994184  0 15
C03  36484824.881   189985975.2641       -406.455          32.000  
C06  36317688.487   189115736.840         204.690          26.000  
C07  36328261.568   189170785.236         166.764          32.000  
C09  37179435.313   193603063.400         297.666          23.000  
C10  37072517.031   193046266.468         242.700          27.000  
C19  23110340.744   120341677.655       -3141.282          19.000  
E08                                                                                                                                  22073483.345    86621078.691       -1047.125          30.000  
G16  21864402.689   114898216.592        2391.732          28.000  
G26  20115746.558   105708997.458        -140.391          25.000  
G29  23725882.413   124680282.258        -911.479          22.000  
G32                                                                  21114431.983    82857568.942       -1263.492          31.000  
J01  36250694.167   190498647.939         195.325          30.000    36250698.364   142255533.101         144.909          29.000  
J02  39268712.636   206358425.617       -1123.409          29.000  
R04  20469255.229   109611932.918       -3419.112          25.000  
R05  19236219.043   102828615.425         477.929          34.000  
> 2021  9 30 12  0 14.9994181  0 15
C03  36484813.789   189985911.974        -404.528          34.000  
C06  36317559.577   189115062.873         206.056          30.000  
C07  36328141.951   189170150.768         166.313          31.000  
C09  37179289.014   193602298.092         295.991          29.000  
C10  37072380.625   193045555.490         242.830          28.000  
E08                                                                                                                                  22073659.324    86621772.030       -1047.632          24.000  
G16  21863858.865   114895351.840        2391.178          26.000  
G26  20115682.103   105708666.435        -141.589          18.000  
G29  23725969.353   124680721.559        -912.704          26.000  
G31  21478570.995   112870541.7121      -1079.507          17.000  
G32  21114659.825   110958293.0071      -1691.594          33.000    21114663.123    82858478.815       -1261.650          27.000  
J01  36250566.755   190497980.327         193.509          26.000    36250571.851   142255035.266         145.297          30.000  
J02  39268837.949   206359074.377       -1121.700          21.000  
R04  20469803.550   109614868.632       -3419.907          35.000  
R05  19236034.670   102827630.212         477.061          34.000  
> 2021  9 30 12  0 15.9994179  0 15
C03  36484831.777   189986003.954        -404.229          32.000  
C06  36317459.746   189114544.479         206.010          26.000  
C07  36328047.516   189169672.500         165.443          31.000  
C09  37179173.294   193601689.866         295.773          29.000  
C10  37072273.299   193045001.564         241.028          27.000  
C16  36679969.685   191002335.7151        239.207          28.000  
E08                                                                                                                                  22073867.080    86622585.099       -1046.245          24.000  
G16  21863344.122   114892644.262        2392.740          22.000  
G22  23016096.488   120950458.2731         47.667          14.000  
G29  23726082.975   124681320.202        -913.974          21.000  
G32  21114923.942   110959668.523       -1690.770          35.000    21114924.842    82859506.411       -1262.241          26.000  
J01  36250468.423   190497471.137         194.713          28.000    36250474.419   142254653.488         147.235          31.000  
J02  39268989.045   206359881.503       -1122.435          24.000  
R04  20470383.348   109617973.381       -3420.144          33.000  
R05  19235886.873   102826840.311         475.937          32.000  
> 2021  9 30 12  0 16.9994176  0 14
C03  36484819.785   189985939.441        -403.546          30.000  
C06  36317330.535   189113868.390         209.971          18.000  
C07  36327926.700   189169038.712         166.244          35.000  
C10  37072136.594   193044291.969         240.668          24.000  
E08                                                                                                                                  22074043.957    86623278.936       -1047.456          27.000  
G16  21862799.999   114889779.783        2391.280          30.000  
G22  23015997.856   120949937.211          49.297          26.000  
G26  20115581.673   105708160.7101       -142.677          24.000  
G29  23726164.518   124681761.187        -914.202          23.000  
G32  21115153.583   110960886.970       -1691.948          35.000    21115156.281    82860416.009       -1261.876          30.000  
J01  36250341.611   190496803.361         194.977          29.000    36250347.307   142254153.191         147.305          28.000  
J02  39269111.660   206360531.034       -1121.620          28.000  
R04  20470931.969   109620912.142       -3421.252          30.000  
R05  19235706.697   102825877.301         474.602          32.000  
> 2021  9 30 12  0 17.9994173  0 14
C01  37488835.819   195214290.0621       -392.699          28.000  
C03  36484807.194   189985874.127        -402.865          34.000  
C06  36317199.526   189113188.783         212.031          19.000  
C07  36327801.686   189168405.624         163.463          35.000  
C10  37072000.488   193043583.176         238.909          29.000  
C16  36679698.073   191000919.1321        240.289          24.000  
E08                                                                                                                                  22074220.835    86623973.832       -1047.408          27.000  
G16  21862255.575   114886916.266        2390.278          29.000  
G29  23726246.062   124682202.980        -912.998          28.000  
G32  21115384.424   110962107.171       -1693.999          38.000    21115388.920    82861326.469       -1264.579          25.000  
J01  36250214.798   190496135.797         194.808          32.000    36250220.794   142253654.106         146.102          27.000  
J02  39269234.575   206361179.693       -1120.963          30.000  
R04  20471480.889   109623851.003       -3422.230          30.000  
R05  19235526.522   102824914.106         474.443          30.000  
> 2021  9 30 12  0 18.9994171  0 13
C03  36484824.282   189985963.868        -400.795          29.000  
C07  36327712.948   189167928.401         166.817          31.000  
C10  37071894.062   193043031.953         240.028          28.000  
C16  36679592.247   191000367.155         238.534          26.000  
E08                                                                                                                                  22074427.692    86624785.669       -1047.603          28.000  
G16  21861739.333   114884211.588        2388.547          27.000  
G22  23015831.471   120949052.8611         46.958          25.000  
G26  20115482.141   105707659.7721       -143.110          21.000  
G32  21115644.943   110963486.037       -1694.223          31.000    21115652.438    82862354.240       -1265.119          28.000  
J01  36250117.966   190495626.061         194.567          38.000    36250123.362   142253274.127         143.351          27.000  
J02  39269387.169   206361985.452       -1121.744          34.000  
R04  20472059.488   109626948.993       -3427.999          31.000  
R05  19235376.326   102824110.568         473.417          29.000  
> 2021  9 30 12  0 19.9994168  0 14
C07  36327593.930   189167295.502         163.813          32.000  
C09  37178612.682   193598790.5591        297.091          16.000  
C10  37071758.256   193042322.488         241.353          26.000  
C16  36679453.743   190999660.001         238.764          27.000  
E08                                                                                                                                  22074604.869    86625481.537       -1049.130          28.000  
G16  21861194.910   114881350.172        2389.681          27.000  
G22  23015733.439   120948533.254          46.760          28.000  
G29  23726440.927   124683245.1041       -917.792          18.000  
G31  21479201.158   112873892.1101      -1078.991          19.000  
G32  21115875.184   110964707.910       -1695.039          31.000    21115885.677    82863265.973       -1265.609          27.000  
J01  36249989.654   190494959.282         194.043          39.000    36249996.849   142252777.710         143.359          27.000  
J02  39269510.983   206362634.805       -1122.462          35.000  
R04  20472607.209   109629882.845       -3425.115          35.000  
R05  19235198.549   102823160.380         472.948          29.000  
> 2021  9 30 12  0 20.9994166  0 14
C04  38367559.291   199789950.2891       -376.483          28.000  
C06  36316867.656   189111470.8181        205.119          19.000  
C07  36327499.495   189166817.284         170.026          31.000  
C16  36679349.415   190999109.257         238.210          27.000  
G16  21860678.667   114878645.836        2388.162          28.000  
G22  23015665.986   120948172.244          45.141          27.000  
G26  20115384.109   105707161.6781       -144.627          25.000  
G29  23726556.647   124683849.090        -919.830          20.000  
G31  21479345.359   112874656.054       -1079.289          20.000  
G32  21116136.303   110966088.202       -1696.119          31.000    21116148.595    82864296.900       -1267.116          26.000  
J01  36249895.819   190494451.676         194.672          31.000    36249900.916   142252398.824         143.830          28.000  
J02  39269663.578   206363442.445       -1123.278          32.000  
R04  20473185.808   109632981.321       -3424.910          34.000  
R05  19235050.452   102822368.715         472.392          33.000  
> 2021  9 30 12  0 21.9994163  0 12
C04  38367541.304   199789858.330        -376.717          34.000  
C10  37071515.724   193041063.4051        239.192          20.000  
C16  36679213.609   190998402.852         237.236          25.000  
G16  21860133.944   114875784.788        2387.772          24.000  
G26  20115319.954   105706832.915        -143.809          24.000  
G29  23726641.788   124684296.130        -919.110          23.000  
G31  21479459.580   112875261.679       -1078.511          21.000  
G32  21116376.737   110967313.379       -1699.242          37.000    21116382.133    82865212.012       -1269.431          29.000  
J01  36249770.806   190493785.366         192.734          32.000    36249775.003   142251902.688         142.693          28.000  
J02  39269787.392   206364092.978       -1123.244          34.000  
R04  20473735.328   109635923.095       -3428.038          33.000  
R05  19234870.276   102821405.728         471.506          30.000  
> 2021  9 30 12  0 22.9994161  0 10
C04  38367553.595   199789922.755        -377.104          31.000  
C07  36327287.842   189165706.6081        164.067          20.000  
G16  21859620.699   114873083.203        2384.741          24.000  
G22  23015507.096   120947298.5781         41.613          24.000  
G26  20115286.377   105706662.452        -145.657          21.000  
G29  23726755.709   124684900.498        -920.897          22.000  
G32  21116641.453                       -1697.080          36.000    21116645.650    82866246.584       -1269.915          31.000  
J01  36249674.273   190493278.336         191.144          31.000    36249678.170   142251523.892         141.694          26.000  
R04  20474315.426   109639030.201       -3429.603          35.000  
R05  19234723.078   102820618.710         471.204          33.000  
> 2021  9 30 12  0 23.9994158  0 13
C04  38367535.608   199789831.484        -377.430          33.000  
C06  36316510.003   189109602.4861        207.267          20.000  
C09  37178090.743   193596042.4741        299.578          16.000  
C10  37071275.290   193039803.5681        241.918          20.000  
C16  36678979.171   190997147.8491        240.299          19.000  
G22  23015407.865   120946784.815          39.973          26.000  
G29  23726839.651   124685349.031        -920.803          30.000  
G31  21479717.701   112876630.5271      -1079.761          22.000  
G32  21116874.692   110969927.4771      -1705.513          36.000    21116878.589    82867162.892       -1269.001          28.000  
J01  36249548.360   190492614.963         190.440          32.000    36249552.557   142251029.847         141.404          27.000  
J02  39270061.102   206365550.0401      -1123.942          29.000  
R04  20474862.548   109641960.207       -3429.431          37.000  
R05  19234544.402   102819663.346         469.744          32.000  
> 2021  9 30 12  0 24.9994156  0 12
C04  38367547.600   199789897.483        -379.537          29.000  
C06  36316410.772   189109083.759         204.885          20.000  
C16  36678875.443   190996595.820         240.109          23.000  
G16  21858560.334   114867522.7701       2385.748          25.000  
G22  23015338.313   120946429.671          39.992          27.000  
G26  20115197.938   105706165.5741       -145.552          29.000  
G29  23726956.270   124685955.589        -921.367          24.000  
G32  21117138.509                       -1702.490          36.000    21117141.207    82868196.332       -1269.247          26.000  
J01  36249451.227   190492108.673         192.277          25.000    36249456.024   142250652.189         142.779          25.000  
J02  39270212.498   206366358.893       -1124.421          27.000  
R04  20475446.843   109645088.860       -3429.799          33.000  
R05  19234396.904   102818875.633         467.759          35.000  
> 2021  9 30 12  0 25.9994153  0 10
C01  37488835.519   195214289.2961       -391.883          29.000  
C09  37177827.526   193594665.0401        296.878          18.000  
G16  21858015.910   114864664.921        2385.795          23.000  
G22  23015239.082   120945916.897          39.375          26.000  
G26  20115137.080   105705838.775        -145.725          31.000  
G31  21479978.520   112877998.6471      -1078.329          21.000  
G32  21117372.647                       -1702.321          38.000    21117375.945    82869113.597       -1270.279          29.000  
J01  36249325.614   190491443.726         192.354          23.000    36249329.511   142250155.737         143.858          23.000  
R04  20475996.662   109648032.509       -3430.668          25.000  
R05  19234218.228   102817920.113         466.802          31.000  
> 2021  9 30 12  0 26.9994150  0  9
C04  38367511.325   199789722.3901       -382.145          32.000  
C07  36326846.547   189163346.5651        158.069          13.000  
C16  36678604.730   190995181.7631        238.364          21.000  
G22  23015137.752   120945406.111          36.724          23.000  
G26  20115075.323   105705512.800        -147.461          31.000  
G32  21117605.286   110973770.8811      -1700.698          37.000    21117610.682    82870031.092       -1271.123          26.000  
J01  36249200.301   190490779.077         191.392          22.000    36249204.198   142249658.769         143.493          20.000  
R04  20476543.784   109650963.044       -3432.839          23.000  
R05  19234041.050   102816973.502         466.400          30.000  
> 2021  9 30 12  0 27.9994150  0 10
C06  36316114.877   189107530.9461        204.346          24.000  
C07  36326820.465   189163188.606         157.294          17.000  
C16  36678558.562   190994942.830         239.416          21.000  
G16  21857017.302   114859419.8671       2385.836          20.000  
G26  20115103.803   105705659.687        -146.809          25.000  
G31  21480293.602   112879680.5081      -1079.604          20.000  
G32  21117930.561   110975475.333       -1705.013          35.000    21117934.458    82871302.316       -1271.626          26.000  
J01  36249165.225   190490588.630         189.939          24.000    36249167.923   142249516.415         141.368          19.000  
J02  39270672.379   206368788.7031      -1125.771          27.000  
R05  19233953.811   102816507.066         466.634          30.000  
> 2021  9 30 12  0 28.9994148  0 11
C04  38367598.864   199790176.1021       -383.656          32.000  
C06  36316014.746   189107014.364         203.916          25.000  
C16  36678453.035   190994390.568         239.945          24.000  
G16  21856506.156   114856720.572        2383.367          24.000  
G26  20115072.025   105705490.529        -147.620          24.000  
G29  23727420.648   124688367.2361       -918.320          17.000  
G32  21118193.779   110976863.895       -1700.690          35.000    21118197.976    82872339.279       -1274.327          29.000  
J01                                                                  36249072.289   142249143.697         132.362          18.000  
J02  39270824.974   206369598.803       -1125.860          25.000  
R04  20477778.929   109657576.4391      -3435.752          19.000  
R05  19233805.114   102815711.578         464.603          28.000  
> 2021  9 30 12  0 29.9994143  0 12
C04  38367523.316   199789778.804        -383.276          33.000  
C06  36315824.078   189106030.084         203.007          22.000  
C09  37177303.788   193591919.3341        295.717          19.000  
C16  36678258.170   190993371.145         237.478          27.000  
G22  23014903.314   120944188.2701         38.189          20.000  
G29  23727449.429   124688499.831        -922.117          18.000  
G31  21480492.365   112880740.8741      -1082.801          18.000  
G32  21118366.459   110977777.597       -1702.606          33.000    21118373.055    82873025.256       -1274.846          23.000  
J01  36248888.517   190489110.3751        186.810          19.000    36248888.517   142248422.289         134.352          17.000  
J02  39270889.429   206369936.284       -1124.369          26.000  
R04  20478270.588   109660210.048       -3434.977          19.000  
R05  19233568.278   102814445.702         462.321          24.000  
> 2021  9 30 12  0 30.9994140  0 11
C06  36315694.568   189105358.344         203.510          25.000  
C07  36326430.136   189161158.9651        151.973          18.000  
C16  36678122.664   190992665.799         236.511          27.000  
G16  21855361.248   114850696.2461       2382.700          21.000  
G22  23014803.783   120943677.463          37.018          20.000  
G29  23727537.568   124688949.815        -922.241          24.000  
G32  21118599.098   110979007.873       -1703.808          32.000    21118607.492    82873946.300       -1273.061          25.000  
J01                                                                  36248763.803   142247932.438         140.493          17.000  
J02  39271013.243   206370587.403       -1122.109          24.000  
R04  20478830.301   109663206.643       -3434.514          19.000  
R05  19233392.899   102813508.759         462.001          24.000  
> 2021  9 30 12  0 31.9994138  0 14
C04  38367519.419   199789763.2191       -381.955          29.000  
C06  36315595.037   189104841.636         205.692          24.000  
C09  37177041.170   193590546.4741        296.014          18.000  
C10  37070311.757   193034766.2011        242.703          16.000  
C16  36678016.538   190992116.842         237.087          25.000  
G16  21854847.104   114847998.329        2382.479          22.000  
G26  20114866.068   105704363.0181       -150.760          20.000  
G29  23727656.585   124689558.716        -925.111          24.000  
G31  21480752.285   112882118.6601      -1081.353          18.000  
G32  21118860.217   110980395.417       -1702.637          27.000    21118871.909    82874984.489       -1275.388          21.000  
J01  36248667.270   190487942.5051        195.096          17.000  
J02  39271167.337   206371393.369       -1120.697          27.000  
R04  20479408.001   109666300.081       -3432.355          20.000  
R05  19233244.802   102812716.315         461.872          27.000  
> 2021  9 30 12  0 32.9994135  0 11
C06  36315463.128   189104168.669         204.405          20.000  
C07  36326216.983   189160065.9891        157.695          18.000  
C16  36677880.432   190991410.715         238.148          23.000  
G16  21854303.281   114845143.069        2382.601          25.000  
G26  20114804.611   105704041.691        -151.017          21.000  
G29  23727742.026   124690011.791        -926.035          25.000  
G32  21119092.856   110981625.972       -1704.638          30.000    21119106.647    82875906.878       -1274.783          22.000  
J01  36248539.858   190487273.828         196.408          17.000  
J02  39271291.151   206372042.413       -1122.645          27.000  
R04  20479957.520   109669243.084       -3433.116          20.000  
R05  19233072.121   102811793.890         461.673          32.000  
> 2021  9 30 12  0 33.9994132  0  8
G16  21853759.757   114842287.954        2382.729          23.000  
G22  23014530.372   120942301.0801         37.069          20.000  
G26  20114742.254   105703719.289        -150.137          25.000  
G29  23727831.064   124690467.544        -929.883          23.000  
G32                                                                  21119339.885    82876826.934       -1272.935          27.000  
J02  39271415.565   206372691.522       -1121.187          25.000  
R04  20480515.734   109672231.849       -3434.396          20.000  
R05  19232899.141   102810868.775         460.855          32.000  
> 2021  9 30 12  0 34.9994130  0  9
C10  37069934.618   193032800.4981        239.013          17.000  
G16  21853247.711   114839589.932        2382.140          22.000  
G26  20114710.476   105703555.315        -152.761          24.000  
G29  23727948.883   124691082.259        -930.227          22.000  
G31  21481127.625   112884104.1371      -1079.598          27.000  
G32                                                                  21119604.302    82877864.432       -1273.591          28.000  
J02  39271569.058   206373497.533       -1121.602          25.000  
R04  20481107.824   109675403.133       -3437.032          24.000  
R05  19232753.442   102810089.918         459.454          32.000  
> 2021  9 30 12  0 35.9994127  0  9
C01  37488817.831   195214208.2281       -390.599          32.000  
C04  38367480.146   199789573.1491       -381.793          32.000  
G26  20114648.419   105703236.748        -154.689          25.000  
G29  23728038.821   124691540.884        -931.431          24.000  
G31  21481240.347   112884710.026       -1077.134          27.000  
G32  21119834.843   110985486.0141      -1707.625          38.000    21119839.939    82878786.216       -1276.005          27.000  
J01  36248194.197   190485438.4281        189.721          17.000  
R04  20481667.836   109678401.363       -3439.811          24.000  
R05  19232578.363   102809154.440         458.042          32.000  
> 2021  9 30 12  0 36.9994125  0  9
C04  38367493.337   199789642.447        -381.518          35.000  
G16  21852196.039   114834043.3761       2375.973          21.000  
G26  20114615.741   105703075.425        -154.047          31.000  
G29  23728156.639   124692157.153        -931.178          21.000  
G31  21481383.947   112885472.209       -1078.093          26.000  
G32  21120097.461   110986878.732       -1708.088          35.000  
J02  39271843.069   206374958.3071      -1126.754          21.000  
R04  20482260.826   109681577.167       -3438.964          21.000  
R05  19232435.662   102808391.372         457.197          33.000  
> 2021  9 30 12  0 37.9994122  0 13
C01  37488816.332   195214206.3181       -388.542          31.000  
C04  38367476.848   199789555.469        -381.593          34.000  
C10  37069563.175   193030843.3151        231.773          18.000  
G16  21851657.013   114831194.603        2375.551          21.000  
G22  23014198.502   120940589.4301         31.345          20.000  
G26  20114554.584   105702756.798        -154.995          32.000  
G29  23728244.478   124692616.570        -933.075          21.000  
G31  21481498.468   112886078.441       -1079.919          20.000  
G32  21120330.699   110988114.937       -1708.923          35.000  
J01  36247972.051   190484272.7101        188.543          18.000  
J02  39271968.082   206375611.843       -1125.960          24.000  
R04  20482809.446   109684514.973       -3440.431          22.000  
R05  19232261.482   102807459.734         456.473          33.000  
> 2021  9 30 12  0 38.9994120  0  8
C01  37488831.322   195214282.447        -388.550          32.000  
C04  38367491.239   199789624.571        -381.388          34.000  
G16  21851146.166   114828504.029        2374.913          21.000  
G26  20114522.506   105702597.329        -156.333          26.000  
G29  23728359.598   124693234.940        -934.681          23.000  
G31  21481644.167   112886843.589       -1080.688          19.000  
J02  39272125.173   206376422.017       -1124.577          25.000  
R05  19232117.582   102806690.978         456.000          34.000  
> 2021  9 30 12  0 39.9994117  0 10
C01  37488815.733   195214203.218        -390.219          29.000  
C04  38367474.750   199789537.346        -381.249          32.000  
C16  36677017.929   190986938.9481        237.037          31.000  
G26  20114462.847   105702282.008        -157.870          24.000  
G29  23728450.136   124693695.281        -932.202          18.000  
G31  21481759.887   112887449.918       -1078.223          23.000  
G32  21120831.952   110990745.2741      -1709.221          34.000  
J02  39272248.988   206377074.035       -1124.734          28.000  
R04  20483945.660   109690599.7821      -3441.000          21.000  
R05  19231940.405   102805743.674         455.315          32.000  
> 2021  9 30 12  0 40.9994115  0  8
C04  38367488.241   199789606.275        -381.379          33.000  
C16  36676911.802   190986389.356         237.829          30.000  
G16  21850089.997   114822964.5191       2376.440          25.000  
G26  20114437.365   105702124.728        -157.405          22.000  
G31  21481904.087   112888212.892       -1078.425          25.000  
G32  21121097.568   110992139.769       -1709.786          35.000  
J02  39272403.681   206377882.974       -1124.049          32.000  
R05  19231792.007   102804950.897         452.983          30.000  
> 2021  9 30 12  0 41.9994115  0  9
C04  38367561.990   199789987.566        -381.580          33.000  
G16  21849633.414   114820587.231        2376.534          22.000  
G22  23013956.569   120939372.9911         25.529          20.000  
G26  20114470.342   105702282.686        -159.799          23.000  
G29  23728757.123   124695244.0251       -929.283          20.000  
G32  21121424.942   110993850.459       -1712.645          37.000  
J02  39272616.833   206379006.575       -1123.769          33.000  
R04  20485164.316   109697125.4521      -3441.249          25.000  
R05  19231708.965   102804506.440         452.012          28.000  
> 2021  9 30 12  0 42.9994112  0  9
C04  38367545.501   199789900.624        -381.808          32.000  
C16  36676728.030   190985447.3121        235.316          21.000  
G16  21849088.691   114817738.538        2374.341          21.000  
G22  23013857.938   120938873.017          28.450          19.000  
G31  21482227.264   112889901.0071      -1081.853          20.000  
G32  21121660.279   110995087.021       -1711.205          32.000  
J02  39272740.048   206379657.527       -1124.032          33.000  
R04  20485721.630   109700109.524       -3442.994          21.000  
R05  19231535.085   102803576.845         451.525          30.000  
> 2021  9 30 12  0 43.9994109  0  8
C04  38367529.312   199789813.959        -381.826          33.000  
C16  36676594.622   190984743.587         234.225          22.000  
G16  21848544.867   114814892.185        2371.042          21.000  
G31  21482343.583   112890510.623       -1082.698          21.000  
G32  21121895.916   110996325.896       -1711.754          34.000  
J01  36247373.066   190481104.6921        184.495          19.000  
J02  39272862.963   206380310.142       -1125.511          28.000  
R05  19231359.407   102802637.806         450.960          30.000  
> 2021  9 30 12  0 44.9994107  0  8
C04  38367543.402   199789883.821        -382.613          30.000  
C16  36676490.894   190984197.855         232.339          18.000  
G16  21848033.421   114812206.498        2371.357          21.000  
G22  23013697.549   120938027.5021         29.096          20.000  
G32  21122168.427                       -1719.831          36.000  
J02  39273017.056   206381120.712       -1124.337          25.000  
R04  20486853.646   109706171.1481      -3444.775          24.000  
R05  19231215.207   102801866.845         450.124          31.000  
> 2021  9 30 12  0 45.9994104  0  6
C04  38367527.813   199789797.978        -382.677          32.000  
G31  21482608.600   112891891.2251      -1083.708          20.000  
G32  21122403.165                       -1715.890          37.000  
J02  39273141.470   206381772.115       -1124.694          23.000  
R04  20487410.661   109709154.269       -3444.891          23.000  
R05  19231039.828   102800929.520         449.260          32.000  
> 2021  9 30 12  0 46.9994102  0  8
C04  38367541.903   199789868.333        -382.886          32.000  
C16  36676247.462   190982950.2201        234.555          19.000  
G16  21846979.051   114806672.3861       2373.571          19.000  
G22  23013542.556   120937182.1481         27.967          19.000  
G31  21482753.999   112892658.130       -1081.836          20.000  
G32  21122668.181   111000384.4431      -1716.510          37.000  
J02  39273296.163   206382581.068       -1123.355          25.000  
R05  19230895.328   102800157.279         448.380          31.000  
> 2021  9 30 12  0 47.9994099  0 10
C04  38367526.314   199789782.795        -383.094          34.000  
G16  21846436.127   114803827.141        2372.345          20.000  
G22  23013443.924   120936682.019          26.818          19.000  
G26  20114183.141   105700761.2911       -168.975          17.000  
G29  23729340.819   124698351.2621       -942.784          16.000  
G32  21122903.518   111001624.820       -1712.931          34.000  
J01  36246935.968   190478786.0701        185.702          17.000  
J02  39273419.378   206383231.549       -1122.393          24.000  
R04  20488517.195   109715079.4591      -3445.740          16.000  
R05  19230720.249   102799221.798         447.287          32.000  
> 2021  9 30 12  0 48.9994097  0  9
C04  38367540.704   199789853.431        -383.047          31.000  
C16  36676010.626   190981696.1701        237.502          23.000  
G16  21845924.081   114801140.170        2371.568          19.000  
G22  23013375.871   120936338.921          28.659          20.000  
G29  23729458.638   124698980.451        -944.364          15.000  
G32  21123168.535   111003023.423       -1714.490          33.000  
J02  39273575.869   206384038.949       -1122.174          22.000  
R04  20489100.591   109718203.624       -3444.138          18.000  
R05  19230576.049   102798450.662         446.373          33.000  
> 2021  9 30 12  0 49.9994094  0  7
C16  36675873.021   190980990.494         237.864          25.000  
G16  21845380.558   114798295.507        2370.657          19.000  
G26  20114091.704   105700308.8291       -165.931          17.000  
G32  21123405.671   111004265.408       -1714.941          39.000  
J02  39273699.384   206384688.804       -1123.024          22.000  
R04  20489657.605   109721186.191       -3445.145          19.000  
R05  19230403.369   102797527.085         445.085          34.000  
> 2021  9 30 12  0 50.9994092  0  7
C16  36675766.895   190980440.653         238.178          22.000  
G29  23729660.698   124700075.4621       -938.495          13.000  
G32  21123672.486   111005667.299       -1719.550          37.000  
J01  36246618.788   190477120.4561        187.157          18.000  
J02  39273855.276   206385498.318       -1125.151          25.000  
R04  20490238.003   109724294.553       -3446.566          20.000  
R05  19230260.668   102796764.684         444.229          31.000  
> 2021  9 30 12  0 51.9994089  0  7
C16  36675629.890   190979734.407         237.050          24.000  
G22  23013110.255   120934711.5911         27.768          20.000  
G26  20113995.171   105699852.0501       -166.254          19.000  
G31  21483394.056   112896027.7931      -1079.663          17.000  
G32  21123910.521   111006916.166       -1721.095          35.000  
J02  39273980.289   206386151.551       -1125.739          25.000  
R04  20490788.722   109727243.976       -3447.905          20.000  
> 2021  9 30 12  0 52.9994086  0  8
C16  36675496.482   190979028.731         236.680          21.000  
G26  20113933.414   105699546.491        -169.716          20.000  
G29  23729830.980   124701005.4041       -938.281          13.000  
G32  21124145.558   111008162.042       -1715.556          31.000  
J01  36246369.960   190475803.4321        185.023          20.000  
J02  39274103.204   206386805.892       -1127.212          24.000  
R04  20491340.940   109730200.852       -3449.475          24.000  
R05  19229918.904   102794937.4671        442.556          28.000  
> 2021  9 30 12  0 53.9994084  0  8
C16  36675392.454   190978479.470         238.010          22.000  
G22  23012943.571   120933867.9351         27.599          20.000  
G26  20113904.334   105699400.489        -169.374          20.000  
G32  21124411.174   111009563.359       -1717.351          34.000  
J01  36246275.526   190475303.391         184.317          21.000  
J02  39274257.597   206387617.001       -1126.870          23.000  
R04  20491924.036   109733323.649       -3450.231          26.000  
R05  19229775.603   102794172.083         441.041          30.000  
> 2021  9 30 12  0 54.9994081  0  7
G22  23012847.937   120933368.661          25.288          19.000  
G26  20113843.176   105699096.847        -168.185          20.000  
G32  21124648.610   111010808.549       -1719.065          34.000  
J01  36246146.915   190474646.037         184.825          21.000  
J02  39274382.611   206388270.950       -1125.556          24.000  
R04  20492479.851   109736299.360       -3450.344          24.000  
R05  19229601.424   102793240.782         439.691          33.000  
> 2021  9 30 12  0 55.9994081  0  7
C16  36675213.478   190977537.6111        235.480          19.000  
G31  21483969.358   112899082.4611      -1080.033          19.000  
G32  21124981.080                       -1720.408          36.000  
J01  36246113.338   190474460.596         185.661          21.000  
J02  39274598.161   206389395.861       -1123.994          26.000  
R04  20493121.407   109739735.055       -3451.807          25.000  
R05  19229521.679   102792813.942         439.684          34.000  
> 2021  9 30 12  0 56.9994076  0  6
C16  36675017.114   190976522.154         234.237          24.000  
G22  23012682.451   120932532.3351         21.667          19.000  
G32  21125158.857   111013458.2181      -1720.439          37.000  
J02  39274663.216   206389732.838       -1124.989          23.000  
R04  20493613.067   109742367.544       -3454.900          25.000  
R05  19229292.038   102791586.566         438.140          32.000  
> 2021  9 30 12  0 57.9994074  0  7
G16  21841176.268   114776210.8291       2363.172          17.000  
G29  23730353.218   124703820.3721       -936.702          15.000  
G32  21125428.070   111014862.683       -1716.757          35.000  
J01  36245831.533   190472989.1791        182.220          20.000  
J02  39274818.509   206390542.296       -1124.484          26.000  
R04  20494197.362   109745497.076       -3454.948          25.000  
R05  19229152.335   102790840.249         436.800          28.000  
> 2021  9 30 12  0 58.9994071  0  7
G22  23012524.161   120931705.1221         17.923          19.000  
G29  23730439.559   124704284.340        -932.280          14.000  
G31  21484289.236   112900754.4521      -1085.379          18.000  
G32  21125663.707   111016108.157       -1720.027          33.000  
J02  39274942.923   206391194.332       -1125.048          26.000  
R04  20494754.976   109748483.272       -3456.354          23.000  
R05  19228979.954   102789918.627         436.597          28.000  
> 2021  9 30 12  0 59.9994068  0  5
C04  38367478.347   199789548.6841       -382.969          30.000  
G32  21125899.044   111017356.224       -1723.315          33.000  
J02  39275065.538   206391846.571       -1124.793          28.000  
R04  20495310.792   109751459.000       -3455.636          28.000  
R05  19228809.372   102789006.190         436.025          24.000  
> 2021  9 30 12  1  0.9994066  0  8
G16  21839589.167   114767871.7991       2356.775          16.000  
G22  23012366.170   120930882.6241         17.675          19.000  
G29  23730637.122   124705355.1441       -926.983          13.000  
G32  21126166.160   111018764.010       -1722.544          35.000  
J01  36245491.868   190471173.9371        188.534          19.000  
J02  39275219.032   206392656.659       -1125.189          26.000  
R04  20495901.683   109754623.430       -3455.801          24.000  
R05  19228664.273   102788231.120         434.872          28.000  
> 2021  9 30 12  1  1.9994063  0  8
C04  38367475.649   199789533.9921       -383.710          35.000  
G22  23012272.635   120930392.201          18.771          20.000  
G26  20113527.495   105697448.9401       -173.632          18.000  
G32  21126404.195   111020014.431       -1723.821          35.000  
J01  36245365.056   190470515.171         185.900          19.000  
J02  39275342.546   206393309.356       -1126.563          27.000  
R04  20496461.995   109757624.138       -3457.615          26.000  
R05  19228491.292   102787306.328         433.311          29.000  
> 2021  9 30 12  1  2.9994061  0  7
C04  38367489.740   199789605.373        -384.054          33.000  
G16  21838544.091   114762366.9011       2360.559          15.000  
G26  20113500.513   105697306.954        -173.472          18.000  
G32  21126670.710   111021422.656       -1723.214          33.000  
J02  39275495.140   206394119.589       -1124.344          26.000  
R04  20497047.489   109760759.493       -3457.451          26.000  
R05  19228347.692   102786538.479         431.704          29.000  
> 2021  9 30 12  1  3.9994058  0  9
C04  38367473.251   199789521.266        -384.631          31.000  
G16  21838005.663   114759529.524        2364.397          15.000  
G22  23012108.948   120929570.5211         14.431          20.000  
G26  20113443.553   105697007.936        -173.932          19.000  
G32  21126914.142   111022674.029       -1724.839          35.000  
J01  36245143.509   190469357.4751        181.002          18.000  
J02  39275620.154   206394771.409       -1125.076          27.000  
R04  20497610.799   109763775.883       -3458.574          25.000  
R05  19228175.011   102785615.659         430.690          28.000  
> 2021  9 30 12  1  4.9994056  0  8
C04  38367487.341   199789593.834        -385.063          29.000  
G16  21837496.915   114756849.976        2364.048          14.000  
G29  23731040.043   124707501.7751       -935.071          13.000  
G31  21485088.483   112904874.0471      -1084.126          15.000  
G32  21127181.856   111024083.844       -1725.090          35.000  
J02  39275774.247   206395580.160       -1125.072          24.000  
R04  20498206.787   109766967.375       -3458.468          26.000  
R05  19228033.809   102784860.789         429.954          33.000  
> 2021  9 30 12  1  5.9994053  0  9
C04  38367472.352   199789510.919        -385.658          30.000  
G22  23011950.358   120928756.6991         14.000          21.000  
G26  20113362.909   105696566.2041       -172.742          20.000  
G29  23731126.083   124707963.583        -936.966          13.000  
G31  21485203.903   112905482.992       -1078.478          15.000  
G32  21127418.093   111025335.603       -1724.956          32.000  
J02  39275898.361   206396232.612       -1125.634          26.000  
R04  20498760.204   109769930.965       -3459.034          23.000  
R05  19227862.927   102783947.047         429.849          31.000  
> 2021  9 30 12  1  6.9994051  0  6
G22  23011885.903   120928427.817          13.725          25.000  
G26  20113336.827   105696425.142        -175.889          20.000  
