$GPGGA,065355.000,3114.466482,N,12129.128397,E,1,19,0.8,1.2,M,,M,,*43
$GPRMC,065355.000,A,3114.466482,N,12129.128397,E,1.0,304.010002298,250122,,E,A*29
$GPGGA,065356.000,3114.466858,N,12129.128356,E,1,19,0.8,-3.1,M,,M,,*6A
$GPRMC,065356.000,A,3114.466858,N,12129.128356,E,1.1,273.130689379,250122,,E,A*24
$GPGGA,065357.000,3114.467265,N,12129.128260,E,1,19,0.8,-1.4,M,,M,,*6D
$GPRMC,065357.000,A,3114.467265,N,12129.128260,E,1.2,247.55897992299998,250122,,E,A*16
$GPGGA,065358.000,3114.467624,N,12129.127725,E,1,19,0.8,12.3,M,,M,,*70
$GPRMC,065358.000,A,3114.467624,N,12129.127725,E,1.8,248.58798891400002,250122,,E,A*15
$GPGGA,065359.000,3114.467296,N,12129.128002,E,1,19,0.8,13.5,M,,M,,*76
$GPRMC,065359.000,A,3114.467296,N,12129.128002,E,1.2,255.40416261599998,250122,,E,A*10
$GPGGA,065400.000,3114.467454,N,12129.127347,E,1,19,0.8,14.9,M,,M,,*73
$GPRMC,065400.000,A,3114.467454,N,12129.127347,E,1.1,277.638067869,250122,,E,A*29
$GPGGA,065401.000,3114.467230,N,12129.127158,E,1,19,0.8,16.0,M,,M,,*71
$GPRMC,065401.000,A,3114.467230,N,12129.127158,E,1.2,275.044808936,250122,,E,A*26
$GPGGA,065402.000,3114.466997,N,12129.126590,E,1,19,0.8,16.2,M,,M,,*76
$GPRMC,065402.000,A,3114.466997,N,12129.126590,E,1.6,270.152016527,250122,,E,A*2F
$GPGGA,065403.000,3114.466725,N,12129.126286,E,1,19,0.8,15.9,M,,M,,*78
$GPRMC,065403.000,A,3114.466725,N,12129.126286,E,1.7,271.390685008,250122,,E,A*21
$GPGGA,065404.000,3114.466616,N,12129.125720,E,1,19,0.8,16.0,M,,M,,*7E
$GPRMC,065404.000,A,3114.466616,N,12129.125720,E,1.8,268.636780023,250122,,E,A*2E
$GPGGA,065405.000,3114.464816,N,12129.128333,E,1,19,0.8,26.8,M,,M,,*73
$GPRMC,065405.000,A,3114.464816,N,12129.128333,E,1.5,269.896485487,250122,,E,A*2C
$GPGGA,065406.000,3114.464445,N,12129.128341,E,1,19,0.8,29.9,M,,M,,*71
$GPRMC,065406.000,A,3114.464445,N,12129.128341,E,1.8,270.195702417,250122,,E,A*2A
$GPGGA,065407.000,3114.464372,N,12129.127751,E,1,19,0.8,30.6,M,,M,,*7E
$GPRMC,065407.000,A,3114.464372,N,12129.127751,E,2.1,266.650642951,250122,,E,A*2B
$GPGGA,065408.000,3114.464373,N,12129.127333,E,1,19,0.8,32.2,M,,M,,*76
$GPRMC,065408.000,A,3114.464373,N,12129.127333,E,1.6,277.05834872599996,250122,,E,A*1B
$GPGGA,065409.000,3114.464287,N,12129.126824,E,1,19,0.8,32.2,M,,M,,*71
$GPRMC,065409.000,A,3114.464287,N,12129.126824,E,1.6,273.56465228400003,250122,,E,A*17
$GPGGA,065410.000,3114.464447,N,12129.126215,E,1,19,0.8,32.4,M,,M,,*7D
$GPRMC,065410.000,A,3114.464447,N,12129.126215,E,1.7,255.28668336099997,250122,,E,A*10
$GPGGA,065411.000,3114.464842,N,12129.126261,E,1,19,0.8,33.1,M,,M,,*72
$GPRMC,065411.000,A,3114.464842,N,12129.126261,E,1.2,216.69540376,250122,,E,A*16
$GPGGA,065412.000,3114.465011,N,12129.125986,E,1,19,0.8,33.3,M,,M,,*7D
$GPRMC,065412.000,A,3114.465011,N,12129.125986,E,1.1,221.986737711,250122,,E,A*23
$GPGGA,065413.000,3114.465100,N,12129.125632,E,1,19,0.8,33.3,M,,M,,*7D
$GPRMC,065413.000,A,3114.465100,N,12129.125632,E,1.1,244.079544915,250122,,E,A*25
$GPGGA,065414.000,3114.465152,N,12129.125165,E,1,19,0.8,33.6,M,,M,,*7D
$GPRMC,065414.000,A,3114.465152,N,12129.125165,E,1.2,249.397639548,250122,,E,A*20
$GPGGA,065415.000,3114.465346,N,12129.124635,E,1,19,0.8,34.1,M,,M,,*78
$GPRMC,065415.000,A,3114.465346,N,12129.124635,E,1.2,231.789930757,250122,,E,A*2B
$GPGGA,065416.000,3114.465529,N,12129.124130,E,1,19,0.8,34.9,M,,M,,*7E
$GPRMC,065416.000,A,3114.465529,N,12129.124130,E,1.3,228.17958834200002,250122,,E,A*18
$GPGGA,065417.000,3114.465097,N,12129.124220,E,1,19,0.8,35.6,M,,M,,*73
$GPRMC,065417.000,A,3114.465097,N,12129.124220,E,1.1,228.41432828599997,250122,,E,A*14
$GPGGA,065418.000,3114.464618,N,12129.123774,E,1,19,0.8,35.9,M,,M,,*70
$GPRMC,065418.000,A,3114.464618,N,12129.123774,E,1.3,220.14294178400002,250122,,E,A*10
$GPGGA,065419.000,3114.464562,N,12129.124075,E,1,19,0.8,37.0,M,,M,,*75
$GPRMC,065419.000,A,3114.464562,N,12129.124075,E,1.0,215.67512375,250122,,E,A*1F
$GPGGA,065420.000,3114.464449,N,12129.123722,E,1,19,0.8,37.4,M,,M,,*71
$GPRMC,065420.000,A,3114.464449,N,12129.123722,E,1.1,217.431998689,250122,,E,A*23
$GPGGA,065421.000,3114.464258,N,12129.123261,E,1,19,0.8,37.5,M,,M,,*75
$GPRMC,065421.000,A,3114.464258,N,12129.123261,E,1.1,229.48493313,250122,,E,A*11
$GPGGA,065422.000,3114.464105,N,12129.122715,E,1,19,0.8,37.6,M,,M,,*79
$GPRMC,065422.000,A,3114.464105,N,12129.122715,E,1.2,240.53183533599997,250122,,E,A*1A
$GPGGA,065423.000,3114.463811,N,12129.121982,E,1,19,0.8,37.6,M,,M,,*70
$GPRMC,065423.000,A,3114.463811,N,12129.121982,E,1.4,242.62960502,250122,,E,A*10
$GPGGA,065424.000,3114.463512,N,12129.121216,E,1,19,0.8,37.8,M,,M,,*71
$GPRMC,065424.000,A,3114.463512,N,12129.121216,E,1.5,255.30476970200002,250122,,E,A*1C
$GPGGA,065425.000,3114.463488,N,12129.120237,E,1,19,0.8,37.8,M,,M,,*70
$GPRMC,065425.000,A,3114.463488,N,12129.120237,E,1.6,256.260586385,250122,,E,A*24
$GPGGA,065426.000,3114.463041,N,12129.119471,E,1,19,0.8,38.3,M,,M,,*78
$GPRMC,065426.000,A,3114.463041,N,12129.119471,E,1.8,254.73696240900003,250122,,E,A*14
$GPGGA,065427.000,3114.463950,N,12129.115981,E,1,19,0.8,36.8,M,,M,,*7B
$GPRMC,065427.000,A,3114.463950,N,12129.115981,E,2.2,250.42145759599998,250122,,E,A*1E
$GPGGA,065428.000,3114.463505,N,12129.113943,E,1,19,0.8,36.3,M,,M,,*7B
$GPRMC,065428.000,A,3114.463505,N,12129.113943,E,2.5,250.116038853,250122,,E,A*21
$GPGGA,065429.000,3114.463245,N,12129.113135,E,1,19,0.8,36.4,M,,M,,*77
$GPRMC,065429.000,A,3114.463245,N,12129.113135,E,2.5,249.216093118,250122,,E,A*26
$GPGGA,065430.000,3114.462932,N,12129.112251,E,1,19,0.8,36.3,M,,M,,*72
$GPRMC,065430.000,A,3114.462932,N,12129.112251,E,2.6,248.083511136,250122,,E,A*2B
$GPGGA,065431.000,3114.462145,N,12129.111696,E,1,19,0.8,36.3,M,,M,,*77
$GPRMC,065431.000,A,3114.462145,N,12129.111696,E,2.5,238.86319278099998,250122,,E,A*10
$GPGGA,065432.000,3114.461633,N,12129.110666,E,1,19,0.8,36.4,M,,M,,*78
$GPRMC,065432.000,A,3114.461633,N,12129.110666,E,2.7,238.285577337,250122,,E,A*27
$GPGGA,065433.000,3114.461317,N,12129.110082,E,1,19,0.8,36.5,M,,M,,*77
$GPRMC,065433.000,A,3114.461317,N,12129.110082,E,2.5,240.556014206,250122,,E,A*2E
$GPGGA,065434.000,3114.460791,N,12129.109020,E,1,19,0.8,36.8,M,,M,,*76
$GPRMC,065434.000,A,3114.460791,N,12129.109020,E,2.5,239.826905164,250122,,E,A*28
$GPGGA,065435.000,3114.460623,N,12129.108287,E,1,19,0.8,37.1,M,,M,,*79
$GPRMC,065435.000,A,3114.460623,N,12129.108287,E,2.4,239.216586773,250122,,E,A*20
$GPGGA,065436.000,3114.460416,N,12129.107258,E,1,19,0.8,36.7,M,,M,,*74
$GPRMC,065436.000,A,3114.460416,N,12129.107258,E,2.4,244.78677003099997,250122,,E,A*10
$GPGGA,065437.000,3114.460001,N,12129.106238,E,1,19,0.8,36.4,M,,M,,*73
$GPRMC,065437.000,A,3114.460001,N,12129.106238,E,2.5,245.387116345,250122,,E,A*21
$GPGGA,065438.000,3114.463254,N,12129.097490,E,1,19,0.8,32.2,M,,M,,*72
$GPRMC,065438.000,A,3114.463254,N,12129.097490,E,4.0,-91.19956265,250122,,E,A*0C
$GPGGA,065439.000,3114.463053,N,12129.096279,E,1,19,0.8,29.3,M,,M,,*7D
$GPRMC,065439.000,A,3114.463053,N,12129.096279,E,3.3,-93.468153595,250122,,E,A*39
$GPGGA,065440.000,3114.462898,N,12129.095272,E,1,19,0.8,28.8,M,,M,,*7F
$GPRMC,065440.000,A,3114.462898,N,12129.095272,E,3.2,-95.07742116200001,250122,,E,A*01
$GPGGA,065441.000,3114.462918,N,12129.094066,E,1,19,0.8,28.5,M,,M,,*7C
$GPRMC,065441.000,A,3114.462918,N,12129.094066,E,3.3,-94.544264911,250122,,E,A*30
$GPGGA,065442.000,3114.462800,N,12129.092995,E,1,19,0.8,28.4,M,,M,,*75
$GPRMC,065442.000,A,3114.462800,N,12129.092995,E,3.3,-95.228480459,250122,,E,A*39
$GPGGA,065443.000,3114.462418,N,12129.092901,E,1,19,0.8,27.4,M,,M,,*73
$GPRMC,065443.000,A,3114.462418,N,12129.092901,E,2.7,243.598016573,250122,,E,A*2F
$GPGGA,065444.000,3114.462267,N,12129.092796,E,1,19,0.8,26.6,M,,M,,*79
$GPRMC,065444.000,A,3114.462267,N,12129.092796,E,2.3,248.56350951599998,250122,,E,A*1E
$GPGGA,065445.000,3114.461959,N,12129.092679,E,1,19,0.8,26.1,M,,M,,*7A
$GPRMC,065445.000,A,3114.461959,N,12129.092679,E,2.0,252.674463822,250122,,E,A*2B
$GPGGA,065446.000,3114.461815,N,12129.091974,E,1,19,0.8,26.1,M,,M,,*71
$GPRMC,065446.000,A,3114.461815,N,12129.091974,E,2.1,256.624881359,250122,,E,A*27
$GPGGA,065447.000,3114.461592,N,12129.091338,E,1,19,0.8,25.9,M,,M,,*7B
$GPRMC,065447.000,A,3114.461592,N,12129.091338,E,2.1,256.677391854,250122,,E,A*2C
$GPGGA,065448.000,3114.461764,N,12129.090684,E,1,19,0.8,26.0,M,,M,,*76
$GPRMC,065448.000,A,3114.461764,N,12129.090684,E,2.0,258.180907753,250122,,E,A*26
$GPGGA,065449.000,3114.461725,N,12129.090118,E,1,19,0.8,26.2,M,,M,,*72
$GPRMC,065449.000,A,3114.461725,N,12129.090118,E,2.0,249.93752502700002,250122,,E,A*1E
$GPGGA,065450.000,3114.461532,N,12129.089287,E,1,19,0.8,26.2,M,,M,,*73
$GPRMC,065450.000,A,3114.461532,N,12129.089287,E,2.1,247.573104754,250122,,E,A*2A
$GPGGA,065451.000,3114.461099,N,12129.088563,E,1,19,0.8,26.3,M,,M,,*7B
$GPRMC,065451.000,A,3114.461099,N,12129.088563,E,2.2,253.511134684,250122,,E,A*2E
$GPGGA,065452.000,3114.460919,N,12129.087815,E,1,19,0.8,26.4,M,,M,,*7C
$GPRMC,065452.000,A,3114.460919,N,12129.087815,E,2.2,253.286803948,250122,,E,A*25
$GPGGA,065453.000,3114.459952,N,12129.086778,E,1,19,0.8,28.3,M,,M,,*74
$GPRMC,065453.000,A,3114.459952,N,12129.086778,E,2.3,255.69676792299998,250122,,E,A*1F
$GPGGA,065454.000,3114.459754,N,12129.086013,E,1,19,0.8,28.3,M,,M,,*71
$GPRMC,065454.000,A,3114.459754,N,12129.086013,E,2.3,261.259574577,250122,,E,A*2E
$GPGGA,065455.000,3114.459560,N,12129.085252,E,1,19,0.8,28.3,M,,M,,*71
$GPRMC,065455.000,A,3114.459560,N,12129.085252,E,2.3,261.56250713,250122,,E,A*12
$GPGGA,065456.000,3114.459393,N,12129.084034,E,1,19,0.8,28.6,M,,M,,*7E
$GPRMC,065456.000,A,3114.459393,N,12129.084034,E,2.5,258.667353832,250122,,E,A*2E
$GPGGA,065457.000,3114.459228,N,12129.083522,E,1,19,0.8,29.7,M,,M,,*7B
$GPRMC,065457.000,A,3114.459228,N,12129.083522,E,2.4,257.462125957,250122,,E,A*23
$GPGGA,065458.000,3114.459118,N,12129.082267,E,1,19,0.8,30.0,M,,M,,*7C
$GPRMC,065458.000,A,3114.459118,N,12129.082267,E,2.5,257.402402783,250122,,E,A*2B
$GPGGA,065459.000,3114.459212,N,12129.081655,E,1,19,0.8,30.1,M,,M,,*73
$GPRMC,065459.000,A,3114.459212,N,12129.081655,E,2.4,249.90392049599998,250122,,E,A*16
$GPGGA,065500.000,3114.458724,N,12129.080794,E,1,19,0.8,30.2,M,,M,,*71
$GPRMC,065500.000,A,3114.458724,N,12129.080794,E,2.6,235.759500145,250122,,E,A*21
$GPGGA,065501.000,3114.458749,N,12129.078712,E,1,19,0.8,29.8,M,,M,,*70
$GPRMC,065501.000,A,3114.458749,N,12129.078712,E,3.0,-103.605763758,250122,,E,A*0B
$GPGGA,065502.000,3114.458736,N,12129.077335,E,1,19,0.8,29.2,M,,M,,*7F
$GPRMC,065502.000,A,3114.458736,N,12129.077335,E,3.1,-101.863915849,250122,,E,A*03
$GPGGA,065503.000,3114.458862,N,12129.075945,E,1,19,0.8,28.8,M,,M,,*74
$GPRMC,065503.000,A,3114.458862,N,12129.075945,E,3.2,-99.215067134,250122,,E,A*34
$GPGGA,065504.000,3114.458981,N,12129.074976,E,1,19,0.8,29.1,M,,M,,*76
$GPRMC,065504.000,A,3114.458981,N,12129.074976,E,3.2,-97.168441104,250122,,E,A*3A
$GPGGA,065505.000,3114.458696,N,12129.074106,E,1,19,0.8,28.8,M,,M,,*79
$GPRMC,065505.000,A,3114.458696,N,12129.074106,E,3.1,-98.735605763,250122,,E,A*3A
$GPGGA,065506.000,3114.458236,N,12129.073055,E,1,19,0.8,28.3,M,,M,,*7F
$GPRMC,065506.000,A,3114.458236,N,12129.073055,E,3.2,-101.430194165,250122,,E,A*0C
$GPGGA,065507.000,3114.458079,N,12129.072062,E,1,19,0.8,28.0,M,,M,,*71
$GPRMC,065507.000,A,3114.458079,N,12129.072062,E,3.2,-101.33712804,250122,,E,A*30
$GPGGA,065508.000,3114.458154,N,12129.071090,E,1,19,0.8,28.3,M,,M,,*7D
$GPRMC,065508.000,A,3114.458154,N,12129.071090,E,3.1,-99.365394577,250122,,E,A*3F
$GPGGA,065509.000,3114.458307,N,12129.069920,E,1,19,0.8,28.4,M,,M,,*74
$GPRMC,065509.000,A,3114.458307,N,12129.069920,E,3.2,-96.813399123,250122,,E,A*3F
$GPGGA,065510.000,3114.458551,N,12129.068419,E,1,19,0.8,28.0,M,,M,,*7B
$GPRMC,065510.000,A,3114.458551,N,12129.068419,E,3.3,-93.92065967,250122,,E,A*09
$GPGGA,065511.000,3114.458634,N,12129.067991,E,1,19,0.8,28.4,M,,M,,*7C
$GPRMC,065511.000,A,3114.458634,N,12129.067991,E,3.0,-92.782903985,250122,,E,A*3B
$GPGGA,065512.000,3114.458793,N,12129.066682,E,1,19,0.8,28.6,M,,M,,*7D
$GPRMC,065512.000,A,3114.458793,N,12129.066682,E,3.2,-91.20876816399999,250122,,E,A*04
$GPGGA,065513.000,3114.458512,N,12129.066112,E,1,19,0.8,28.8,M,,M,,*77
$GPRMC,065513.000,A,3114.458512,N,12129.066112,E,3.0,-93.191840879,250122,,E,A*3D
$GPGGA,065514.000,3114.457868,N,12129.065924,E,1,19,0.8,28.5,M,,M,,*7C
$GPRMC,065514.000,A,3114.457868,N,12129.065924,E,2.7,259.40933095,250122,,E,A*16
$GPGGA,065515.000,3114.457632,N,12129.064817,E,1,19,0.8,28.3,M,,M,,*7A
$GPRMC,065515.000,A,3114.457632,N,12129.064817,E,2.8,256.544011919,250122,,E,A*23
$GPGGA,065516.000,3114.457179,N,12129.064029,E,1,19,0.8,28.0,M,,M,,*77
$GPRMC,065516.000,A,3114.457179,N,12129.064029,E,2.8,257.090071889,250122,,E,A*2E
$GPGGA,065517.000,3114.456875,N,12129.063116,E,1,19,0.8,27.8,M,,M,,*7F
$GPRMC,065517.000,A,3114.456875,N,12129.063116,E,2.9,255.654502712,250122,,E,A*20
$GPGGA,065518.000,3114.456549,N,12129.062445,E,1,19,0.8,27.3,M,,M,,*7B
$GPRMC,065518.000,A,3114.456549,N,12129.062445,E,2.8,255.932655339,250122,,E,A*2D
$GPGGA,065519.000,3114.456114,N,12129.061718,E,1,19,0.8,26.9,M,,M,,*75
$GPRMC,065519.000,A,3114.456114,N,12129.061718,E,2.7,250.83736148,250122,,E,A*11
$GPGGA,065520.000,3114.455765,N,12129.060603,E,1,19,0.8,26.7,M,,M,,*78
$GPRMC,065520.000,A,3114.455765,N,12129.060603,E,2.9,250.578825156,250122,,E,A*2F
$GPGGA,065521.000,3114.455513,N,12129.059522,E,1,19,0.8,26.4,M,,M,,*73
$GPRMC,065521.000,A,3114.455513,N,12129.059522,E,2.9,-107.508101774,250122,,E,A*05
$GPGGA,065522.000,3114.455056,N,12129.059017,E,1,19,0.8,26.2,M,,M,,*71
$GPRMC,065522.000,A,3114.455056,N,12129.059017,E,2.8,242.14351411200002,250122,,E,A*10
$GPGGA,065523.000,3114.454550,N,12129.058481,E,1,19,0.8,26.2,M,,M,,*78
$GPRMC,065523.000,A,3114.454550,N,12129.058481,E,2.7,251.76020201,250122,,E,A*12
$GPGGA,065524.000,3114.454451,N,12129.057693,E,1,19,0.8,26.1,M,,M,,*72
$GPRMC,065524.000,A,3114.454451,N,12129.057693,E,2.7,259.55585217,250122,,E,A*1F
$GPGGA,065525.000,3114.454312,N,12129.057166,E,1,19,0.8,26.3,M,,M,,*7C
$GPRMC,065525.000,A,3114.454312,N,12129.057166,E,2.5,257.014830524,250122,,E,A*2E
$GPGGA,065526.000,3114.454198,N,12129.056210,E,1,19,0.8,26.4,M,,M,,*7B
$GPRMC,065526.000,A,3114.454198,N,12129.056210,E,2.6,261.438416252,250122,,E,A*2C
$GPGGA,065527.000,3114.453919,N,12129.055560,E,1,19,0.8,27.0,M,,M,,*7A
$GPRMC,065527.000,A,3114.453919,N,12129.055560,E,2.5,250.37662423400002,250122,,E,A*15
$GPGGA,065528.000,3114.453482,N,12129.055008,E,1,19,0.8,27.2,M,,M,,*73
$GPRMC,065528.000,A,3114.453482,N,12129.055008,E,2.5,253.479497247,250122,,E,A*29
$GPGGA,065529.000,3114.453116,N,12129.054336,E,1,19,0.8,27.5,M,,M,,*72
$GPRMC,065529.000,A,3114.453116,N,12129.054336,E,2.5,260.59786584200003,250122,,E,A*13
$GPGGA,065530.000,3114.453126,N,12129.053195,E,1,19,0.8,27.3,M,,M,,*73
$GPRMC,065530.000,A,3114.453126,N,12129.053195,E,2.6,250.586010515,250122,,E,A*22
$GPGGA,065531.000,3114.452838,N,12129.052528,E,1,19,0.8,27.5,M,,M,,*70
$GPRMC,065531.000,A,3114.452838,N,12129.052528,E,2.5,249.192050852,250122,,E,A*27
$GPGGA,065532.000,3114.452534,N,12129.051128,E,1,19,0.8,27.2,M,,M,,*72
$GPRMC,065532.000,A,3114.452534,N,12129.051128,E,2.8,250.915389562,250122,,E,A*29
$GPGGA,065533.000,3114.452357,N,12129.050116,E,1,19,0.8,27.0,M,,M,,*7E
$GPRMC,065533.000,A,3114.452357,N,12129.050116,E,2.8,247.17121641900002,250122,,E,A*13
$GPGGA,065534.000,3114.452042,N,12129.049189,E,1,19,0.8,27.0,M,,M,,*70
$GPRMC,065534.000,A,3114.452042,N,12129.049189,E,2.9,252.81448270099997,250122,,E,A*17
$GPGGA,065535.000,3114.451844,N,12129.048425,E,1,19,0.8,27.0,M,,M,,*7E
$GPRMC,065535.000,A,3114.451844,N,12129.048425,E,2.8,255.14234780099997,250122,,E,A*14
$GPGGA,065536.000,3114.451685,N,12129.047175,E,1,19,0.8,26.8,M,,M,,*78
$GPRMC,065536.000,A,3114.451685,N,12129.047175,E,2.9,-106.824487116,250122,,E,A*09
$GPGGA,065537.000,3114.451698,N,12129.046581,E,1,19,0.8,26.9,M,,M,,*7A
$GPRMC,065537.000,A,3114.451698,N,12129.046581,E,2.8,259.859030611,250122,,E,A*2D
$GPGGA,065538.000,3114.452238,N,12129.044819,E,1,19,0.8,26.3,M,,M,,*7C
$GPRMC,065538.000,A,3114.452238,N,12129.044819,E,3.0,-98.49011491600001,250122,,E,A*0D
$GPGGA,065539.000,3114.452563,N,12129.043558,E,1,19,0.8,26.1,M,,M,,*79
$GPRMC,065539.000,A,3114.452563,N,12129.043558,E,3.1,-94.62893951299999,250122,,E,A*01
$GPGGA,065540.000,3114.452570,N,12129.042534,E,1,19,0.8,26.2,M,,M,,*7D
$GPRMC,065540.000,A,3114.452570,N,12129.042534,E,3.1,-93.99274402100001,250122,,E,A*06
$GPGGA,065541.000,3114.452712,N,12129.041446,E,1,19,0.8,26.0,M,,M,,*7F
$GPRMC,065541.000,A,3114.452712,N,12129.041446,E,3.1,-92.158478354,250122,,E,A*35
$GPGGA,065542.000,3114.453194,N,12129.040769,E,1,19,0.8,26.2,M,,M,,*78
$GPRMC,065542.000,A,3114.453194,N,12129.040769,E,2.9,-87.12765177799999,250122,,E,A*00
$GPGGA,065543.000,3114.452989,N,12129.040242,E,1,19,0.8,26.5,M,,M,,*77
$GPRMC,065543.000,A,3114.452989,N,12129.040242,E,2.7,248.784807648,250122,,E,A*2C
$GPGGA,065544.000,3114.452777,N,12129.039938,E,1,19,0.8,26.3,M,,M,,*71
$GPRMC,065544.000,A,3114.452777,N,12129.039938,E,2.5,251.392355337,250122,,E,A*24
$GPGGA,065545.000,3114.452716,N,12129.039340,E,1,19,0.8,26.4,M,,M,,*75
$GPRMC,065545.000,A,3114.452716,N,12129.039340,E,2.4,257.28924020700003,250122,,E,A*1F
$GPGGA,065546.000,3114.452729,N,12129.038488,E,1,19,0.8,26.1,M,,M,,*7D
$GPRMC,065546.000,A,3114.452729,N,12129.038488,E,2.4,248.08006872099998,250122,,E,A*14
$GPGGA,065547.000,3114.452516,N,12129.037462,E,1,19,0.8,25.7,M,,M,,*7C
$GPRMC,065547.000,A,3114.452516,N,12129.037462,E,2.5,256.015109384,250122,,E,A*26
$GPGGA,065548.000,3114.452327,N,12129.036888,E,1,19,0.8,25.7,M,,M,,*7E
$GPRMC,065548.000,A,3114.452327,N,12129.036888,E,2.4,260.91271024599996,250122,,E,A*1A
$GPGGA,065549.000,3114.452524,N,12129.036416,E,1,19,0.8,26.0,M,,M,,*75
$GPRMC,065549.000,A,3114.452524,N,12129.036416,E,2.3,247.078435128,250122,,E,A*28
$GPGGA,065550.000,3114.452411,N,12129.035988,E,1,19,0.8,26.2,M,,M,,*71
$GPRMC,065550.000,A,3114.452411,N,12129.035988,E,2.2,260.171962561,250122,,E,A*24
$GPGGA,065551.000,3114.452532,N,12129.035497,E,1,19,0.8,26.3,M,,M,,*72
$GPRMC,065551.000,A,3114.452532,N,12129.035497,E,2.1,260.271328154,250122,,E,A*20
$GPGGA,065552.000,3114.452690,N,12129.035094,E,1,19,0.8,27.0,M,,M,,*7F
$GPRMC,065552.000,A,3114.452690,N,12129.035094,E,2.0,260.639502676,250122,,E,A*2F
$GPGGA,065553.000,3114.452353,N,12129.034462,E,1,19,0.8,27.0,M,,M,,*78
$GPRMC,065553.000,A,3114.452353,N,12129.034462,E,2.0,251.26214460900002,250122,,E,A*1C
$GPGGA,065554.000,3114.452134,N,12129.033887,E,1,19,0.8,27.1,M,,M,,*7D
$GPRMC,065554.000,A,3114.452134,N,12129.033887,E,2.0,236.614202707,250122,,E,A*20
$GPGGA,065555.000,3114.452048,N,12129.033247,E,1,19,0.8,27.1,M,,M,,*70
$GPRMC,065555.000,A,3114.452048,N,12129.033247,E,2.0,237.64591645299998,250122,,E,A*1D
$GPGGA,065556.000,3114.451555,N,12129.032066,E,1,19,0.8,27.2,M,,M,,*7A
$GPRMC,065556.000,A,3114.451555,N,12129.032066,E,2.3,250.891046767,250122,,E,A*20
$GPGGA,065557.000,3114.450656,N,12129.031189,E,1,19,0.8,27.5,M,,M,,*7E
$GPRMC,065557.000,A,3114.450656,N,12129.031189,E,2.4,258.798985239,250122,,E,A*22
$GPGGA,065558.000,3114.450194,N,12129.030298,E,1,19,0.8,27.6,M,,M,,*79
$GPRMC,065558.000,A,3114.450194,N,12129.030298,E,2.5,250.647864709,250122,,E,A*24
$GPGGA,065559.000,3114.450177,N,12129.029354,E,1,19,0.8,27.7,M,,M,,*7D
$GPRMC,065559.000,A,3114.450177,N,12129.029354,E,2.5,227.747688155,250122,,E,A*23
$GPGGA,065600.000,3114.450021,N,12129.028303,E,1,19,0.8,28.0,M,,M,,*7B
$GPRMC,065600.000,A,3114.450021,N,12129.028303,E,2.6,255.94781835900002,250122,,E,A*1E
$GPGGA,065601.000,3114.449736,N,12129.027065,E,1,19,0.8,28.1,M,,M,,*7E
$GPRMC,065601.000,A,3114.449736,N,12129.027065,E,2.8,239.16230042900003,250122,,E,A*12
$GPGGA,065602.000,3114.449531,N,12129.025920,E,1,19,0.8,28.1,M,,M,,*72
$GPRMC,065602.000,A,3114.449531,N,12129.025920,E,2.8,246.352467973,250122,,E,A*20
$GPGGA,065603.000,3114.449429,N,12129.024655,E,1,19,0.8,28.6,M,,M,,*70
$GPRMC,065603.000,A,3114.449429,N,12129.024655,E,3.0,-103.43384365799999,250122,,E,A*39
$GPGGA,065604.000,3114.449343,N,12129.023458,E,1,19,0.8,28.9,M,,M,,*7B
$GPRMC,065604.000,A,3114.449343,N,12129.023458,E,3.0,-102.147375939,250122,,E,A*0A
$GPGGA,065605.000,3114.449194,N,12129.022049,E,1,19,0.8,29.2,M,,M,,*7D
$GPRMC,065605.000,A,3114.449194,N,12129.022049,E,3.2,-101.338162096,250122,,E,A*05
$GPGGA,065606.000,3114.449390,N,12129.020903,E,1,19,0.8,29.3,M,,M,,*7C
$GPRMC,065606.000,A,3114.449390,N,12129.020903,E,3.2,-97.99880947,250122,,E,A*03
$GPGGA,065607.000,3114.449363,N,12129.019528,E,1,19,0.8,29.6,M,,M,,*7B
$GPRMC,065607.000,A,3114.449363,N,12129.019528,E,3.3,-97.081335435,250122,,E,A*34
$GPGGA,065608.000,3114.449229,N,12129.018474,E,1,19,0.8,29.8,M,,M,,*7C
$GPRMC,065608.000,A,3114.449229,N,12129.018474,E,3.3,-97.12048909299999,250122,,E,A*07
$GPGGA,065609.000,3114.448865,N,12129.017296,E,1,19,0.8,30.0,M,,M,,*7B
$GPRMC,065609.000,A,3114.448865,N,12129.017296,E,3.4,-98.917088756,250122,,E,A*37
$GPGGA,065610.000,3114.448584,N,12129.016106,E,1,19,0.8,30.2,M,,M,,*78
$GPRMC,065610.000,A,3114.448584,N,12129.016106,E,3.4,-99.802764685,250122,,E,A*38
$GPGGA,065611.000,3114.448336,N,12129.014438,E,1,19,0.8,30.1,M,,M,,*7F
$GPRMC,065611.000,A,3114.448336,N,12129.014438,E,3.7,-100.04727314,250122,,E,A*3A
$GPGGA,065612.000,3114.447944,N,12129.012967,E,1,19,0.8,29.9,M,,M,,*7D
$GPRMC,065612.000,A,3114.447944,N,12129.012967,E,3.8,-101.29519722799999,250122,,E,A*39
$GPGGA,065613.000,3114.447659,N,12129.011344,E,1,19,0.8,29.8,M,,M,,*76
$GPRMC,065613.000,A,3114.447659,N,12129.011344,E,4.0,-101.498749784,250122,,E,A*07
$GPGGA,065614.000,3114.446860,N,12129.010043,E,1,19,0.8,29.9,M,,M,,*70
$GPRMC,065614.000,A,3114.446860,N,12129.010043,E,4.0,-105.079698653,250122,,E,A*09
$GPGGA,065615.000,3114.446429,N,12129.008337,E,1,19,0.8,29.8,M,,M,,*78
$GPRMC,065615.000,A,3114.446429,N,12129.008337,E,4.2,-105.48474953799999,250122,,E,A*31
$GPGGA,065616.000,3114.445998,N,12129.007097,E,1,19,0.8,29.8,M,,M,,*79
$GPRMC,065616.000,A,3114.445998,N,12129.007097,E,4.2,-106.25477422700001,250122,,E,A*38
$GPGGA,065617.000,3114.445682,N,12129.006001,E,1,19,0.8,29.9,M,,M,,*73
$GPRMC,065617.000,A,3114.445682,N,12129.006001,E,4.1,-106.28114578700001,250122,,E,A*33
$GPGGA,065618.000,3114.445066,N,12129.005122,E,1,19,0.8,29.9,M,,M,,*73
$GPRMC,065618.000,A,3114.445066,N,12129.005122,E,4.0,-108.54738218,250122,,E,A*38
$GPGGA,065619.000,3114.444508,N,12129.004061,E,1,19,0.8,29.6,M,,M,,*76
$GPRMC,065619.000,A,3114.444508,N,12129.004061,E,4.0,-109.944619406,250122,,E,A*00
$GPGGA,065620.000,3114.443972,N,12129.003301,E,1,19,0.8,29.3,M,,M,,*7D
$GPRMC,065620.000,A,3114.443972,N,12129.003301,E,3.8,-111.74840842799999,250122,,E,A*32
$GPGGA,065621.000,3114.443366,N,12129.002861,E,1,19,0.8,29.0,M,,M,,*7C
$GPRMC,065621.000,A,3114.443366,N,12129.002861,E,3.6,-114.492267675,250122,,E,A*0C
$GPGGA,065622.000,3114.442909,N,12129.002214,E,1,19,0.8,28.6,M,,M,,*72
$GPRMC,065622.000,A,3114.442909,N,12129.002214,E,3.4,-115.659780954,250122,,E,A*03
$GPGGA,065623.000,3114.441859,N,12129.002063,E,1,19,0.8,28.3,M,,M,,*73
$GPRMC,065623.000,A,3114.441859,N,12129.002063,E,3.2,-122.481620457,250122,,E,A*07
$GPGGA,065624.000,3114.441393,N,12129.001550,E,1,19,0.8,27.7,M,,M,,*74
$GPRMC,065624.000,A,3114.441393,N,12129.001550,E,3.0,-123.89541832799999,250122,,E,A*31
$GPGGA,065625.000,3114.440596,N,12129.001252,E,1,19,0.8,27.5,M,,M,,*70
$GPRMC,065625.000,A,3114.440596,N,12129.001252,E,2.9,-128.020842674,250122,,E,A*0B
$GPGGA,065626.000,3114.440279,N,12129.000504,E,1,19,0.8,26.9,M,,M,,*7D
$GPRMC,065626.000,A,3114.440279,N,12129.000504,E,2.8,251.457132852,250122,,E,A*2A
$GPGGA,065627.000,3114.439647,N,12128.999665,E,1,19,0.8,26.6,M,,M,,*78
$GPRMC,065627.000,A,3114.439647,N,12128.999665,E,2.9,224.28545156400003,250122,,E,A*11
$GPGGA,065628.000,3114.439181,N,12128.998945,E,1,19,0.8,26.3,M,,M,,*73
$GPRMC,065628.000,A,3114.439181,N,12128.998945,E,2.8,239.230984812,250122,,E,A*26
$GPGGA,065629.000,3114.439011,N,12128.997972,E,1,19,0.8,25.9,M,,M,,*78
$GPRMC,065629.000,A,3114.439011,N,12128.997972,E,2.7,235.538912353,250122,,E,A*29
$GPGGA,065630.000,3114.438649,N,12128.996299,E,1,19,0.8,25.4,M,,M,,*78
$GPRMC,065630.000,A,3114.438649,N,12128.996299,E,3.1,-118.495601083,250122,,E,A*07
$GPGGA,065631.000,3114.438590,N,12128.994359,E,1,19,0.8,24.8,M,,M,,*7C
$GPRMC,065631.000,A,3114.438590,N,12128.994359,E,3.2,-114.35954831,250122,,E,A*31
$GPGGA,065632.000,3114.438492,N,12128.993498,E,1,19,0.8,24.4,M,,M,,*7D
$GPRMC,065632.000,A,3114.438492,N,12128.993498,E,3.1,-112.616632583,250122,,E,A*05
$GPGGA,065633.000,3114.438343,N,12128.992903,E,1,19,0.8,24.4,M,,M,,*79
$GPRMC,065633.000,A,3114.438343,N,12128.992903,E,2.9,-111.676668424,250122,,E,A*0E
$GPGGA,065634.000,3114.438211,N,12128.992664,E,1,19,0.8,24.3,M,,M,,*71
$GPRMC,065634.000,A,3114.438211,N,12128.992664,E,2.6,235.150329226,250122,,E,A*21
$GPGGA,065635.000,3114.437881,N,12128.992517,E,1,19,0.8,24.3,M,,M,,*7B
$GPRMC,065635.000,A,3114.437881,N,12128.992517,E,2.3,241.32241608099997,250122,,E,A*18
$GPGGA,065636.000,3114.437613,N,12128.992554,E,1,19,0.8,24.1,M,,M,,*78
$GPRMC,065636.000,A,3114.437613,N,12128.992554,E,1.9,245.431813104,250122,,E,A*22
$GPGGA,065637.000,3114.437456,N,12128.992498,E,1,19,0.8,23.9,M,,M,,*74
$GPRMC,065637.000,A,3114.437456,N,12128.992498,E,1.7,241.625403276,250122,,E,A*27
$GPGGA,065638.000,3114.437310,N,12128.992328,E,1,19,0.8,23.7,M,,M,,*7C
$GPRMC,065638.000,A,3114.437310,N,12128.992328,E,1.5,244.84627464,250122,,E,A*1A
$GPGGA,065639.000,3114.437258,N,12128.992355,E,1,19,0.8,23.5,M,,M,,*78
$GPRMC,065639.000,A,3114.437258,N,12128.992355,E,1.2,246.34509136900002,250122,,E,A*14
$GPGGA,065640.000,3114.437171,N,12128.992250,E,1,19,0.8,23.2,M,,M,,*7D
$GPRMC,065640.000,A,3114.437171,N,12128.992250,E,1.1,237.774542577,250122,,E,A*25
$GPGGA,065641.000,3114.436562,N,12128.991967,E,1,19,0.8,22.6,M,,M,,*72
$GPRMC,065641.000,A,3114.436562,N,12128.991967,E,1.2,235.685215006,250122,,E,A*27
$GPGGA,065642.000,3114.436198,N,12128.992099,E,1,19,0.8,22.0,M,,M,,*7D
$GPRMC,065642.000,A,3114.436198,N,12128.992099,E,1.1,232.995950933,250122,,E,A*21
$GPGGA,065643.000,3114.436010,N,12128.992228,E,1,19,0.8,21.4,M,,M,,*72
$GPRMC,065643.000,A,3114.436010,N,12128.992228,E,1.0,229.74573707599998,250122,,E,A*1D
$GPGGA,065644.000,3114.436203,N,12128.992545,E,1,19,0.8,21.4,M,,M,,*79
$GPRMC,065644.000,A,3114.436203,N,12128.992545,E,0.7,201.239600733,250122,,E,A*2C
$GPGGA,065645.000,3114.436191,N,12128.993179,E,1,19,0.8,21.4,M,,M,,*7A
$GPRMC,065645.000,A,3114.436191,N,12128.993179,E,0.5,244.055120158,250122,,E,A*2A
$GPGGA,065646.000,3114.436271,N,12128.992884,E,1,19,0.8,21.0,M,,M,,*7A
$GPRMC,065646.000,A,3114.436271,N,12128.992884,E,0.4,326.644238604,250122,,E,A*28
$GPGGA,065647.000,3114.436235,N,12128.993079,E,1,19,0.8,20.9,M,,M,,*78
$GPRMC,065647.000,A,3114.436235,N,12128.993079,E,0.4,193.120978244,250122,,E,A*24
$GPGGA,065648.000,3114.436399,N,12128.992694,E,1,19,0.8,20.8,M,,M,,*75
$GPRMC,065648.000,A,3114.436399,N,12128.992694,E,0.3,114.346390721,250122,,E,A*28
$GPGGA,065649.000,3114.436640,N,12128.992865,E,1,19,0.8,20.7,M,,M,,*7A
$GPRMC,065649.000,A,3114.436640,N,12128.992865,E,0.1,192.31277561,250122,,E,A*19
$GPGGA,065650.000,3114.436913,N,12128.993023,E,1,19,0.8,20.8,M,,M,,*7F
$GPRMC,065650.000,A,3114.436913,N,12128.993023,E,0.1,237.98264478299998,250122,,E,A*1D
$GPGGA,065651.000,3114.437110,N,12128.993102,E,1,19,0.8,20.6,M,,M,,*78
$GPRMC,065651.000,A,3114.437110,N,12128.993102,E,0.1,243.144109516,250122,,E,A*2C
$GPGGA,065652.000,3114.437886,N,12128.992068,E,1,19,0.8,20.7,M,,M,,*70
$GPRMC,065652.000,A,3114.437886,N,12128.992068,E,0.5,254.36474441599998,250122,,E,A*12
$GPGGA,065653.000,3114.437741,N,12128.991637,E,1,19,0.8,20.1,M,,M,,*7C
$GPRMC,065653.000,A,3114.437741,N,12128.991637,E,0.5,233.122063547,250122,,E,A*25
$GPGGA,065654.000,3114.437221,N,12128.991246,E,1,19,0.8,20.0,M,,M,,*7B
$GPRMC,065654.000,A,3114.437221,N,12128.991246,E,0.6,241.68761264,250122,,E,A*19
$GPGGA,065655.000,3114.436635,N,12128.990966,E,1,19,0.8,20.0,M,,M,,*72
$GPRMC,065655.000,A,3114.436635,N,12128.990966,E,0.7,241.42863918400002,250122,,E,A*12
$GPGGA,065656.000,3114.436002,N,12128.990555,E,1,19,0.8,19.5,M,,M,,*70
$GPRMC,065656.000,A,3114.436002,N,12128.990555,E,1.0,242.230366798,250122,,E,A*23
$GPGGA,065657.000,3114.435581,N,12128.989757,E,1,19,0.8,18.7,M,,M,,*77
$GPRMC,065657.000,A,3114.435581,N,12128.989757,E,1.2,247.544855091,250122,,E,A*21
$GPGGA,065658.000,3114.435185,N,12128.989114,E,1,19,0.8,18.6,M,,M,,*78
$GPRMC,065658.000,A,3114.435185,N,12128.989114,E,1.4,247.823718058,250122,,E,A*26
$GPGGA,065659.000,3114.434872,N,12128.988610,E,1,19,0.8,18.8,M,,M,,*75
$GPRMC,065659.000,A,3114.434872,N,12128.988610,E,1.5,247.584934642,250122,,E,A*29
$GPGGA,065700.000,3114.433203,N,12128.988246,E,1,19,0.8,18.0,M,,M,,*7C
$GPRMC,065700.000,A,3114.433203,N,12128.988246,E,1.9,242.73845091599998,250122,,E,A*1E
$GPGGA,065701.000,3114.432191,N,12128.987633,E,1,19,0.8,17.4,M,,M,,*76
$GPRMC,065701.000,A,3114.432191,N,12128.987633,E,2.2,246.34861574599998,250122,,E,A*18
$GPGGA,065702.000,3114.431106,N,12128.986909,E,1,19,0.8,17.0,M,,M,,*7B
$GPRMC,065702.000,A,3114.431106,N,12128.986909,E,2.6,247.451582027,250122,,E,A*2D
$GPGGA,065703.000,3114.430095,N,12128.985864,E,1,19,0.8,16.4,M,,M,,*7C
$GPRMC,065703.000,A,3114.430095,N,12128.985864,E,3.0,-145.037803566,250122,,E,A*04
$GPGGA,065704.000,3114.429527,N,12128.984958,E,1,19,0.8,15.9,M,,M,,*7E
$GPRMC,065704.000,A,3114.429527,N,12128.984958,E,3.0,-141.423649992,250122,,E,A*0A
$GPGGA,065705.000,3114.429028,N,12128.984138,E,1,19,0.8,15.6,M,,M,,*74
$GPRMC,065705.000,A,3114.429028,N,12128.984138,E,3.0,-138.598012046,250122,,E,A*08
$GPGGA,065706.000,3114.428824,N,12128.983372,E,1,19,0.8,15.4,M,,M,,*7B
$GPRMC,065706.000,A,3114.428824,N,12128.983372,E,2.8,253.73079357,250122,,E,A*11
$GPGGA,065707.000,3114.428423,N,12128.982613,E,1,19,0.8,15.4,M,,M,,*72
$GPRMC,065707.000,A,3114.428423,N,12128.982613,E,2.8,255.060494813,250122,,E,A*20
$GPGGA,065708.000,3114.428442,N,12128.981178,E,1,19,0.8,15.2,M,,M,,*75
$GPRMC,065708.000,A,3114.428442,N,12128.981178,E,2.8,251.03811440200002,250122,,E,A*1B
$GPGGA,065709.000,3114.428668,N,12128.979161,E,1,19,0.8,14.5,M,,M,,*77
$GPRMC,065709.000,A,3114.428668,N,12128.979161,E,3.1,-113.015873723,250122,,E,A*0A
$GPGGA,065710.000,3114.428467,N,12128.977970,E,1,19,0.8,14.3,M,,M,,*72
$GPRMC,065710.000,A,3114.428467,N,12128.977970,E,3.2,-110.928444842,250122,,E,A*0E
$GPGGA,065711.000,3114.428444,N,12128.976820,E,1,19,0.8,13.8,M,,M,,*7B
$GPRMC,065711.000,A,3114.428444,N,12128.976820,E,3.2,-107.696239661,250122,,E,A*04
$GPGGA,065712.000,3114.428701,N,12128.975451,E,1,19,0.8,13.3,M,,M,,*78
$GPRMC,065712.000,A,3114.428701,N,12128.975451,E,3.3,-102.24840206399999,250122,,E,A*3C
$GPGGA,065713.000,3114.428756,N,12128.974386,E,1,19,0.8,12.8,M,,M,,*7D
$GPRMC,065713.000,A,3114.428756,N,12128.974386,E,3.2,-99.92254297,250122,,E,A*01
$GPGGA,065714.000,3114.429015,N,12128.973045,E,1,19,0.8,12.4,M,,M,,*7C
$GPRMC,065714.000,A,3114.429015,N,12128.973045,E,3.3,-95.98562592,250122,,E,A*0B
$GPGGA,065715.000,3114.429231,N,12128.972246,E,1,19,0.8,12.1,M,,M,,*7C
$GPRMC,065715.000,A,3114.429231,N,12128.972246,E,3.2,-93.331480915,250122,,E,A*37
$GPGGA,065716.000,3114.429183,N,12128.971170,E,1,19,0.8,12.1,M,,M,,*70
$GPRMC,065716.000,A,3114.429183,N,12128.971170,E,3.2,-93.305549806,250122,,E,A*3B
$GPGGA,065717.000,3114.429728,N,12128.970620,E,1,19,0.8,12.4,M,,M,,*70
$GPRMC,065717.000,A,3114.429728,N,12128.970620,E,3.0,-88.208353552,250122,,E,A*3B
$GPGGA,065718.000,3114.429737,N,12128.970028,E,1,19,0.8,12.5,M,,M,,*7E
$GPRMC,065718.000,A,3114.429737,N,12128.970028,E,2.8,243.551516645,250122,,E,A*2C
$GPGGA,065719.000,3114.429631,N,12128.969472,E,1,19,0.8,12.5,M,,M,,*7B
$GPRMC,065719.000,A,3114.429631,N,12128.969472,E,2.6,250.447193749,250122,,E,A*27
$GPGGA,065720.000,3114.429487,N,12128.968801,E,1,19,0.8,12.6,M,,M,,*74
$GPRMC,065720.000,A,3114.429487,N,12128.968801,E,2.6,255.423970165,250122,,E,A*21
$GPGGA,065721.000,3114.429355,N,12128.967823,E,1,19,0.8,12.5,M,,M,,*71
$GPRMC,065721.000,A,3114.429355,N,12128.967823,E,2.6,249.424987626,250122,,E,A*25
$GPGGA,065722.000,3114.428912,N,12128.967120,E,1,19,0.8,12.3,M,,M,,*76
$GPRMC,065722.000,A,3114.428912,N,12128.967120,E,2.6,254.55926820599998,250122,,E,A*14
$GPGGA,065723.000,3114.428804,N,12128.965981,E,1,19,0.8,12.1,M,,M,,*72
$GPRMC,065723.000,A,3114.428804,N,12128.965981,E,2.7,241.397138351,250122,,E,A*2D
$GPGGA,065724.000,3114.428746,N,12128.965264,E,1,19,0.8,12.0,M,,M,,*7D
$GPRMC,065724.000,A,3114.428746,N,12128.965264,E,2.6,249.77463867400002,250122,,E,A*14
$GPGGA,065725.000,3114.428569,N,12128.964419,E,1,19,0.8,11.9,M,,M,,*74
$GPRMC,065725.000,A,3114.428569,N,12128.964419,E,2.7,242.04526867,250122,,E,A*1F
$GPGGA,065726.000,3114.428351,N,12128.963481,E,1,19,0.8,11.7,M,,M,,*72
$GPRMC,065726.000,A,3114.428351,N,12128.963481,E,2.7,256.036556178,250122,,E,A*23
$GPGGA,065727.000,3114.427990,N,12128.963025,E,1,19,0.8,11.7,M,,M,,*71
$GPRMC,065727.000,A,3114.427990,N,12128.963025,E,2.6,246.38006193799998,250122,,E,A*14
$GPGGA,065728.000,3114.427690,N,12128.961794,E,1,19,0.8,11.8,M,,M,,*71
$GPRMC,065728.000,A,3114.427690,N,12128.961794,E,2.7,246.47177771900002,250122,,E,A*1B
$GPGGA,065729.000,3114.427431,N,12128.960606,E,1,19,0.8,11.6,M,,M,,*7C
$GPRMC,065729.000,A,3114.427431,N,12128.960606,E,2.9,241.008637187,250122,,E,A*2D
$GPGGA,065730.000,3114.426834,N,12128.960170,E,1,19,0.8,11.8,M,,M,,*74
$GPRMC,065730.000,A,3114.426834,N,12128.960170,E,2.7,247.193236949,250122,,E,A*2F
$GPGGA,065731.000,3114.426587,N,12128.959380,E,1,19,0.8,11.6,M,,M,,*79
$GPRMC,065731.000,A,3114.426587,N,12128.959380,E,2.7,239.59036205,250122,,E,A*13
$GPGGA,065732.000,3114.426146,N,12128.958767,E,1,19,0.8,11.4,M,,M,,*7D
$GPRMC,065732.000,A,3114.426146,N,12128.958767,E,2.7,233.168973287,250122,,E,A*2E
$GPGGA,065733.000,3114.425771,N,12128.958050,E,1,19,0.8,11.1,M,,M,,*7B
$GPRMC,065733.000,A,3114.425771,N,12128.958050,E,2.7,240.69442116099998,250122,,E,A*15
$GPGGA,065734.000,3114.425404,N,12128.957234,E,1,19,0.8,11.2,M,,M,,*71
$GPRMC,065734.000,A,3114.425404,N,12128.957234,E,2.7,254.09060794,250122,,E,A*1F
$GPGGA,065735.000,3114.424851,N,12128.956601,E,1,19,0.8,11.1,M,,M,,*7D
$GPRMC,065735.000,A,3114.424851,N,12128.956601,E,2.7,249.67251368400002,250122,,E,A*15
$GPGGA,065736.000,3114.424112,N,12128.956273,E,1,19,0.8,11.0,M,,M,,*70
$GPRMC,065736.000,A,3114.424112,N,12128.956273,E,2.6,247.401721645,250122,,E,A*2C
$GPGGA,065737.000,3114.423723,N,12128.955714,E,1,19,0.8,11.0,M,,M,,*75
$GPRMC,065737.000,A,3114.423723,N,12128.955714,E,2.5,248.803740932,250122,,E,A*23
$GPGGA,065738.000,3114.423246,N,12128.955190,E,1,19,0.8,11.1,M,,M,,*77
$GPRMC,065738.000,A,3114.423246,N,12128.955190,E,2.5,247.706320765,250122,,E,A*2B
$GPGGA,065739.000,3114.422895,N,12128.954536,E,1,19,0.8,11.3,M,,M,,*78
$GPRMC,065739.000,A,3114.422895,N,12128.954536,E,2.5,253.60880639,250122,,E,A*1D
$GPGGA,065740.000,3114.422587,N,12128.954110,E,1,19,0.8,11.4,M,,M,,*7F
$GPRMC,065740.000,A,3114.422587,N,12128.954110,E,2.4,249.823433546,250122,,E,A*27
$GPGGA,065741.000,3114.422366,N,12128.953704,E,1,19,0.8,12.0,M,,M,,*74
$GPRMC,065741.000,A,3114.422366,N,12128.953704,E,2.3,249.27081659400002,250122,,E,A*16
$GPGGA,065742.000,3114.422195,N,12128.952850,E,1,19,0.8,12.3,M,,M,,*75
$GPRMC,065742.000,A,3114.422195,N,12128.952850,E,2.3,238.685307333,250122,,E,A*2E
$GPGGA,065743.000,3114.422022,N,12128.951910,E,1,19,0.8,12.5,M,,M,,*79
$GPRMC,065743.000,A,3114.422022,N,12128.951910,E,2.4,242.844947227,250122,,E,A*27
$GPGGA,065744.000,3114.421832,N,12128.950993,E,1,19,0.8,12.8,M,,M,,*73
$GPRMC,065744.000,A,3114.421832,N,12128.950993,E,2.5,257.86499784,250122,,E,A*11
$GPGGA,065745.000,3114.421682,N,12128.950166,E,1,19,0.8,12.8,M,,M,,*75
$GPRMC,065745.000,A,3114.421682,N,12128.950166,E,2.5,248.814778518,250122,,E,A*21
$GPGGA,065746.000,3114.421090,N,12128.949785,E,1,19,0.8,12.9,M,,M,,*71
$GPRMC,065746.000,A,3114.421090,N,12128.949785,E,2.4,252.134742267,250122,,E,A*23
$GPGGA,065747.000,3114.420860,N,12128.948913,E,1,19,0.8,12.8,M,,M,,*77
$GPRMC,065747.000,A,3114.420860,N,12128.948913,E,2.5,238.359534626,250122,,E,A*22
$GPGGA,065748.000,3114.420886,N,12128.948258,E,1,19,0.8,12.9,M,,M,,*75
$GPRMC,065748.000,A,3114.420886,N,12128.948258,E,2.4,257.269787828,250122,,E,A*21
$GPGGA,065749.000,3114.420885,N,12128.947056,E,1,19,0.8,13.0,M,,M,,*7C
$GPRMC,065749.000,A,3114.420885,N,12128.947056,E,2.5,245.558308208,250122,,E,A*2C
$GPGGA,065750.000,3114.420867,N,12128.945639,E,1,19,0.8,12.8,M,,M,,*7C
$GPRMC,065750.000,A,3114.420867,N,12128.945639,E,2.7,238.203942915,250122,,E,A*27
$GPGGA,065751.000,3114.420613,N,12128.944803,E,1,19,0.8,12.9,M,,M,,*77
$GPRMC,065751.000,A,3114.420613,N,12128.944803,E,2.7,235.67412277900002,250122,,E,A*1C
$GPGGA,065752.000,3114.420495,N,12128.943839,E,1,19,0.8,13.0,M,,M,,*7E
$GPRMC,065752.000,A,3114.420495,N,12128.943839,E,2.8,240.65275700599997,250122,,E,A*19
$GPGGA,065753.000,3114.420429,N,12128.942533,E,1,19,0.8,12.7,M,,M,,*78
$GPRMC,065753.000,A,3114.420429,N,12128.942533,E,2.9,243.318962361,250122,,E,A*2E
$GPGGA,065754.000,3114.420199,N,12128.941380,E,1,19,0.8,12.5,M,,M,,*7E
$GPRMC,065754.000,A,3114.420199,N,12128.941380,E,3.0,-103.708214214,250122,,E,A*04
$GPGGA,065755.000,3114.420031,N,12128.940338,E,1,19,0.8,12.4,M,,M,,*7F
$GPRMC,065755.000,A,3114.420031,N,12128.940338,E,3.0,-103.358110861,250122,,E,A*0A
$GPGGA,065756.000,3114.419912,N,12128.939537,E,1,19,0.8,12.3,M,,M,,*7E
$GPRMC,065756.000,A,3114.419912,N,12128.939537,E,3.0,-102.995345275,250122,,E,A*0B
$GPGGA,065757.000,3114.420108,N,12128.939061,E,1,19,0.8,12.3,M,,M,,*70
$GPRMC,065757.000,A,3114.420108,N,12128.939061,E,2.7,241.48593081200002,250122,,E,A*17
$GPGGA,065758.000,3114.420076,N,12128.938468,E,1,19,0.8,12.4,M,,M,,*7C
$GPRMC,065758.000,A,3114.420076,N,12128.938468,E,2.6,235.660161872,250122,,E,A*2F
$GPGGA,065759.000,3114.420191,N,12128.937901,E,1,19,0.8,12.4,M,,M,,*78
$GPRMC,065759.000,A,3114.420191,N,12128.937901,E,2.5,231.59357647599998,250122,,E,A*12
$GPGGA,065800.000,3114.419521,N,12128.936779,E,1,19,0.8,12.5,M,,M,,*7F
$GPRMC,065800.000,A,3114.419521,N,12128.936779,E,2.7,244.26598176099998,250122,,E,A*19
$GPGGA,065801.000,3114.418922,N,12128.935796,E,1,19,0.8,12.7,M,,M,,*70
$GPRMC,065801.000,A,3114.418922,N,12128.935796,E,2.8,241.89743605400002,250122,,E,A*12
$GPGGA,065802.000,3114.418419,N,12128.935052,E,1,19,0.8,13.2,M,,M,,*7D
$GPRMC,065802.000,A,3114.418419,N,12128.935052,E,2.8,247.609960455,250122,,E,A*2D
$GPGGA,065803.000,3114.418093,N,12128.933702,E,1,19,0.8,13.8,M,,M,,*74
$GPRMC,065803.000,A,3114.418093,N,12128.933702,E,2.9,-108.898624216,250122,,E,A*02
$GPGGA,065804.000,3114.417682,N,12128.932730,E,1,19,0.8,13.9,M,,M,,*7B
$GPRMC,065804.000,A,3114.417682,N,12128.932730,E,3.0,-110.048097737,250122,,E,A*00
$GPGGA,065805.000,3114.417506,N,12128.931895,E,1,19,0.8,14.2,M,,M,,*7A
$GPRMC,065805.000,A,3114.417506,N,12128.931895,E,3.0,-109.26472535,250122,,E,A*32
$GPGGA,065806.000,3114.416971,N,12128.931473,E,1,19,0.8,14.5,M,,M,,*77
$GPRMC,065806.000,A,3114.416971,N,12128.931473,E,2.8,238.58427517299998,250122,,E,A*1E
$GPGGA,065807.000,3114.416558,N,12128.930510,E,1,19,0.8,14.6,M,,M,,*77
$GPRMC,065807.000,A,3114.416558,N,12128.930510,E,2.9,234.022091245,250122,,E,A*2E
$GPGGA,065808.000,3114.416181,N,12128.929965,E,1,19,0.8,14.6,M,,M,,*7E
$GPRMC,065808.000,A,3114.416181,N,12128.929965,E,2.8,230.660927794,250122,,E,A*2F
$GPGGA,065809.000,3114.415729,N,12128.929636,E,1,19,0.8,14.9,M,,M,,*7E
$GPRMC,065809.000,A,3114.415729,N,12128.929636,E,2.6,240.901731065,250122,,E,A*21
$GPGGA,065810.000,3114.415394,N,12128.929030,E,1,19,0.8,15.0,M,,M,,*7C
$GPRMC,065810.000,A,3114.415394,N,12128.929030,E,2.6,245.02096356,250122,,E,A*1D
$GPGGA,065811.000,3114.415031,N,12128.928374,E,1,19,0.8,15.2,M,,M,,*71
$GPRMC,065811.000,A,3114.415031,N,12128.928374,E,2.6,242.21203457099998,250122,,E,A*14
$GPGGA,065812.000,3114.414535,N,12128.927639,E,1,19,0.8,15.3,M,,M,,*70
$GPRMC,065812.000,A,3114.414535,N,12128.927639,E,2.6,236.191140785,250122,,E,A*2D
$GPGGA,065813.000,3114.413870,N,12128.926716,E,1,19,0.8,15.5,M,,M,,*71
$GPRMC,065813.000,A,3114.413870,N,12128.926716,E,2.7,235.869630116,250122,,E,A*2A
$GPGGA,065814.000,3114.413909,N,12128.924452,E,1,19,0.8,14.7,M,,M,,*7B
$GPRMC,065814.000,A,3114.413909,N,12128.924452,E,3.2,-113.653003411,250122,,E,A*0E
$GPGGA,065815.000,3114.413676,N,12128.922805,E,1,19,0.8,14.3,M,,M,,*71
$GPRMC,065815.000,A,3114.413676,N,12128.922805,E,3.4,-111.48777706,250122,,E,A*39
$GPGGA,065816.000,3114.413436,N,12128.921698,E,1,19,0.8,14.3,M,,M,,*7D
$GPRMC,065816.000,A,3114.413436,N,12128.921698,E,3.3,-110.72851029200001,250122,,E,A*38
$GPGGA,065817.000,3114.413106,N,12128.920625,E,1,19,0.8,14.1,M,,M,,*7F
$GPRMC,065817.000,A,3114.413106,N,12128.920625,E,3.2,-111.119441046,250122,,E,A*03
$GPGGA,065818.000,3114.413114,N,12128.919926,E,1,19,0.8,13.5,M,,M,,*76
$GPRMC,065818.000,A,3114.413114,N,12128.919926,E,2.9,-109.17652191299999,250122,,E,A*35
$GPGGA,065819.000,3114.412800,N,12128.919263,E,1,19,0.8,13.3,M,,M,,*76
$GPRMC,065819.000,A,3114.412800,N,12128.919263,E,2.8,243.82390459200002,250122,,E,A*1F
$GPGGA,065820.000,3114.412308,N,12128.918746,E,1,19,0.8,12.9,M,,M,,*77
$GPRMC,065820.000,A,3114.412308,N,12128.918746,E,2.7,250.922001185,250122,,E,A*24
$GPGGA,065821.000,3114.412090,N,12128.918249,E,1,19,0.8,12.7,M,,M,,*70
$GPRMC,065821.000,A,3114.412090,N,12128.918249,E,2.5,243.29502937799998,250122,,E,A*17
$GPGGA,065822.000,3114.411994,N,12128.917577,E,1,19,0.8,12.4,M,,M,,*7B
$GPRMC,065822.000,A,3114.411994,N,12128.917577,E,2.4,235.24182644099997,250122,,E,A*1D
$GPGGA,065823.000,3114.411740,N,12128.916832,E,1,19,0.8,12.3,M,,M,,*77
$GPRMC,065823.000,A,3114.411740,N,12128.916832,E,2.4,241.63706923900003,250122,,E,A*1F
$GPGGA,065824.000,3114.411267,N,12128.916193,E,1,19,0.8,11.9,M,,M,,*7B
$GPRMC,065824.000,A,3114.411267,N,12128.916193,E,2.4,254.31155090200002,250122,,E,A*12
$GPGGA,065825.000,3114.411347,N,12128.915169,E,1,19,0.8,11.8,M,,M,,*7E
$GPRMC,065825.000,A,3114.411347,N,12128.915169,E,2.5,257.009257089,250122,,E,A*26
$GPGGA,065826.000,3114.411507,N,12128.914056,E,1,19,0.8,11.8,M,,M,,*73
$GPRMC,065826.000,A,3114.411507,N,12128.914056,E,2.5,282.475781632,250122,,E,A*24
$GPGGA,065827.000,3114.411234,N,12128.913368,E,1,19,0.8,11.7,M,,M,,*73
$GPRMC,065827.000,A,3114.411234,N,12128.913368,E,2.5,304.258785111,250122,,E,A*2F
$GPGGA,065828.000,3114.411331,N,12128.912667,E,1,19,0.8,11.5,M,,M,,*71
$GPRMC,065828.000,A,3114.411331,N,12128.912667,E,2.4,327.664668878,250122,,E,A*20
$GPGGA,065829.000,3114.411460,N,12128.911896,E,1,19,0.8,11.5,M,,M,,*70
$GPRMC,065829.000,A,3114.411460,N,12128.911896,E,2.4,341.875478669,250122,,E,A*22
$GPGGA,065830.000,3114.411454,N,12128.910903,E,1,19,0.8,11.4,M,,M,,*72
$GPRMC,065830.000,A,3114.411454,N,12128.910903,E,2.5,339.844153065,250122,,E,A*2B
$GPGGA,065831.000,3114.411444,N,12128.910264,E,1,19,0.8,11.4,M,,M,,*78
$GPRMC,065831.000,A,3114.411444,N,12128.910264,E,2.4,25.250999628000002,250122,,E,A*12
$GPGGA,065832.000,3114.412095,N,12128.909314,E,1,19,0.8,11.4,M,,M,,*7E
$GPRMC,065832.000,A,3114.412095,N,12128.909314,E,2.4,14.983229063,250122,,E,A*18
$GPGGA,065833.000,3114.412080,N,12128.908555,E,1,19,0.8,11.4,M,,M,,*79
$GPRMC,065833.000,A,3114.412080,N,12128.908555,E,2.4,7.466930227000001,250122,,E,A*2B
$GPGGA,065834.000,3114.412137,N,12128.907775,E,1,19,0.8,11.4,M,,M,,*7C
$GPRMC,065834.000,A,3114.412137,N,12128.907775,E,2.4,3.051720019,250122,,E,A*2B
$GPGGA,065835.000,3114.413604,N,12128.907011,E,1,19,0.8,11.6,M,,M,,*7C
$GPRMC,065835.000,A,3114.413604,N,12128.907011,E,2.5,5.1634497569999995,250122,,E,A*1B
$GPGGA,065836.000,3114.415724,N,12128.904954,E,1,19,0.8,11.9,M,,M,,*7E
$GPRMC,065836.000,A,3114.415724,N,12128.904954,E,3.0,-63.546563801000005,250122,,E,A*38
$GPGGA,065837.000,3114.416603,N,12128.904164,E,1,19,0.8,12.1,M,,M,,*78
$GPRMC,065837.000,A,3114.416603,N,12128.904164,E,3.2,-57.679916064,250122,,E,A*3F
$GPGGA,065838.000,3114.416910,N,12128.901903,E,1,19,0.8,11.9,M,,M,,*7D
$GPRMC,065838.000,A,3114.416910,N,12128.901903,E,3.5,-61.573117011,250122,,E,A*31
$GPGGA,065839.000,3114.417241,N,12128.900503,E,1,19,0.8,11.8,M,,M,,*7E
$GPRMC,065839.000,A,3114.417241,N,12128.900503,E,3.5,-63.774392528,250122,,E,A*34
$GPGGA,065840.000,3114.417975,N,12128.898886,E,1,19,0.8,11.8,M,,M,,*7C
$GPRMC,065840.000,A,3114.417975,N,12128.898886,E,3.8,-61.60500135,250122,,E,A*0E
$GPGGA,065841.000,3114.418392,N,12128.897955,E,1,19,0.8,11.5,M,,M,,*7C
$GPRMC,065841.000,A,3114.418392,N,12128.897955,E,3.7,-61.595428414,250122,,E,A*3E
$GPGGA,065842.000,3114.418900,N,12128.896730,E,1,19,0.8,11.5,M,,M,,*72
$GPRMC,065842.000,A,3114.418900,N,12128.896730,E,3.8,-61.707434446,250122,,E,A*3C
$GPGGA,065843.000,3114.419313,N,12128.896083,E,1,19,0.8,11.2,M,,M,,*72
$GPRMC,065843.000,A,3114.419313,N,12128.896083,E,3.6,-61.16812105100001,250122,,E,A*08
$GPGGA,065844.000,3114.419707,N,12128.895777,E,1,19,0.8,10.9,M,,M,,*71
$GPRMC,065844.000,A,3114.419707,N,12128.895777,E,3.4,-59.3554016,250122,,E,A*30
$GPGGA,065845.000,3114.420548,N,12128.895042,E,1,19,0.8,10.9,M,,M,,*72
$GPRMC,065845.000,A,3114.420548,N,12128.895042,E,3.3,-55.851992893,250122,,E,A*34
$GPGGA,065846.000,3114.420482,N,12128.895195,E,1,19,0.8,10.9,M,,M,,*7D
$GPRMC,065846.000,A,3114.420482,N,12128.895195,E,2.9,344.813088423,250122,,E,A*2D
$GPGGA,065847.000,3114.421024,N,12128.895070,E,1,19,0.8,10.8,M,,M,,*7E
$GPRMC,065847.000,A,3114.421024,N,12128.895070,E,2.8,346.068122038,250122,,E,A*27
$GPGGA,065848.000,3114.421497,N,12128.894365,E,1,19,0.8,10.8,M,,M,,*7B
$GPRMC,065848.000,A,3114.421497,N,12128.894365,E,2.8,342.947244645,250122,,E,A*2D
$GPGGA,065849.000,3114.421992,N,12128.893713,E,1,19,0.8,10.9,M,,M,,*71
$GPRMC,065849.000,A,3114.421992,N,12128.893713,E,2.7,342.309550856,250122,,E,A*27
$GPGGA,065850.000,3114.421842,N,12128.893996,E,1,19,0.8,11.2,M,,M,,*7C
$GPRMC,065850.000,A,3114.421842,N,12128.893996,E,2.4,340.671234342,250122,,E,A*20
$GPGGA,065851.000,3114.422360,N,12128.894285,E,1,19,0.8,11.2,M,,M,,*7B
$GPRMC,065851.000,A,3114.422360,N,12128.894285,E,2.2,343.042730691,250122,,E,A*2E
$GPGGA,065852.000,3114.423068,N,12128.894890,E,1,19,0.8,11.5,M,,M,,*7B
$GPRMC,065852.000,A,3114.423068,N,12128.894890,E,2.0,345.50946719800004,250122,,E,A*1C
$GPGGA,065853.000,3114.424359,N,12128.894563,E,1,19,0.8,11.6,M,,M,,*7E
$GPRMC,065853.000,A,3114.424359,N,12128.894563,E,2.3,348.60529145699996,250122,,E,A*11
$GPGGA,065854.000,3114.424907,N,12128.894211,E,1,19,0.8,11.6,M,,M,,*7A
$GPRMC,065854.000,A,3114.424907,N,12128.894211,E,2.2,349.63908158099997,250122,,E,A*12
$GPGGA,065855.000,3114.425829,N,12128.894471,E,1,19,0.8,11.8,M,,M,,*79
$GPRMC,065855.000,A,3114.425829,N,12128.894471,E,2.3,352.425716833,250122,,E,A*20
$GPGGA,065856.000,3114.426420,N,12128.894059,E,1,19,0.8,12.2,M,,M,,*7B
$GPRMC,065856.000,A,3114.426420,N,12128.894059,E,2.3,354.32281555699996,250122,,E,A*19
$GPGGA,065857.000,3114.426873,N,12128.894755,E,1,19,0.8,12.2,M,,M,,*7B
$GPRMC,065857.000,A,3114.426873,N,12128.894755,E,2.2,356.157814201,250122,,E,A*28
$GPGGA,065858.000,3114.427349,N,12128.895021,E,1,19,0.8,12.3,M,,M,,*73
$GPRMC,065858.000,A,3114.427349,N,12128.895021,E,2.1,353.53313639699996,250122,,E,A*11
$GPGGA,065859.000,3114.428060,N,12128.894870,E,1,19,0.8,12.5,M,,M,,*7E
$GPRMC,065859.000,A,3114.428060,N,12128.894870,E,2.2,357.38555437900004,250122,,E,A*15
$GPGGA,065900.000,3114.428752,N,12128.894928,E,1,19,0.8,12.4,M,,M,,*78
$GPRMC,065900.000,A,3114.428752,N,12128.894928,E,2.2,359.977556558,250122,,E,A*28
$GPGGA,065901.000,3114.429284,N,12128.895583,E,1,19,0.8,12.6,M,,M,,*78
$GPRMC,065901.000,A,3114.429284,N,12128.895583,E,2.2,358.68572188400003,250122,,E,A*14
$GPGGA,065902.000,3114.429962,N,12128.896020,E,1,19,0.8,12.9,M,,M,,*78
$GPRMC,065902.000,A,3114.429962,N,12128.896020,E,2.2,355.59391377699995,250122,,E,A*19
$GPGGA,065903.000,3114.430597,N,12128.896002,E,1,19,0.8,12.9,M,,M,,*77
$GPRMC,065903.000,A,3114.430597,N,12128.896002,E,2.2,346.160029064,250122,,E,A*2D
$GPGGA,065904.000,3114.431219,N,12128.896009,E,1,19,0.8,12.9,M,,M,,*7B
$GPRMC,065904.000,A,3114.431219,N,12128.896009,E,2.2,351.51517064300003,250122,,E,A*1C
$GPGGA,065905.000,3114.432884,N,12128.897037,E,1,19,0.8,13.0,M,,M,,*73
$GPRMC,065905.000,A,3114.432884,N,12128.897037,E,2.7,352.410034718,250122,,E,A*23
$GPGGA,065906.000,3114.433605,N,12128.897046,E,1,19,0.8,12.9,M,,M,,*78
$GPRMC,065906.000,A,3114.433605,N,12128.897046,E,2.7,351.644561749,250122,,E,A*21
$GPGGA,065907.000,3114.432365,N,12128.904682,E,1,19,0.8,17.0,M,,M,,*72
$GPRMC,065907.000,A,3114.432365,N,12128.904682,E,3.0,46.54283844,250122,,E,A*2A
$GPGGA,065908.000,3114.435098,N,12128.903469,E,1,19,0.8,19.6,M,,M,,*73
$GPRMC,065908.000,A,3114.435098,N,12128.903469,E,2.9,22.935746872,250122,,E,A*1E
$GPGGA,065909.000,3114.436192,N,12128.902884,E,1,19,0.8,20.3,M,,M,,*7B
$GPRMC,065909.000,A,3114.436192,N,12128.902884,E,2.9,344.26905018900004,250122,,E,A*11
$GPGGA,065910.000,3114.436904,N,12128.902335,E,1,19,0.8,20.8,M,,M,,*7E
$GPRMC,065910.000,A,3114.436904,N,12128.902335,E,2.8,343.98242812800004,250122,,E,A*17
$GPGGA,065911.000,3114.437622,N,12128.901239,E,1,19,0.8,21.4,M,,M,,*76
$GPRMC,065911.000,A,3114.437622,N,12128.901239,E,3.0,-24.388477102,250122,,E,A*32
$GPGGA,065912.000,3114.438020,N,12128.901222,E,1,19,0.8,21.8,M,,M,,*78
$GPRMC,065912.000,A,3114.438020,N,12128.901222,E,2.7,341.345237417,250122,,E,A*29
$GPGGA,065913.000,3114.438570,N,12128.900218,E,1,19,0.8,22.3,M,,M,,*79
$GPRMC,065913.000,A,3114.438570,N,12128.900218,E,2.8,339.61148949799997,250122,,E,A*18
$GPGGA,065914.000,3114.439828,N,12128.898879,E,1,19,0.8,23.2,M,,M,,*72
$GPRMC,065914.000,A,3114.439828,N,12128.898879,E,3.4,-37.497124147,250122,,E,A*3F
$GPGGA,065915.000,3114.440549,N,12128.898509,E,1,19,0.8,24.1,M,,M,,*79
$GPRMC,065915.000,A,3114.440549,N,12128.898509,E,3.3,-36.220440228,250122,,E,A*31
$GPGGA,065916.000,3114.442604,N,12128.895611,E,1,19,0.8,25.8,M,,M,,*7D
$GPRMC,065916.000,A,3114.442604,N,12128.895611,E,4.5,-44.268499535,250122,,E,A*3A
$GPGGA,065917.000,3114.443489,N,12128.894786,E,1,19,0.8,25.8,M,,M,,*74
$GPRMC,065917.000,A,3114.443489,N,12128.894786,E,4.3,-41.513650029000004,250122,,E,A*30
$GPGGA,065918.000,3114.445088,N,12128.894380,E,1,19,0.8,26.8,M,,M,,*79
$GPRMC,065918.000,A,3114.445088,N,12128.894380,E,4.4,-35.990771824,250122,,E,A*3E
$GPGGA,065919.000,3114.446339,N,12128.895441,E,1,19,0.8,27.6,M,,M,,*76
$GPRMC,065919.000,A,3114.446339,N,12128.895441,E,4.1,-23.770679546999997,250122,,E,A*32
$GPGGA,065920.000,3114.446995,N,12128.894741,E,1,19,0.8,28.5,M,,M,,*7E
$GPRMC,065920.000,A,3114.446995,N,12128.894741,E,3.9,-26.573851371999996,250122,,E,A*3A
$GPGGA,065921.000,3114.447759,N,12128.894117,E,1,19,0.8,29.4,M,,M,,*75
$GPRMC,065921.000,A,3114.447759,N,12128.894117,E,3.9,-29.436064409,250122,,E,A*37
$GPGGA,065922.000,3114.448761,N,12128.893383,E,1,19,0.8,30.0,M,,M,,*76
$GPRMC,065922.000,A,3114.448761,N,12128.893383,E,3.9,-30.739261335,250122,,E,A*33
$GPGGA,065923.000,3114.447988,N,12128.893211,E,1,19,0.8,29.9,M,,M,,*7A
$GPRMC,065923.000,A,3114.447988,N,12128.893211,E,3.1,-33.28314313,250122,,E,A*05
$GPGGA,065924.000,3114.448765,N,12128.892599,E,1,19,0.8,30.6,M,,M,,*7E
$GPRMC,065924.000,A,3114.448765,N,12128.892599,E,3.2,-34.467528021,250122,,E,A*36
$GPGGA,065925.000,3114.449510,N,12128.892025,E,1,19,0.8,31.3,M,,M,,*78
$GPRMC,065925.000,A,3114.449510,N,12128.892025,E,3.1,-35.124910109,250122,,E,A*38
$GPGGA,065926.000,3114.450398,N,12128.891422,E,1,19,0.8,31.9,M,,M,,*7F
$GPRMC,065926.000,A,3114.450398,N,12128.891422,E,3.2,-34.841434278,250122,,E,A*33
$GPGGA,065927.000,3114.450410,N,12128.891561,E,1,19,0.8,32.5,M,,M,,*70
$GPRMC,065927.000,A,3114.450410,N,12128.891561,E,2.7,336.907390254,250122,,E,A*2F
$GPGGA,065928.000,3114.450987,N,12128.891770,E,1,19,0.8,33.6,M,,M,,*7C
$GPRMC,065928.000,A,3114.450987,N,12128.891770,E,2.5,336.147982492,250122,,E,A*2A
$GPGGA,065929.000,3114.451802,N,12128.892205,E,1,19,0.8,34.0,M,,M,,*75
$GPRMC,065929.000,A,3114.451802,N,12128.892205,E,2.4,346.83728330900004,250122,,E,A*11
$GPGGA,065930.000,3114.452703,N,12128.893222,E,1,19,0.8,33.6,M,,M,,*75
$GPRMC,065930.000,A,3114.452703,N,12128.893222,E,2.4,346.620575065,250122,,E,A*2B
$GPGGA,065931.000,3114.454096,N,12128.895042,E,1,19,0.8,33.6,M,,M,,*7B
$GPRMC,065931.000,A,3114.454096,N,12128.895042,E,2.8,353.49606213,250122,,E,A*10
$GPGGA,065932.000,3114.454822,N,12128.896067,E,1,19,0.8,33.7,M,,M,,*7A
$GPRMC,065932.000,A,3114.454822,N,12128.896067,E,2.8,351.60445487699997,250122,,E,A*16
$GPGGA,065933.000,3114.455584,N,12128.897242,E,1,19,0.8,33.9,M,,M,,*71
$GPRMC,065933.000,A,3114.455584,N,12128.897242,E,3.1,30.474253771,250122,,E,A*14
$GPGGA,065934.000,3114.455670,N,12128.897506,E,1,19,0.8,33.7,M,,M,,*77
$GPRMC,065934.000,A,3114.455670,N,12128.897506,E,2.7,337.002138639,250122,,E,A*29
$GPGGA,065935.000,3114.456439,N,12128.898102,E,1,19,0.8,33.7,M,,M,,*75
$GPRMC,065935.000,A,3114.456439,N,12128.898102,E,2.8,337.200050203,250122,,E,A*26
$GPGGA,065936.000,3114.456591,N,12128.898557,E,1,19,0.8,34.3,M,,M,,*72
$GPRMC,065936.000,A,3114.456591,N,12128.898557,E,2.5,337.214366279,250122,,E,A*21
$GPGGA,065937.000,3114.457249,N,12128.898736,E,1,19,0.8,34.2,M,,M,,*74
$GPRMC,065937.000,A,3114.457249,N,12128.898736,E,2.4,324.02319446,250122,,E,A*12
$GPGGA,065938.000,3114.458325,N,12128.899687,E,1,19,0.8,34.8,M,,M,,*7F
$GPRMC,065938.000,A,3114.458325,N,12128.899687,E,2.7,301.75415471400004,250122,,E,A*18
$GPGGA,065939.000,3114.459213,N,12128.899971,E,1,19,0.8,35.0,M,,M,,*74
$GPRMC,065939.000,A,3114.459213,N,12128.899971,E,2.7,279.680731587,250122,,E,A*25
$GPGGA,065940.000,3114.459884,N,12128.900075,E,1,19,0.8,35.1,M,,M,,*73
$GPRMC,065940.000,A,3114.459884,N,12128.900075,E,2.6,253.62039039099997,250122,,E,A*18
$GPGGA,065941.000,3114.460491,N,12128.899844,E,1,19,0.8,35.4,M,,M,,*7E
$GPRMC,065941.000,A,3114.460491,N,12128.899844,E,2.5,258.125118768,250122,,E,A*2C
$GPGGA,065942.000,3114.461094,N,12128.899257,E,1,19,0.8,35.3,M,,M,,*72
$GPRMC,065942.000,A,3114.461094,N,12128.899257,E,2.3,258.590445901,250122,,E,A*27
$GPGGA,065943.000,3114.461156,N,12128.898679,E,1,19,0.8,35.7,M,,M,,*71
$GPRMC,065943.000,A,3114.461156,N,12128.898679,E,2.0,256.878172097,250122,,E,A*21
$GPGGA,065944.000,3114.461286,N,12128.898172,E,1,19,0.8,36.2,M,,M,,*72
$GPRMC,065944.000,A,3114.461286,N,12128.898172,E,1.8,268.644539118,250122,,E,A*2E
$GPGGA,065945.000,3114.461548,N,12128.897413,E,1,19,0.8,36.9,M,,M,,*70
$GPRMC,065945.000,A,3114.461548,N,12128.897413,E,1.8,265.849461752,250122,,E,A*2D
$GPGGA,065946.000,3114.461654,N,12128.896780,E,1,19,0.8,38.0,M,,M,,*72
$GPRMC,065946.000,A,3114.461654,N,12128.896780,E,1.7,265.279605403,250122,,E,A*29
$GPGGA,065947.000,3114.461951,N,12128.895601,E,1,19,0.8,39.4,M,,M,,*77
$GPRMC,065947.000,A,3114.461951,N,12128.895601,E,1.9,271.264162582,250122,,E,A*20
$GPGGA,065948.000,3114.462016,N,12128.894709,E,1,19,0.8,40.8,M,,M,,*7B
$GPRMC,065948.000,A,3114.462016,N,12128.894709,E,2.0,271.45062674900004,250122,,E,A*13
$GPGGA,065949.000,3114.461824,N,12128.893393,E,1,19,0.8,42.1,M,,M,,*7B
$GPRMC,065949.000,A,3114.461824,N,12128.893393,E,2.3,271.057699621,250122,,E,A*27
$GPGGA,065950.000,3114.462332,N,12128.892343,E,1,19,0.8,43.1,M,,M,,*71
$GPRMC,065950.000,A,3114.462332,N,12128.892343,E,2.5,269.734992492,250122,,E,A*2F
$GPGGA,065951.000,3114.461752,N,12128.891510,E,1,19,0.8,44.4,M,,M,,*70
$GPRMC,065951.000,A,3114.461752,N,12128.891510,E,2.3,272.248720702,250122,,E,A*23
$GPGGA,065952.000,3114.461945,N,12128.890195,E,1,19,0.8,45.4,M,,M,,*72
$GPRMC,065952.000,A,3114.461945,N,12128.890195,E,2.5,268.867503816,250122,,E,A*23
$GPGGA,065953.000,3114.461814,N,12128.889075,E,1,19,0.8,46.5,M,,M,,*73
$GPRMC,065953.000,A,3114.461814,N,12128.889075,E,2.7,267.755576327,250122,,E,A*28
$GPGGA,065954.000,3114.461334,N,12128.888202,E,1,19,0.8,47.3,M,,M,,*79
$GPRMC,065954.000,A,3114.461334,N,12128.888202,E,2.6,253.586157483,250122,,E,A*21
$GPGGA,065955.000,3114.460383,N,12128.887784,E,1,19,0.8,48.3,M,,M,,*7E
$GPRMC,065955.000,A,3114.460383,N,12128.887784,E,2.5,253.81199086,250122,,E,A*1B
$GPGGA,065956.000,3114.459216,N,12128.887070,E,1,19,0.8,49.1,M,,M,,*75
$GPRMC,065956.000,A,3114.459216,N,12128.887070,E,2.6,256.469180365,250122,,E,A*21
$GPGGA,065957.000,3114.457778,N,12128.886657,E,1,19,0.8,49.9,M,,M,,*7D
$GPRMC,065957.000,A,3114.457778,N,12128.886657,E,2.7,259.763927055,250122,,E,A*23
$GPGGA,070303.000,3114.395189,N,12128.869906,E,1,19,0.8,98.2,M,,M,,*7E
$GPRMC,070303.000,A,3114.395189,N,12128.869906,E,0.9,79.553905286,250122,,E,A*16
$GPGGA,070304.000,3114.395260,N,12128.869730,E,1,19,0.8,100.2,M,,M,,*46
$GPRMC,070304.000,A,3114.395260,N,12128.869730,E,0.3,80.61369111100001,250122,,E,A*2B
$GPGGA,070305.000,3114.396093,N,12128.870611,E,1,19,0.8,101.9,M,,M,,*4A
$GPRMC,070305.000,A,3114.396093,N,12128.870611,E,1.6,76.707389766,250122,,E,A*1F
$GPGGA,070306.000,3114.396558,N,12128.871271,E,1,19,0.8,103.8,M,,M,,*4B
$GPRMC,070306.000,A,3114.396558,N,12128.871271,E,1.7,77.988808401,250122,,E,A*14
$GPGGA,070307.000,3114.394965,N,12128.871154,E,1,19,0.8,103.7,M,,M,,*41
$GPRMC,070307.000,A,3114.394965,N,12128.871154,E,1.3,77.801627064,250122,,E,A*11
$GPGGA,070308.000,3114.393841,N,12128.871094,E,1,19,0.8,101.3,M,,M,,*45
$GPRMC,070308.000,A,3114.393841,N,12128.871094,E,1.5,74.867370933,250122,,E,A*1A
$GPGGA,070309.000,3114.392690,N,12128.871003,E,1,19,0.8,99.1,M,,M,,*7B
$GPRMC,070309.000,A,3114.392690,N,12128.871003,E,1.6,76.720011955,250122,,E,A*1F
$GPGGA,070310.000,3114.391962,N,12128.872284,E,1,19,0.8,98.8,M,,M,,*74
$GPRMC,070310.000,A,3114.391962,N,12128.872284,E,2.1,76.728290145,250122,,E,A*16
$GPGGA,070311.000,3114.392061,N,12128.873270,E,1,19,0.8,95.7,M,,M,,*74
$GPRMC,070311.000,A,3114.392061,N,12128.873270,E,2.1,76.861021212,250122,,E,A*1F
$GPGGA,070312.000,3114.392191,N,12128.874474,E,1,19,0.8,93.4,M,,M,,*79
$GPRMC,070312.000,A,3114.392191,N,12128.874474,E,2.3,77.70953562300001,250122,,E,A*22
$GPGGA,070313.000,3114.389690,N,12128.875953,E,1,19,0.8,91.2,M,,M,,*79
$GPRMC,070313.000,A,3114.389690,N,12128.875953,E,3.4,123.296988134,250122,,E,A*29
$GPGGA,070314.000,3114.388161,N,12128.877434,E,1,19,0.8,88.9,M,,M,,*7B
$GPRMC,070314.000,A,3114.388161,N,12128.877434,E,4.2,127.820869414,250122,,E,A*23
$GPGGA,070315.000,3114.387469,N,12128.878709,E,1,19,0.8,88.2,M,,M,,*71
$GPRMC,070315.000,A,3114.387469,N,12128.878709,E,4.3,124.952005416,250122,,E,A*24
$GPGGA,070316.000,3114.386382,N,12128.879729,E,1,19,0.8,86.7,M,,M,,*79
$GPRMC,070316.000,A,3114.386382,N,12128.879729,E,4.3,127.534282902,250122,,E,A*2D
$GPGGA,070317.000,3114.385748,N,12128.881271,E,1,19,0.8,86.0,M,,M,,*71
$GPRMC,070317.000,A,3114.385748,N,12128.881271,E,4.5,123.735472164,250122,,E,A*22
$GPGGA,070318.000,3114.385141,N,12128.882455,E,1,19,0.8,85.2,M,,M,,*73
$GPRMC,070318.000,A,3114.385141,N,12128.882455,E,4.4,121.94625491299999,250122,,E,A*1A
$GPGGA,070319.000,3114.384828,N,12128.883548,E,1,19,0.8,84.6,M,,M,,*7C
$GPRMC,070319.000,A,3114.384828,N,12128.883548,E,4.2,119.066458954,250122,,E,A*27
$GPGGA,070320.000,3114.383818,N,12128.884966,E,1,19,0.8,83.5,M,,M,,*71
$GPRMC,070320.000,A,3114.383818,N,12128.884966,E,4.5,120.49931032100001,250122,,E,A*15
$GPGGA,070321.000,3114.383598,N,12128.886597,E,1,19,0.8,82.2,M,,M,,*73
$GPRMC,070321.000,A,3114.383598,N,12128.886597,E,4.5,115.741181778,250122,,E,A*22
$GPGGA,070322.000,3114.383486,N,12128.888763,E,1,19,0.8,79.0,M,,M,,*7F
$GPRMC,070322.000,A,3114.383486,N,12128.888763,E,4.8,109.359548503,250122,,E,A*2A
$GPGGA,070323.000,3114.383159,N,12128.889968,E,1,19,0.8,77.1,M,,M,,*72
