% program   : RTKLIB ver.2.4.2
% inp file  : /home/wws/fgo_gnss/src/global_fusion/dataset/tst_whampoa_20210714/20210714.2.whampoa.ublox.m8t.GC.10Hz.obs
% inp file  : /home/wws/fgo_gnss/src/global_fusion/dataset/tst_whampoa_20210714/hksc1950.21o
% inp file  : /home/wws/fgo_gnss/src/global_fusion/dataset/tst_whampoa_20210714/hksc1950.21f
% inp file  : /home/wws/fgo_gnss/src/global_fusion/dataset/tst_whampoa_20210714/hksc1950.21n
% obs start : 2021/07/14 04:50:58.0 GPST (week2166 276658.0s)
% obs end   : 2021/07/14 05:11:50.9 GPST (week2166 277910.9s)
% pos mode  : kinematic
% freqs     : L1+L2
% solution  : combined
% elev mask : 15.0 deg
% dynamics  : off
% tidecorr  : off
% ionos opt : broadcast
% tropo opt : saastamoinen
% ephemeris : broadcast
% navi sys  : gps glonass galileo qzss sbas
% amb res   : instantaneous
% amb glo   : on
% val thres : 3.0
% antenna1  :                       ( 0.0000  0.0000  0.0000)
% antenna2  :                       ( 0.0000  0.0000  0.0000)
% ref pos   : 22.322172082, 114.141187963,   20.2386
%
% (lat/lon/height=WGS84/ellipsoidal,Q=1:fix,2:float,3:sbas,4:dgps,5:single,6:ppp,ns=# of satellites)
%  GPST        , latitude(deg),longitude(deg), height(m),  Q, ns,  sdn(m),  sde(m),  sdu(m), sdne(m), sdeu(m), sdun(m),age(s), ratio
2166,276658.000,  22.301561442, 114.190298395,   -2.2304,  2, 16,  0.3026,  0.2937,  1.0064,  0.1138,  0.1823,  0.0322, 28.00,   1.0
2166,276658.100,  22.301561870, 114.190297901,   -3.1810,  2, 16,  0.3026,  0.2937,  1.0064,  0.1138,  0.1823,  0.0322, 28.10,   1.0
2166,276658.200,  22.301561563, 114.190297640,   -3.0583,  2, 16,  0.3026,  0.2937,  1.0064,  0.1138,  0.1823,  0.0323, 28.20,   1.2
2166,276658.300,  22.301559435, 114.190300802,   -2.0871,  2, 16,  0.3026,  0.2937,  1.0064,  0.1138,  0.1823,  0.0323, 28.30,   1.0
2166,276658.400,  22.301560206, 114.190297073,   -2.6216,  2, 16,  0.3026,  0.2937,  1.0064,  0.1138,  0.1823,  0.0323, 28.40,   1.1
2166,276658.500,  22.301559571, 114.190299594,   -2.5742,  2, 16,  0.3026,  0.2937,  1.0064,  0.1138,  0.1823,  0.0324, 28.50,   1.1
2166,276658.600,  22.301560268, 114.190281433,    1.8403,  2, 16,  0.2950,  0.2952,  1.0390,  0.0765, -0.1196, -0.0933, 28.60,   1.1
2166,276658.700,  22.301559160, 114.190299335,   -3.6980,  2, 17,  0.2950,  0.2776,  0.9916,  0.0804,  0.1294, -0.1029, 28.70,   1.2
2166,276658.800,  22.301558668, 114.190303648,   -2.0689,  2, 16,  0.3026,  0.2937,  1.0065,  0.1138,  0.1823,  0.0325, 28.80,   1.1
2166,276658.900,  22.301560200, 114.190300682,   -2.9322,  2, 16,  0.3026,  0.2937,  1.0065,  0.1138,  0.1823,  0.0325, 28.90,   1.1
2166,276659.000,  22.301559842, 114.190302798,   -3.2289,  2, 16,  0.3026,  0.2937,  1.0065,  0.1138,  0.1823,  0.0326, 29.00,   1.1
2166,276659.100,  22.301563018, 114.190296937,   -5.0742,  2, 16,  0.3026,  0.2937,  1.0065,  0.1138,  0.1823,  0.0326, 29.10,   1.0
2166,276659.200,  22.301562813, 114.190298582,   -4.3648,  2, 16,  0.3026,  0.2937,  1.0065,  0.1138,  0.1823,  0.0326, 29.20,   1.0
2166,276659.300,  22.301563943, 114.190295760,   -5.0154,  2, 16,  0.3026,  0.2937,  1.0065,  0.1138,  0.1823,  0.0327, 29.30,   1.4
2166,276659.400,  22.301562918, 114.190296294,   -4.8038,  2, 16,  0.3026,  0.2937,  1.0065,  0.1138,  0.1823,  0.0327, 29.40,   1.0
2166,276659.500,  22.301562564, 114.190295205,   -4.4353,  2, 16,  0.3026,  0.2937,  1.0065,  0.1138,  0.1823,  0.0327, 29.50,   1.1
2166,276659.600,  22.301562210, 114.190296399,   -4.9381,  2, 16,  0.3026,  0.2937,  1.0065,  0.1138,  0.1823,  0.0328, 29.60,   1.1
2166,276659.700,  22.301560041, 114.190301528,   -4.0937,  2, 16,  0.3026,  0.2937,  1.0065,  0.1138,  0.1823,  0.0328, 29.70,   1.1
2166,276659.800,  22.301558943, 114.190305856,   -2.6483,  2, 16,  0.3026,  0.2937,  1.0065,  0.1138,  0.1823,  0.0329, 29.80,   1.1
2166,276659.900,  22.301559663, 114.190303837,   -2.7095,  2, 16,  0.3026,  0.2937,  1.0065,  0.1138,  0.1823,  0.0329, 29.90,   1.1
2166,276660.000,  22.301562326, 114.190297082,   -3.6838,  2, 16,  0.3024,  0.2935,  1.0058,  0.1137,  0.1821,  0.0333,  0.00,   1.1
2166,276660.100,  22.301559990, 114.190302265,   -2.9219,  2, 16,  0.3026,  0.2937,  1.0065,  0.1138,  0.1823,  0.0330,  0.10,   1.1
2166,276660.200,  22.301558778, 114.190302809,   -1.9097,  2, 16,  0.3026,  0.2937,  1.0065,  0.1138,  0.1823,  0.0330,  0.20,   1.1
2166,276660.300,  22.301556970, 114.190301998,   -2.5055,  2, 16,  0.3026,  0.2937,  1.0065,  0.1138,  0.1823,  0.0330,  0.30,   1.0
2166,276660.400,  22.301557677, 114.190302920,   -2.4107,  2, 16,  0.3026,  0.2937,  1.0065,  0.1138,  0.1823,  0.0331,  0.40,   1.1
2166,276660.500,  22.301558463, 114.190300764,   -2.7819,  2, 16,  0.3026,  0.2937,  1.0065,  0.1138,  0.1823,  0.0331,  0.50,   1.1
2166,276660.600,  22.301559931, 114.190296805,   -2.5796,  2, 16,  0.3026,  0.2937,  1.0065,  0.1138,  0.1823,  0.0332,  0.60,   1.3
2166,276660.700,  22.301562147, 114.190298486,   -1.6661,  2, 16,  0.3026,  0.2937,  1.0065,  0.1138,  0.1823,  0.0332,  0.70,   1.1
2166,276660.800,  22.301560887, 114.190297267,   -1.3788,  2, 16,  0.3026,  0.2937,  1.0065,  0.1138,  0.1823,  0.0333,  0.80,   1.0
2166,276660.900,  22.301560034, 114.190298823,   -1.5322,  2, 16,  0.3026,  0.2937,  1.0065,  0.1138,  0.1823,  0.0333,  0.90,   1.0
2166,276661.000,  22.301560392, 114.190300598,   -1.7676,  2, 16,  0.3026,  0.2937,  1.0065,  0.1138,  0.1823,  0.0333,  1.00,   1.2
2166,276661.100,  22.301561096, 114.190301437,   -2.0613,  2, 16,  0.3026,  0.2937,  1.0065,  0.1138,  0.1823,  0.0334,  1.10,   1.0
2166,276661.200,  22.301562839, 114.190301494,   -2.1287,  2, 16,  0.3026,  0.2937,  1.0065,  0.1138,  0.1823,  0.0334,  1.20,   1.0
2166,276661.300,  22.301557475, 114.190299548,    0.7397,  2, 16,  0.3026,  0.2937,  1.0065,  0.1138,  0.1823,  0.0335,  1.30,   1.0
2166,276661.400,  22.301557308, 114.190301207,    0.9253,  2, 16,  0.3026,  0.2937,  1.0065,  0.1138,  0.1823,  0.0335,  1.40,   1.0
2166,276661.500,  22.301556896, 114.190299194,    1.1500,  2, 16,  0.3026,  0.2937,  1.0065,  0.1138,  0.1823,  0.0335,  1.50,   1.0
2166,276661.600,  22.301562975, 114.190295229,   -0.0464,  2, 16,  0.3026,  0.2937,  1.0065,  0.1138,  0.1823,  0.0336,  1.60,   1.5
2166,276661.700,  22.301563417, 114.190300226,   -0.1195,  2, 16,  0.3026,  0.2937,  1.0065,  0.1138,  0.1823,  0.0336,  1.70,   1.0
2166,276661.800,  22.301560819, 114.190298661,    0.7271,  2, 16,  0.3026,  0.2937,  1.0065,  0.1138,  0.1823,  0.0337,  1.80,   1.1
2166,276661.900,  22.301560129, 114.190301706,   -0.9166,  2, 16,  0.3026,  0.2937,  1.0065,  0.1138,  0.1823,  0.0337,  1.90,   1.0
2166,276662.000,  22.301558786, 114.190297277,   -0.6240,  2, 16,  0.3026,  0.2937,  1.0065,  0.1138,  0.1823,  0.0337,  2.00,   1.3
2166,276662.100,  22.301562111, 114.190297320,   -1.8572,  2, 16,  0.3026,  0.2937,  1.0065,  0.1138,  0.1823,  0.0338,  2.10,   1.1
2166,276662.200,  22.301561619, 114.190301352,   -1.8826,  2, 16,  0.3026,  0.2937,  1.0065,  0.1138,  0.1823,  0.0338,  2.20,   1.0
2166,276662.300,  22.301557475, 114.190307653,   -1.4666,  2, 16,  0.3026,  0.2937,  1.0065,  0.1138,  0.1824,  0.0339,  2.30,   1.2
2166,276662.400,  22.301558593, 114.190310674,   -1.5444,  2, 16,  0.3026,  0.2937,  1.0065,  0.1138,  0.1824,  0.0339,  2.40,   1.0
2166,276662.500,  22.301557001, 114.190311297,   -1.7899,  2, 16,  0.3026,  0.2937,  1.0065,  0.1138,  0.1824,  0.0339,  2.50,   1.0
2166,276662.600,  22.301555881, 114.190313190,   -1.3695,  2, 16,  0.3026,  0.2937,  1.0064,  0.1138,  0.1824,  0.0340,  2.60,   1.1
2166,276662.700,  22.301554672, 114.190312942,   -1.0824,  2, 16,  0.3026,  0.2937,  1.0064,  0.1138,  0.1824,  0.0340,  2.70,   1.1
2166,276662.800,  22.301556401, 114.190315475,   -1.7910,  2, 16,  0.3026,  0.2937,  1.0064,  0.1138,  0.1824,  0.0341,  2.80,   1.2
2166,276662.900,  22.301559746, 114.190313608,   -2.8949,  2, 16,  0.3026,  0.2937,  1.0064,  0.1138,  0.1824,  0.0341,  2.90,   1.1
2166,276663.000,  22.301561618, 114.190312272,   -2.7443,  2, 16,  0.3026,  0.2937,  1.0064,  0.1138,  0.1824,  0.0341,  3.00,   1.3
2166,276663.100,  22.301562990, 114.190319055,   -2.5044,  2, 17,  0.2949,  0.2776,  0.9916,  0.0804,  0.1295, -0.1024,  3.10,   1.4
2166,276663.200,  22.301562142, 114.190318331,   -2.0395,  2, 17,  0.2949,  0.2776,  0.9916,  0.0804,  0.1295, -0.1024,  3.20,   1.4
2166,276663.300,  22.301563398, 114.190316211,   -3.5540,  2, 17,  0.2949,  0.2776,  0.9916,  0.0804,  0.1295, -0.1024,  3.30,   1.4
2166,276663.400,  22.301560581, 114.190315685,   -3.0138,  2, 17,  0.2949,  0.2776,  0.9916,  0.0805,  0.1295, -0.1023,  3.40,   1.2
2166,276663.500,  22.301561783, 114.190313482,   -3.2682,  2, 17,  0.2949,  0.2776,  0.9916,  0.0805,  0.1295, -0.1023,  3.50,   1.3
2166,276663.600,  22.301561090, 114.190311551,   -1.8156,  2, 17,  0.2949,  0.2776,  0.9916,  0.0805,  0.1295, -0.1023,  3.60,   1.1
2166,276663.700,  22.301561352, 114.190311622,   -1.6971,  2, 17,  0.2949,  0.2776,  0.9916,  0.0805,  0.1295, -0.1023,  3.70,   1.0
2166,276663.800,  22.301560460, 114.190310008,   -3.1509,  2, 17,  0.2949,  0.2776,  0.9916,  0.0805,  0.1295, -0.1023,  3.80,   1.1
2166,276663.900,  22.301561558, 114.190309002,   -2.4582,  2, 17,  0.2949,  0.2776,  0.9916,  0.0805,  0.1295, -0.1023,  3.90,   1.2
2166,276664.000,  22.301559517, 114.190305813,   -1.5690,  2, 17,  0.2949,  0.2776,  0.9916,  0.0805,  0.1295, -0.1023,  4.00,   1.8
2166,276664.100,  22.301560360, 114.190303340,   -2.1039,  2, 17,  0.2949,  0.2776,  0.9916,  0.0805,  0.1295, -0.1023,  4.10,   1.0
2166,276664.200,  22.301562165, 114.190303912,   -2.1678,  2, 17,  0.2949,  0.2776,  0.9916,  0.0805,  0.1295, -0.1022,  4.20,   1.5
2166,276664.300,  22.301562984, 114.190305096,   -1.7301,  2, 17,  0.2949,  0.2776,  0.9916,  0.0805,  0.1295, -0.1022,  4.30,   1.3
2166,276664.400,  22.301565019, 114.190303735,   -1.3431,  2, 17,  0.2949,  0.2776,  0.9915,  0.0805,  0.1295, -0.1022,  4.40,   1.2
2166,276664.500,  22.301562521, 114.190305435,   -2.3491,  2, 17,  0.2949,  0.2776,  0.9915,  0.0805,  0.1295, -0.1022,  4.50,   1.8
2166,276664.600,  22.301560383, 114.190307351,   -3.0211,  2, 17,  0.2949,  0.2776,  0.9915,  0.0805,  0.1295, -0.1022,  4.60,   1.7
2166,276664.700,  22.301560545, 114.190306802,   -2.3910,  2, 17,  0.2949,  0.2776,  0.9915,  0.0805,  0.1295, -0.1022,  4.70,   2.0
2166,276664.800,  22.301561326, 114.190307536,   -3.1848,  2, 17,  0.2949,  0.2776,  0.9915,  0.0805,  0.1295, -0.1022,  4.80,   1.6
2166,276664.900,  22.301560526, 114.190310172,   -3.6261,  2, 17,  0.2949,  0.2776,  0.9915,  0.0805,  0.1295, -0.1022,  4.90,   2.0
2166,276665.000,  22.301561796, 114.190306777,   -1.7364,  2, 17,  0.2949,  0.2776,  0.9915,  0.0805,  0.1295, -0.1021,  5.00,   2.1
2166,276665.100,  22.301562622, 114.190310902,   -3.1627,  2, 17,  0.2949,  0.2776,  0.9915,  0.0805,  0.1295, -0.1021,  5.10,   1.3
2166,276665.200,  22.301562776, 114.190310716,   -2.6083,  2, 17,  0.2949,  0.2776,  0.9915,  0.0805,  0.1295, -0.1021,  5.20,   1.2
2166,276665.300,  22.301563688, 114.190309823,   -2.6340,  2, 17,  0.2949,  0.2776,  0.9915,  0.0805,  0.1295, -0.1021,  5.30,   1.2
2166,276665.400,  22.301564502, 114.190311921,   -3.5723,  2, 17,  0.2949,  0.2776,  0.9915,  0.0805,  0.1295, -0.1021,  5.40,   1.4
2166,276665.500,  22.301566120, 114.190317986,   -4.5457,  2, 17,  0.2949,  0.2776,  0.9915,  0.0805,  0.1295, -0.1021,  5.50,   1.2
2166,276665.600,  22.301565800, 114.190316866,   -3.8230,  2, 17,  0.2949,  0.2776,  0.9915,  0.0805,  0.1295, -0.1021,  5.60,   1.2
2166,276665.700,  22.301564981, 114.190318430,   -3.8608,  2, 17,  0.2949,  0.2776,  0.9915,  0.0805,  0.1295, -0.1021,  5.70,   1.1
2166,276665.800,  22.301564779, 114.190316399,   -2.7605,  2, 17,  0.2949,  0.2776,  0.9915,  0.0805,  0.1295, -0.1020,  5.80,   1.5
2166,276665.900,  22.301563750, 114.190315167,   -1.7823,  2, 17,  0.2949,  0.2776,  0.9915,  0.0805,  0.1295, -0.1020,  5.90,   1.1
2166,276666.000,  22.301562141, 114.190310766,   -0.9344,  2, 17,  0.2949,  0.2776,  0.9915,  0.0805,  0.1295, -0.1020,  6.00,   1.2
2166,276666.100,  22.301564130, 114.190312325,   -1.6692,  2, 17,  0.2949,  0.2776,  0.9915,  0.0805,  0.1295, -0.1020,  6.10,   1.4
2166,276666.200,  22.301562922, 114.190314451,   -2.8514,  2, 17,  0.2949,  0.2776,  0.9915,  0.0805,  0.1295, -0.1020,  6.20,   1.3
2166,276666.300,  22.301562642, 114.190310724,   -2.1003,  2, 17,  0.2949,  0.2776,  0.9915,  0.0805,  0.1295, -0.1020,  6.30,   1.7
2166,276666.400,  22.301562552, 114.190312529,   -1.7073,  2, 17,  0.2949,  0.2775,  0.9915,  0.0805,  0.1295, -0.1020,  6.40,   1.4
2166,276666.500,  22.301562252, 114.190316026,   -2.6195,  2, 18,  0.2945,  0.2648,  0.9358,  0.0879,  0.2099, -0.1236,  6.50,   1.6
2166,276666.600,  22.301562118, 114.190315284,   -2.9433,  2, 17,  0.2949,  0.2775,  0.9915,  0.0805,  0.1295, -0.1019,  6.60,   1.2
2166,276666.700,  22.301562851, 114.190311870,   -2.8113,  2, 17,  0.2949,  0.2775,  0.9915,  0.0805,  0.1295, -0.1019,  6.70,   1.6
2166,276666.800,  22.301563200, 114.190313370,   -3.2050,  2, 17,  0.2949,  0.2775,  0.9915,  0.0805,  0.1295, -0.1019,  6.80,   1.1
2166,276666.900,  22.301563468, 114.190309504,   -2.4496,  2, 17,  0.2949,  0.2775,  0.9915,  0.0805,  0.1295, -0.1019,  6.90,   1.6
2166,276667.000,  22.301563380, 114.190308692,   -2.4393,  2, 17,  0.2949,  0.2775,  0.9915,  0.0805,  0.1295, -0.1019,  7.00,   1.3
2166,276667.100,  22.301565047, 114.190315251,   -4.9078,  2, 18,  0.2945,  0.2647,  0.9358,  0.0879,  0.2099, -0.1236,  7.10,   1.1
2166,276667.200,  22.301564242, 114.190310769,   -3.2233,  2, 17,  0.2949,  0.2775,  0.9915,  0.0805,  0.1295, -0.1019,  7.20,   1.4
2166,276667.300,  22.301563987, 114.190313228,   -3.8617,  2, 17,  0.2949,  0.2775,  0.9915,  0.0805,  0.1295, -0.1018,  7.30,   1.1
2166,276667.400,  22.301563688, 114.190312639,   -3.2370,  2, 17,  0.2949,  0.2775,  0.9915,  0.0805,  0.1295, -0.1018,  7.40,   1.2
2166,276667.500,  22.301564277, 114.190312596,   -3.9262,  2, 17,  0.2949,  0.2775,  0.9915,  0.0805,  0.1295, -0.1018,  7.50,   1.1
2166,276667.600,  22.301563089, 114.190307683,   -2.6842,  2, 17,  0.2949,  0.2775,  0.9915,  0.0805,  0.1295, -0.1018,  7.60,   1.2
2166,276667.700,  22.301562426, 114.190306956,   -2.4175,  2, 17,  0.2949,  0.2775,  0.9915,  0.0805,  0.1295, -0.1018,  7.70,   1.3
2166,276667.800,  22.301562228, 114.190309759,   -3.4022,  2, 17,  0.2949,  0.2775,  0.9915,  0.0805,  0.1295, -0.1018,  7.80,   1.6
2166,276667.900,  22.301562549, 114.190308143,   -3.0350,  2, 18,  0.2945,  0.2647,  0.9358,  0.0879,  0.2099, -0.1235,  7.90,   1.4
2166,276668.000,  22.301562544, 114.190306312,   -2.5535,  2, 18,  0.2945,  0.2647,  0.9358,  0.0879,  0.2099, -0.1235,  8.00,   1.0
2166,276668.100,  22.301562016, 114.190305173,   -2.3693,  2, 18,  0.2945,  0.2647,  0.9357,  0.0879,  0.2099, -0.1235,  8.10,   1.0
2166,276668.200,  22.301561493, 114.190305933,   -2.7378,  2, 18,  0.2945,  0.2647,  0.9357,  0.0879,  0.2099, -0.1235,  8.20,   1.2
2166,276668.300,  22.301561949, 114.190305858,   -2.7530,  2, 18,  0.2945,  0.2647,  0.9357,  0.0879,  0.2099, -0.1235,  8.30,   1.0
2166,276668.400,  22.301562086, 114.190305887,   -3.1312,  2, 18,  0.2945,  0.2647,  0.9357,  0.0879,  0.2099, -0.1234,  8.40,   1.1
2166,276668.500,  22.301561902, 114.190305999,   -3.2650,  2, 17,  0.2949,  0.2775,  0.9915,  0.0805,  0.1295, -0.1017,  8.50,   1.0
2166,276668.600,  22.301561823, 114.190304287,   -2.5463,  2, 18,  0.2945,  0.2647,  0.9357,  0.0879,  0.2099, -0.1234,  8.60,   1.3
2166,276668.700,  22.301562496, 114.190306898,   -3.6312,  2, 18,  0.2945,  0.2647,  0.9357,  0.0879,  0.2099, -0.1234,  8.70,   1.0
2166,276668.800,  22.301562137, 114.190306283,   -3.4276,  2, 17,  0.2949,  0.2775,  0.9915,  0.0805,  0.1296, -0.1017,  8.80,   1.1
2166,276668.900,  22.301561538, 114.190304558,   -2.6092,  2, 18,  0.2945,  0.2647,  0.9357,  0.0879,  0.2099, -0.1234,  8.90,   1.1
2166,276669.000,  22.301561608, 114.190306113,   -1.6697,  2, 19,  0.2941,  0.2505,  0.8443,  0.0797,  0.0977, -0.1472,  9.00,   1.1
2166,276669.100,  22.301562641, 114.190308237,   -1.0132,  2, 19,  0.2941,  0.2505,  0.8443,  0.0797,  0.0977, -0.1472,  9.10,   1.2
2166,276669.200,  22.301563027, 114.190307117,   -2.1585,  2, 19,  0.2941,  0.2505,  0.8443,  0.0797,  0.0977, -0.1472,  9.20,   1.3
2166,276669.300,  22.301562480, 114.190302975,   -2.4613,  2, 19,  0.2941,  0.2505,  0.8443,  0.0797,  0.0977, -0.1472,  9.30,   1.5
2166,276669.400,  22.301562063, 114.190302092,   -2.0133,  2, 19,  0.2941,  0.2505,  0.8443,  0.0797,  0.0978, -0.1472,  9.40,   1.3
2166,276669.500,  22.301562467, 114.190302044,   -1.6095,  2, 19,  0.2941,  0.2505,  0.8443,  0.0797,  0.0978, -0.1472,  9.50,   1.3
2166,276669.600,  22.301561646, 114.190299820,   -1.0305,  2, 18,  0.2944,  0.2669,  0.8899,  0.0717, -0.1279, -0.1341,  9.60,   1.1
2166,276669.700,  22.301561864, 114.190301435,   -1.2792,  2, 19,  0.2941,  0.2505,  0.8443,  0.0797,  0.0978, -0.1472,  9.70,   1.5
2166,276669.800,  22.301562661, 114.190303834,   -2.2841,  2, 19,  0.2941,  0.2505,  0.8443,  0.0797,  0.0978, -0.1472,  9.80,   1.2
2166,276669.900,  22.301560974, 114.190301726,   -1.4821,  2, 19,  0.2941,  0.2505,  0.8443,  0.0797,  0.0978, -0.1472,  9.90,   1.7
2166,276670.000,  22.301561000, 114.190302506,   -1.8235,  2, 19,  0.2941,  0.2505,  0.8443,  0.0797,  0.0978, -0.1472, 10.00,   1.5
2166,276670.100,  22.301560859, 114.190302470,   -1.7283,  2, 19,  0.2941,  0.2505,  0.8443,  0.0797,  0.0978, -0.1472, 10.10,   1.6
2166,276670.200,  22.301561514, 114.190301216,   -2.3267,  2, 19,  0.2941,  0.2505,  0.8443,  0.0797,  0.0978, -0.1472, 10.20,   1.2
2166,276670.300,  22.301561895, 114.190300847,   -2.7633,  2, 19,  0.2941,  0.2505,  0.8443,  0.0797,  0.0978, -0.1471, 10.30,   1.2
2166,276670.400,  22.301561553, 114.190300366,   -2.8556,  2, 19,  0.2941,  0.2505,  0.8443,  0.0797,  0.0978, -0.1471, 10.40,   1.5
2166,276670.500,  22.301562521, 114.190302694,   -2.9801,  2, 19,  0.2941,  0.2505,  0.8443,  0.0797,  0.0978, -0.1471, 10.50,   1.3
2166,276670.600,  22.301562545, 114.190303056,   -2.6213,  2, 19,  0.2941,  0.2505,  0.8443,  0.0797,  0.0978, -0.1471, 10.60,   1.5
2166,276670.700,  22.301563005, 114.190303438,   -2.3570,  2, 19,  0.2941,  0.2505,  0.8443,  0.0797,  0.0978, -0.1471, 10.70,   1.7
2166,276670.800,  22.301563077, 114.190305459,   -3.2655,  2, 18,  0.2944,  0.2669,  0.8899,  0.0717, -0.1279, -0.1340, 10.80,   1.1
2166,276670.900,  22.301562529, 114.190305687,   -4.2609,  2, 17,  0.2949,  0.2775,  0.9915,  0.0805,  0.1296, -0.1014, 10.90,   1.3
2166,276671.000,  22.301563548, 114.190305127,   -4.1848,  2, 17,  0.2949,  0.2775,  0.9915,  0.0805,  0.1296, -0.1014, 11.00,   1.4
2166,276671.100,  22.301563107, 114.190304001,   -3.5890,  2, 17,  0.2949,  0.2775,  0.9915,  0.0805,  0.1296, -0.1014, 11.10,   1.3
2166,276671.200,  22.301562687, 114.190300573,   -2.3399,  2, 17,  0.2949,  0.2775,  0.9915,  0.0805,  0.1296, -0.1014, 11.20,   1.3
2166,276671.300,  22.301562994, 114.190301796,   -2.8594,  2, 17,  0.2949,  0.2775,  0.9915,  0.0805,  0.1296, -0.1013, 11.30,   1.3
2166,276671.400,  22.301563386, 114.190300561,   -2.7711,  2, 17,  0.2949,  0.2775,  0.9915,  0.0805,  0.1296, -0.1013, 11.40,   1.3
2166,276671.500,  22.301564334, 114.190301712,   -1.3340,  2, 18,  0.2944,  0.2669,  0.8899,  0.0717, -0.1279, -0.1340, 11.50,   1.7
2166,276671.600,  22.301563978, 114.190304523,   -1.5789,  2, 18,  0.2944,  0.2669,  0.8899,  0.0717, -0.1279, -0.1340, 11.60,   1.5
2166,276671.700,  22.301564251, 114.190305992,   -2.5651,  2, 18,  0.2944,  0.2669,  0.8899,  0.0717, -0.1279, -0.1340, 11.70,   1.4
2166,276671.800,  22.301564013, 114.190303773,   -2.2867,  2, 18,  0.2944,  0.2669,  0.8899,  0.0717, -0.1279, -0.1340, 11.80,   1.7
2166,276671.900,  22.301563922, 114.190304415,   -2.2947,  2, 18,  0.2944,  0.2669,  0.8899,  0.0718, -0.1279, -0.1340, 11.90,   1.8
2166,276672.000,  22.301563622, 114.190302984,   -1.8681,  2, 18,  0.2944,  0.2669,  0.8899,  0.0718, -0.1279, -0.1339, 12.00,   1.5
2166,276672.100,  22.301563999, 114.190300446,   -0.8973,  2, 18,  0.2944,  0.2669,  0.8899,  0.0718, -0.1279, -0.1339, 12.10,   1.2
2166,276672.200,  22.301563793, 114.190302212,   -1.7492,  2, 18,  0.2944,  0.2669,  0.8899,  0.0718, -0.1279, -0.1339, 12.20,   1.4
2166,276672.300,  22.301564138, 114.190303079,   -1.9009,  2, 18,  0.2944,  0.2669,  0.8899,  0.0718, -0.1279, -0.1339, 12.30,   1.8
2166,276672.400,  22.301564159, 114.190301418,   -1.3586,  2, 18,  0.2944,  0.2669,  0.8899,  0.0718, -0.1279, -0.1339, 12.40,   1.6
2166,276672.500,  22.301563570, 114.190302338,   -1.7494,  2, 18,  0.2944,  0.2669,  0.8899,  0.0718, -0.1279, -0.1339, 12.50,   1.7
2166,276672.600,  22.301563846, 114.190305968,   -2.6199,  2, 19,  0.2941,  0.2505,  0.8443,  0.0797,  0.0978, -0.1470, 12.60,   1.2
2166,276672.700,  22.301564868, 114.190307807,   -2.4208,  2, 18,  0.3005,  0.2624,  0.8465,  0.1057,  0.1196, -0.1337, 12.70,   1.2
2166,276672.800,  22.301564617, 114.190302707,   -1.2990,  2, 18,  0.3005,  0.2624,  0.8465,  0.1057,  0.1196, -0.1337, 12.80,   1.7
2166,276672.900,  22.301564079, 114.190301093,   -0.7641,  2, 18,  0.3005,  0.2624,  0.8465,  0.1057,  0.1196, -0.1337, 12.90,   1.5
2166,276673.000,  22.301564289, 114.190300178,   -0.7059,  2, 18,  0.3005,  0.2624,  0.8465,  0.1057,  0.1196, -0.1337, 13.00,   1.1
2166,276673.100,  22.301564806, 114.190301455,   -1.2323,  2, 18,  0.3005,  0.2624,  0.8465,  0.1057,  0.1196, -0.1337, 13.10,   1.5
2166,276673.200,  22.301565489, 114.190303603,   -1.7459,  2, 18,  0.3005,  0.2624,  0.8465,  0.1057,  0.1196, -0.1337, 13.20,   1.6
2166,276673.300,  22.301563749, 114.190302185,   -2.0260,  2, 19,  0.2941,  0.2505,  0.8443,  0.0797,  0.0978, -0.1470, 13.30,   1.4
2166,276673.400,  22.301563534, 114.190298713,   -1.0606,  2, 19,  0.2941,  0.2505,  0.8443,  0.0797,  0.0978, -0.1469, 13.40,   1.3
2166,276673.500,  22.301562758, 114.190295991,   -0.1492,  2, 19,  0.2941,  0.2505,  0.8443,  0.0797,  0.0978, -0.1469, 13.50,   1.1
2166,276673.600,  22.301562990, 114.190295767,   -0.2260,  2, 19,  0.2941,  0.2505,  0.8443,  0.0797,  0.0978, -0.1469, 13.60,   1.2
2166,276673.700,  22.301563078, 114.190299403,   -1.1909,  2, 19,  0.2941,  0.2505,  0.8443,  0.0797,  0.0978, -0.1469, 13.70,   1.2
2166,276673.800,  22.301561908, 114.190298674,   -0.7745,  2, 19,  0.2941,  0.2505,  0.8443,  0.0797,  0.0978, -0.1469, 13.80,   1.4
2166,276673.900,  22.301562025, 114.190301384,   -1.9826,  2, 19,  0.2941,  0.2505,  0.8443,  0.0797,  0.0978, -0.1469, 13.90,   1.9
2166,276674.000,  22.301562887, 114.190305439,   -3.3916,  2, 19,  0.2941,  0.2505,  0.8443,  0.0797,  0.0978, -0.1469, 14.00,   1.2
2166,276674.100,  22.301563519, 114.190306278,   -3.7896,  2, 19,  0.2941,  0.2505,  0.8443,  0.0797,  0.0978, -0.1469, 14.10,   1.2
2166,276674.200,  22.301562842, 114.190305268,   -3.0026,  2, 19,  0.2941,  0.2505,  0.8443,  0.0797,  0.0978, -0.1469, 14.20,   1.4
2166,276674.300,  22.301563755, 114.190305215,   -3.0879,  2, 19,  0.2941,  0.2505,  0.8443,  0.0797,  0.0978, -0.1469, 14.30,   1.2
2166,276674.400,  22.301563278, 114.190304168,   -2.5548,  2, 19,  0.2941,  0.2505,  0.8443,  0.0797,  0.0978, -0.1469, 14.40,   1.5
2166,276674.500,  22.301563138, 114.190304942,   -2.7019,  2, 19,  0.2941,  0.2505,  0.8443,  0.0797,  0.0978, -0.1469, 14.50,   1.6
2166,276674.600,  22.301563102, 114.190303261,   -2.1525,  2, 19,  0.2941,  0.2505,  0.8443,  0.0797,  0.0978, -0.1469, 14.60,   2.1
2166,276674.700,  22.301563500, 114.190303546,   -2.2174,  2, 19,  0.2941,  0.2505,  0.8443,  0.0797,  0.0978, -0.1469, 14.70,   2.3
2166,276674.800,  22.301563425, 114.190301885,   -1.7357,  2, 19,  0.2941,  0.2505,  0.8443,  0.0797,  0.0978, -0.1469, 14.80,   1.6
2166,276674.900,  22.301562842, 114.190300768,   -1.1773,  2, 18,  0.2944,  0.2669,  0.8899,  0.0718, -0.1278, -0.1337, 14.90,   1.6
2166,276675.000,  22.301563746, 114.190302345,   -1.6979,  2, 18,  0.2944,  0.2669,  0.8899,  0.0718, -0.1278, -0.1337, 15.00,   1.4
2166,276675.100,  22.301563338, 114.190299215,   -0.5708,  2, 18,  0.2944,  0.2669,  0.8899,  0.0718, -0.1278, -0.1337, 15.10,   1.3
2166,276675.200,  22.301564215, 114.190302045,   -1.7394,  2, 18,  0.2944,  0.2669,  0.8899,  0.0718, -0.1278, -0.1337, 15.20,   1.7
2166,276675.300,  22.301563789, 114.190294703,    0.5843,  2, 18,  0.2944,  0.2669,  0.8899,  0.0718, -0.1278, -0.1337, 15.30,   1.1
2166,276675.400,  22.301563903, 114.190293170,    0.9281,  2, 18,  0.2944,  0.2669,  0.8899,  0.0718, -0.1278, -0.1337, 15.40,   1.5
2166,276675.500,  22.301564205, 114.190292779,    0.9639,  2, 18,  0.2944,  0.2669,  0.8899,  0.0718, -0.1278, -0.1337, 15.50,   1.3
2166,276675.600,  22.301564048, 114.190293509,    0.7794,  2, 18,  0.2944,  0.2669,  0.8899,  0.0718, -0.1278, -0.1337, 15.60,   1.3
2166,276675.700,  22.301564276, 114.190295588,   -0.0680,  2, 19,  0.2941,  0.2505,  0.8443,  0.0798,  0.0978, -0.1468, 15.70,   1.1
2166,276675.800,  22.301563747, 114.190292936,    0.7831,  2, 19,  0.2941,  0.2505,  0.8443,  0.0798,  0.0978, -0.1468, 15.80,   1.2
2166,276675.900,  22.301563359, 114.190294263,    0.4461,  2, 19,  0.2941,  0.2505,  0.8443,  0.0798,  0.0979, -0.1468, 15.90,   1.2
2166,276676.000,  22.301564261, 114.190293707,    0.5050,  2, 19,  0.2941,  0.2505,  0.8443,  0.0798,  0.0979, -0.1468, 16.00,   1.4
2166,276676.100,  22.301564640, 114.190293028,    0.7238,  2, 19,  0.2941,  0.2505,  0.8443,  0.0798,  0.0979, -0.1468, 16.10,   1.3
2166,276676.200,  22.301564710, 114.190294449,    0.2922,  2, 18,  0.2944,  0.2669,  0.8899,  0.0718, -0.1278, -0.1336, 16.20,   1.1
2166,276676.300,  22.301563913, 114.190293084,    0.8606,  2, 18,  0.2944,  0.2669,  0.8899,  0.0718, -0.1278, -0.1336, 16.30,   1.2
2166,276676.400,  22.301563721, 114.190291528,    1.4582,  2, 18,  0.2944,  0.2669,  0.8899,  0.0718, -0.1278, -0.1336, 16.40,   1.1
2166,276676.500,  22.301564572, 114.190294972,    0.3728,  2, 18,  0.2944,  0.2669,  0.8899,  0.0718, -0.1278, -0.1336, 16.50,   1.0
2166,276676.600,  22.301563829, 114.190291232,    1.6219,  2, 18,  0.2944,  0.2669,  0.8899,  0.0718, -0.1278, -0.1336, 16.60,   1.2
2166,276676.700,  22.301563921, 114.190288002,    2.6398,  2, 18,  0.2944,  0.2669,  0.8899,  0.0718, -0.1278, -0.1336, 16.70,   1.2
2166,276676.800,  22.301563541, 114.190287115,    3.0351,  2, 18,  0.2944,  0.2669,  0.8899,  0.0718, -0.1278, -0.1336, 16.80,   1.3
2166,276676.900,  22.301562578, 114.190291026,    1.8874,  2, 19,  0.2941,  0.2505,  0.8443,  0.0798,  0.0979, -0.1467, 16.90,   1.1
2166,276677.000,  22.301562445, 114.190290258,    2.2319,  2, 18,  0.2944,  0.2669,  0.8899,  0.0718, -0.1278, -0.1336, 17.00,   1.1
2166,276677.100,  22.301563508, 114.190294146,    1.2789,  2, 17,  0.3008,  0.2775,  0.8925,  0.0993, -0.1058, -0.1169, 17.10,   1.0
2166,276677.200,  22.301563460, 114.190294165,    1.2355,  2, 17,  0.3008,  0.2775,  0.8925,  0.0993, -0.1058, -0.1169, 17.20,   1.1
2166,276677.300,  22.301563193, 114.190294238,    1.2829,  2, 17,  0.3008,  0.2775,  0.8925,  0.0993, -0.1058, -0.1169, 17.30,   1.0
2166,276677.400,  22.301563451, 114.190295717,    0.9041,  2, 17,  0.3008,  0.2775,  0.8925,  0.0993, -0.1058, -0.1168, 17.40,   1.0
2166,276677.500,  22.301563386, 114.190295718,    0.7647,  2, 17,  0.3008,  0.2775,  0.8925,  0.0993, -0.1058, -0.1168, 17.50,   1.0
2166,276677.600,  22.301563666, 114.190292887,    1.3881,  2, 17,  0.3008,  0.2775,  0.8925,  0.0993, -0.1058, -0.1168, 17.60,   1.1
2166,276677.700,  22.301565143, 114.190287032,    2.5371,  2, 17,  0.3008,  0.2775,  0.8925,  0.0993, -0.1058, -0.1168, 17.70,   1.0
2166,276677.800,  22.301564662, 114.190287271,    2.3902,  2, 17,  0.3008,  0.2775,  0.8925,  0.0993, -0.1058, -0.1168, 17.80,   1.1
2166,276677.900,  22.301564652, 114.190289379,    1.8733,  2, 17,  0.3008,  0.2775,  0.8925,  0.0993, -0.1058, -0.1168, 17.90,   1.3
2166,276678.000,  22.301562358, 114.190292304,    1.8097,  2, 17,  0.3008,  0.2775,  0.8925,  0.0993, -0.1058, -0.1168, 18.00,   1.1
2166,276678.100,  22.301562527, 114.190292421,    1.5880,  2, 17,  0.3008,  0.2775,  0.8925,  0.0993, -0.1058, -0.1168, 18.10,   1.1
2166,276678.200,  22.301561575, 114.190296274,    0.8695,  2, 17,  0.3008,  0.2775,  0.8925,  0.0993, -0.1058, -0.1168, 18.20,   1.1
2166,276678.300,  22.301561774, 114.190295411,    0.8409,  2, 17,  0.3008,  0.2775,  0.8925,  0.0993, -0.1058, -0.1168, 18.30,   1.1
2166,276678.400,  22.301562344, 114.190289500,    2.2593,  2, 17,  0.3008,  0.2775,  0.8925,  0.0993, -0.1058, -0.1168, 18.40,   1.1
2166,276678.500,  22.301563053, 114.190289405,    2.1836,  2, 17,  0.3008,  0.2775,  0.8925,  0.0993, -0.1058, -0.1168, 18.50,   1.0
2166,276678.600,  22.301563029, 114.190286390,    2.8550,  2, 17,  0.3008,  0.2775,  0.8925,  0.0993, -0.1058, -0.1167, 18.60,   1.2
2166,276678.700,  22.301561374, 114.190287256,    3.0498,  2, 17,  0.3008,  0.2775,  0.8925,  0.0993, -0.1058, -0.1167, 18.70,   1.1
2166,276678.800,  22.301562879, 114.190291805,    1.1296,  2, 16,  0.3026,  0.2935,  1.0064,  0.1140,  0.1826,  0.0397, 18.80,   1.2
2166,276678.900,  22.301565019, 114.190291921,   -0.4873,  2, 16,  0.3026,  0.2935,  1.0064,  0.1140,  0.1826,  0.0398, 18.90,   1.1
2166,276679.000,  22.301564172, 114.190287069,    1.6097,  2, 16,  0.3026,  0.2935,  1.0064,  0.1140,  0.1826,  0.0398, 19.00,   1.9
2166,276679.100,  22.301564319, 114.190290049,    0.8441,  2, 16,  0.3026,  0.2935,  1.0064,  0.1140,  0.1826,  0.0398, 19.10,   2.0
2166,276679.200,  22.301565436, 114.190291972,   -0.2680,  2, 16,  0.3026,  0.2935,  1.0064,  0.1140,  0.1826,  0.0399, 19.20,   1.6
2166,276679.300,  22.301564046, 114.190289733,    1.7163,  2, 16,  0.3026,  0.2935,  1.0064,  0.1140,  0.1826,  0.0399, 19.30,   1.1
2166,276679.400,  22.301565787, 114.190286132,    1.6318,  2, 16,  0.3026,  0.2935,  1.0064,  0.1140,  0.1826,  0.0399, 19.40,   1.4
2166,276679.500,  22.301564331, 114.190288442,    1.9063,  2, 16,  0.3026,  0.2935,  1.0064,  0.1140,  0.1826,  0.0400, 19.50,   1.1
2166,276679.600,  22.301565857, 114.190284457,    2.6382,  2, 16,  0.3026,  0.2935,  1.0064,  0.1140,  0.1826,  0.0400, 19.60,   1.3
2166,276679.700,  22.301565349, 114.190283786,    2.6327,  2, 16,  0.3026,  0.2935,  1.0065,  0.1140,  0.1826,  0.0400, 19.70,   1.1
2166,276679.800,  22.301566041, 114.190287620,    0.9026,  2, 16,  0.3026,  0.2935,  1.0065,  0.1140,  0.1826,  0.0400, 19.80,   2.3
2166,276679.900,  22.301564376, 114.190293799,    0.2178,  2, 16,  0.3026,  0.2935,  1.0065,  0.1140,  0.1826,  0.0401, 19.90,   1.3
2166,276680.000,  22.301565395, 114.190289273,    0.8148,  2, 16,  0.3026,  0.2935,  1.0065,  0.1140,  0.1826,  0.0401, 20.00,   2.0
2166,276680.100,  22.301564220, 114.190291284,    0.8991,  2, 16,  0.3026,  0.2935,  1.0065,  0.1140,  0.1826,  0.0401, 20.10,   1.5
2166,276680.200,  22.301562999, 114.190291292,    1.6843,  2, 16,  0.3026,  0.2935,  1.0065,  0.1140,  0.1826,  0.0402, 20.20,   1.2
2166,276680.300,  22.301564815, 114.190292509,   -0.2251,  2, 16,  0.3026,  0.2935,  1.0065,  0.1140,  0.1826,  0.0402, 20.30,   1.5
2166,276680.400,  22.301565513, 114.190288473,    0.1411,  1, 16,  0.0185,  0.0167,  0.0530,  0.0073,  0.0097, -0.0080, 20.40,   3.2
2166,276680.500,  22.301565911, 114.190290817,   -0.4986,  2, 16,  0.3026,  0.2935,  1.0065,  0.1140,  0.1826,  0.0403, 20.50,   1.7
2166,276680.600,  22.301563824, 114.190292221,    0.8581,  2, 16,  0.3026,  0.2935,  1.0065,  0.1140,  0.1826,  0.0403, 20.60,   1.3
2166,276680.700,  22.301562379, 114.190295578,    0.8247,  2, 16,  0.3026,  0.2935,  1.0065,  0.1140,  0.1826,  0.0403, 20.70,   1.1
2166,276680.800,  22.301562469, 114.190294692,    0.8681,  2, 16,  0.3026,  0.2935,  1.0065,  0.1140,  0.1826,  0.0404, 20.80,   1.2
2166,276680.900,  22.301562924, 114.190291625,    1.5521,  2, 16,  0.3026,  0.2935,  1.0065,  0.1140,  0.1826,  0.0404, 20.90,   1.2
2166,276681.000,  22.301562856, 114.190293366,    1.0550,  2, 16,  0.3026,  0.2935,  1.0065,  0.1140,  0.1826,  0.0404, 21.00,   1.1
2166,276681.100,  22.301565034, 114.190290016,    0.6938,  2, 15,  0.3027,  0.3122,  1.0503,  0.1132,  0.0396,  0.0467, 21.10,   1.9
2166,276681.200,  22.301564457, 114.190293396,   -0.1233,  2, 15,  0.3027,  0.3122,  1.0503,  0.1132,  0.0396,  0.0468, 21.20,   1.3
2166,276681.300,  22.301563248, 114.190296610,   -0.5848,  2, 15,  0.3027,  0.3122,  1.0503,  0.1132,  0.0396,  0.0468, 21.30,   1.2
2166,276681.400,  22.301562616, 114.190296473,   -0.2749,  2, 15,  0.3027,  0.3122,  1.0503,  0.1132,  0.0396,  0.0468, 21.40,   1.2
2166,276681.500,  22.301563632, 114.190295572,   -1.0883,  2, 15,  0.3027,  0.3122,  1.0503,  0.1132,  0.0396,  0.0468, 21.50,   1.0
2166,276681.600,  22.301562130, 114.190294064,    0.3197,  2, 15,  0.3027,  0.3122,  1.0503,  0.1132,  0.0397,  0.0469, 21.60,   1.0
2166,276681.700,  22.301562408, 114.190292346,    0.6423,  2, 15,  0.3027,  0.3122,  1.0503,  0.1132,  0.0397,  0.0469, 21.70,   1.0
2166,276681.800,  22.301562914, 114.190288977,    1.4294,  2, 15,  0.3027,  0.3122,  1.0503,  0.1132,  0.0397,  0.0469, 21.80,   1.0
2166,276681.900,  22.301564331, 114.190288429,    0.4520,  2, 15,  0.3027,  0.3122,  1.0503,  0.1132,  0.0397,  0.0469, 21.90,   2.3
2166,276682.000,  22.301563864, 114.190289093,    0.7587,  2, 15,  0.3027,  0.3122,  1.0503,  0.1132,  0.0397,  0.0470, 22.00,   1.8
2166,276682.100,  22.301564093, 114.190289960,    0.4516,  2, 15,  0.3027,  0.3122,  1.0503,  0.1132,  0.0397,  0.0470, 22.10,   1.8
2166,276682.200,  22.301562980, 114.190291294,    0.8416,  2, 15,  0.3027,  0.3122,  1.0503,  0.1132,  0.0397,  0.0470, 22.20,   1.2
2166,276682.300,  22.301562674, 114.190288820,    1.9913,  2, 15,  0.3027,  0.3122,  1.0503,  0.1132,  0.0397,  0.0470, 22.30,   1.0
2166,276682.400,  22.301563095, 114.190289301,    1.6495,  2, 15,  0.3027,  0.3122,  1.0504,  0.1132,  0.0397,  0.0471, 22.40,   1.1
2166,276682.500,  22.301563496, 114.190287256,    1.3449,  2, 15,  0.3027,  0.3122,  1.0504,  0.1132,  0.0398,  0.0471, 22.50,   1.5
2166,276682.600,  22.301564744, 114.190283704,    1.1882,  2, 16,  0.3027,  0.2935,  1.0065,  0.1140,  0.1827,  0.0409, 22.60,   1.3
2166,276682.700,  22.301565615, 114.190284389,    0.4733,  2, 16,  0.3027,  0.2935,  1.0066,  0.1140,  0.1827,  0.0410, 22.70,   1.0
2166,276682.800,  22.301563117, 114.190287975,    1.0164,  2, 16,  0.3027,  0.2935,  1.0066,  0.1140,  0.1827,  0.0410, 22.80,   1.3
2166,276682.900,  22.301562907, 114.190291842,    0.4106,  2, 16,  0.3027,  0.2935,  1.0066,  0.1140,  0.1827,  0.0410, 22.90,   1.3
2166,276683.000,  22.301563053, 114.190286725,    1.4720,  2, 16,  0.3027,  0.2935,  1.0066,  0.1140,  0.1827,  0.0410, 23.00,   1.2
2166,276683.100,  22.301563060, 114.190287099,    1.5054,  2, 16,  0.3027,  0.2935,  1.0066,  0.1140,  0.1827,  0.0411, 23.10,   1.0
2166,276683.200,  22.301562025, 114.190288332,    2.3734,  2, 16,  0.3027,  0.2935,  1.0066,  0.1140,  0.1827,  0.0411, 23.20,   1.2
2166,276683.300,  22.301562738, 114.190289550,    2.0776,  2, 16,  0.3027,  0.2935,  1.0066,  0.1140,  0.1827,  0.0411, 23.30,   1.5
2166,276683.400,  22.301563724, 114.190291027,    0.9607,  2, 16,  0.3027,  0.2935,  1.0066,  0.1140,  0.1827,  0.0412, 23.40,   1.2
2166,276683.500,  22.301562973, 114.190294222,    0.5836,  2, 16,  0.3027,  0.2935,  1.0066,  0.1140,  0.1827,  0.0412, 23.50,   1.1
2166,276683.600,  22.301562249, 114.190296165,    0.5963,  2, 16,  0.3027,  0.2935,  1.0066,  0.1140,  0.1827,  0.0412, 23.60,   1.1
2166,276683.700,  22.301564152, 114.190291777,    0.8497,  2, 17,  0.2950,  0.2775,  0.9917,  0.0807,  0.1299, -0.0999, 23.70,   1.1
2166,276683.800,  22.301562309, 114.190293469,    0.6663,  2, 17,  0.2950,  0.2775,  0.9917,  0.0807,  0.1299, -0.0998, 23.80,   1.0
2166,276683.900,  22.301565257, 114.190293573,   -0.5117,  2, 17,  0.2950,  0.2775,  0.9917,  0.0807,  0.1299, -0.0998, 23.90,   1.1
2166,276684.000,  22.301562959, 114.190293436,    0.0802,  2, 17,  0.2950,  0.2775,  0.9917,  0.0807,  0.1299, -0.0998, 24.00,   1.1
2166,276684.100,  22.301563344, 114.190296784,   -0.5171,  2, 16,  0.3027,  0.2935,  1.0066,  0.1140,  0.1827,  0.0414, 24.10,   1.3
2166,276684.200,  22.301562834, 114.190299662,   -1.3798,  2, 16,  0.3027,  0.2935,  1.0066,  0.1140,  0.1827,  0.0414, 24.20,   1.0
2166,276684.300,  22.301562148, 114.190302751,   -1.6531,  2, 16,  0.3027,  0.2935,  1.0066,  0.1140,  0.1827,  0.0414, 24.30,   1.1
2166,276684.400,  22.301562841, 114.190301095,   -1.6562,  2, 16,  0.3027,  0.2935,  1.0066,  0.1140,  0.1827,  0.0415, 24.40,   1.3
2166,276684.500,  22.301563274, 114.190303857,   -2.6862,  2, 16,  0.3027,  0.2935,  1.0066,  0.1140,  0.1827,  0.0415, 24.50,   1.1
2166,276684.600,  22.301564582, 114.190297978,   -1.7068,  2, 16,  0.3027,  0.2935,  1.0066,  0.1140,  0.1827,  0.0415, 24.60,   1.0
2166,276684.700,  22.301565688, 114.190298751,   -2.9306,  2, 16,  0.3027,  0.2935,  1.0066,  0.1140,  0.1827,  0.0416, 24.70,   1.3
2166,276684.800,  22.301565482, 114.190298701,   -2.7563,  2, 16,  0.3027,  0.2935,  1.0066,  0.1140,  0.1827,  0.0416, 24.80,   1.2
2166,276684.900,  22.301565401, 114.190299551,   -2.5970,  2, 16,  0.3027,  0.2935,  1.0066,  0.1140,  0.1827,  0.0416, 24.90,   1.4
2166,276685.000,  22.301564833, 114.190303711,   -2.3563,  2, 17,  0.3009,  0.2775,  0.8927,  0.0993, -0.1056, -0.1162, 25.00,   1.4
2166,276685.100,  22.301565154, 114.190306167,   -2.1376,  2, 18,  0.2945,  0.2669,  0.8901,  0.0719, -0.1276, -0.1330, 25.10,   1.1
2166,276685.200,  22.301565787, 114.190305464,   -2.7106,  2, 17,  0.2950,  0.2775,  0.9918,  0.0807,  0.1300, -0.0997, 25.20,   1.0
2166,276685.300,  22.301566149, 114.190304143,   -2.7874,  2, 17,  0.2950,  0.2775,  0.9918,  0.0807,  0.1300, -0.0997, 25.30,   1.3
2166,276685.400,  22.301565179, 114.190307385,   -3.6490,  2, 17,  0.2950,  0.2775,  0.9918,  0.0807,  0.1300, -0.0997, 25.40,   1.0
2166,276685.500,  22.301566641, 114.190301424,   -2.5279,  2, 17,  0.2950,  0.2775,  0.9918,  0.0807,  0.1300, -0.0996, 25.50,   1.1
2166,276685.600,  22.301566262, 114.190302602,   -2.3207,  2, 17,  0.2950,  0.2775,  0.9918,  0.0807,  0.1300, -0.0996, 25.60,   1.6
2166,276685.700,  22.301564666, 114.190302465,   -2.0853,  2, 16,  0.3027,  0.2936,  1.0067,  0.1141,  0.1827,  0.0419, 25.70,   1.3
2166,276685.800,  22.301566022, 114.190301513,   -2.4295,  2, 16,  0.3027,  0.2936,  1.0067,  0.1141,  0.1828,  0.0419, 25.80,   1.3
2166,276685.900,  22.301566395, 114.190301785,   -3.0755,  2, 16,  0.3027,  0.2936,  1.0067,  0.1141,  0.1828,  0.0419, 25.90,   1.1
2166,276686.000,  22.301565743, 114.190302559,   -2.7904,  2, 16,  0.3027,  0.2936,  1.0067,  0.1141,  0.1828,  0.0419, 26.00,   1.9
2166,276686.100,  22.301565247, 114.190302556,   -2.4454,  2, 16,  0.3027,  0.2936,  1.0067,  0.1141,  0.1828,  0.0420, 26.10,   1.6
2166,276686.200,  22.301565486, 114.190304989,   -3.0549,  2, 16,  0.3027,  0.2936,  1.0067,  0.1141,  0.1828,  0.0420, 26.20,   1.2
2166,276686.300,  22.301566646, 114.190305706,   -4.4870,  2, 16,  0.3027,  0.2936,  1.0067,  0.1141,  0.1828,  0.0420, 26.30,   1.2
2166,276686.400,  22.301567730, 114.190304804,   -6.0756,  2, 16,  0.3027,  0.2936,  1.0067,  0.1141,  0.1828,  0.0421, 26.40,   1.0
2166,276686.500,  22.301567388, 114.190304760,   -6.2605,  2, 16,  0.3027,  0.2936,  1.0067,  0.1141,  0.1828,  0.0421, 26.50,   1.2
2166,276686.600,  22.301567445, 114.190306391,   -6.4519,  2, 16,  0.3027,  0.2936,  1.0067,  0.1141,  0.1828,  0.0421, 26.60,   1.1
2166,276686.700,  22.301561171, 114.190310798,   -2.5548,  1, 16,  0.0056,  0.0057,  0.0180,  0.0016, -0.0022, -0.0023, -3.30,   3.1
2166,276686.800,  22.301566302, 114.190304606,   -4.9297,  2, 16,  0.3027,  0.2936,  1.0067,  0.1141,  0.1828,  0.0422, 26.80,   1.1
2166,276686.900,  22.301567515, 114.190305411,   -4.3663,  2, 17,  0.3010,  0.2775,  0.8928,  0.0993, -0.1056, -0.1161, 26.90,   1.1
2166,276687.000,  22.301569274, 114.190304616,   -5.6691,  2, 17,  0.2951,  0.2775,  0.9919,  0.0807,  0.1300, -0.0995, 27.00,   1.0
2166,276687.100,  22.301570149, 114.190304286,   -6.7089,  2, 17,  0.2951,  0.2775,  0.9919,  0.0807,  0.1300, -0.0995, 27.10,   1.6
2166,276687.200,  22.301570979, 114.190302892,   -7.1644,  2, 17,  0.2951,  0.2775,  0.9919,  0.0807,  0.1300, -0.0995, 27.20,   1.9
2166,276687.300,  22.301571240, 114.190303183,   -6.9519,  2, 17,  0.2951,  0.2775,  0.9919,  0.0807,  0.1300, -0.0994, 27.30,   1.8
2166,276687.400,  22.301570925, 114.190305003,   -7.3286,  2, 17,  0.2951,  0.2775,  0.9919,  0.0807,  0.1301, -0.0994, 27.40,   1.5
2166,276687.500,  22.301570518, 114.190304971,   -6.3263,  2, 17,  0.2951,  0.2775,  0.9919,  0.0807,  0.1301, -0.0994, 27.50,   1.1
2166,276687.600,  22.301570082, 114.190306447,   -6.4322,  2, 17,  0.2951,  0.2775,  0.9919,  0.0807,  0.1301, -0.0994, 27.60,   1.1
2166,276687.700,  22.301568501, 114.190308664,   -5.3173,  2, 18,  0.2945,  0.2669,  0.8902,  0.0719, -0.1276, -0.1329, 27.70,   1.0
2166,276687.800,  22.301568726, 114.190310674,   -6.0448,  2, 18,  0.2945,  0.2669,  0.8902,  0.0719, -0.1276, -0.1329, 27.80,   1.5
2166,276687.900,  22.301569074, 114.190310092,   -6.9219,  2, 18,  0.2945,  0.2669,  0.8902,  0.0719, -0.1276, -0.1329, 27.90,   1.7
2166,276688.000,  22.301569076, 114.190311085,   -7.5604,  2, 18,  0.2945,  0.2669,  0.8902,  0.0719, -0.1276, -0.1328, 28.00,   2.3
2166,276688.100,  22.301566954, 114.190314113,   -7.0272,  2, 18,  0.2945,  0.2669,  0.8902,  0.0719, -0.1276, -0.1328, 28.10,   1.1
2166,276688.200,  22.301565084, 114.190317476,   -6.8409,  2, 18,  0.2945,  0.2669,  0.8902,  0.0719, -0.1276, -0.1328, 28.20,   1.0
2166,276688.300,  22.301564034, 114.190316460,   -6.1845,  2, 17,  0.3010,  0.2775,  0.8928,  0.0993, -0.1056, -0.1160, 28.30,   1.5
2166,276688.400,  22.301564593, 114.190315507,   -6.1997,  2, 17,  0.3010,  0.2775,  0.8929,  0.0994, -0.1056, -0.1160, 28.40,   1.3
2166,276688.500,  22.301563948, 114.190314723,   -6.2378,  2, 16,  0.3028,  0.2936,  1.0068,  0.1141,  0.1828,  0.0427, 28.50,   1.2
2166,276688.600,  22.301564369, 114.190313170,   -6.6411,  2, 16,  0.3028,  0.2936,  1.0068,  0.1141,  0.1828,  0.0427, 28.60,   1.0
2166,276688.700,  22.301564254, 114.190315523,   -7.2897,  2, 16,  0.3028,  0.2936,  1.0068,  0.1141,  0.1828,  0.0427, 28.70,   1.1
2166,276688.800,  22.301564895, 114.190316172,   -7.7116,  2, 16,  0.3028,  0.2936,  1.0068,  0.1141,  0.1828,  0.0428, 28.80,   1.1
2166,276688.900,  22.301564763, 114.190314027,   -6.7909,  2, 16,  0.3028,  0.2936,  1.0069,  0.1141,  0.1828,  0.0428, 28.90,   1.1
2166,276689.000,  22.301565254, 114.190314879,   -7.3160,  2, 16,  0.3028,  0.2936,  1.0069,  0.1141,  0.1828,  0.0428, 29.00,   1.0
2166,276689.100,  22.301566707, 114.190312806,   -7.9927,  2, 16,  0.3028,  0.2936,  1.0069,  0.1141,  0.1829,  0.0428, 29.10,   1.5
2166,276689.200,  22.301566536, 114.190312121,   -8.0095,  2, 16,  0.3028,  0.2936,  1.0069,  0.1141,  0.1829,  0.0429, 29.20,   1.8
2166,276689.300,  22.301566924, 114.190313611,   -8.5314,  2, 16,  0.3028,  0.2936,  1.0069,  0.1141,  0.1829,  0.0429, 29.30,   1.4
2166,276689.400,  22.301566235, 114.190317414,   -8.6819,  2, 16,  0.3028,  0.2936,  1.0069,  0.1141,  0.1829,  0.0429, 29.40,   1.4
2166,276689.500,  22.301566070, 114.190318972,   -9.3012,  2, 16,  0.3028,  0.2936,  1.0069,  0.1141,  0.1829,  0.0430, 29.50,   2.2
2166,276689.600,  22.301566079, 114.190316433,   -7.2633,  2, 17,  0.3010,  0.2775,  0.8929,  0.0994, -0.1055, -0.1159, 29.60,   1.2
2166,276689.700,  22.301565640, 114.190319921,   -7.7974,  2, 16,  0.3028,  0.2936,  1.0069,  0.1141,  0.1829,  0.0430, 29.70,   1.1
2166,276689.800,  22.301566257, 114.190317501,   -6.7741,  2, 16,  0.3028,  0.2936,  1.0069,  0.1141,  0.1829,  0.0430, 29.80,   1.3
2166,276689.900,  22.301566625, 114.190317211,   -6.9196,  2, 16,  0.3028,  0.2936,  1.0069,  0.1141,  0.1829,  0.0431, 29.90,   1.4
2166,276690.000,  22.301566317, 114.190315847,   -6.1592,  2, 17,  0.3007,  0.2773,  0.8923,  0.0993, -0.1054, -0.1156,  0.00,   1.6
2166,276690.100,  22.301566364, 114.190318573,   -6.6626,  2, 17,  0.3010,  0.2775,  0.8929,  0.0994, -0.1055, -0.1159,  0.10,   1.0
2166,276690.200,  22.301566313, 114.190319449,   -7.0630,  2, 17,  0.3010,  0.2775,  0.8929,  0.0994, -0.1055, -0.1159,  0.20,   1.2
2166,276690.300,  22.301566792, 114.190317900,   -6.7599,  2, 17,  0.3010,  0.2775,  0.8929,  0.0994, -0.1055, -0.1159,  0.30,   1.2
2166,276690.400,  22.301565797, 114.190315512,   -5.5480,  2, 17,  0.3010,  0.2775,  0.8929,  0.0994, -0.1055, -0.1158,  0.40,   1.2
2166,276690.500,  22.301564720, 114.190317589,   -4.9837,  2, 17,  0.3010,  0.2775,  0.8929,  0.0994, -0.1055, -0.1158,  0.50,   1.2
2166,276690.600,  22.301564347, 114.190316874,   -4.3931,  2, 17,  0.3010,  0.2775,  0.8929,  0.0994, -0.1055, -0.1158,  0.60,   1.1
2166,276690.700,  22.301564429, 114.190317834,   -4.7056,  2, 17,  0.3010,  0.2775,  0.8929,  0.0994, -0.1055, -0.1158,  0.70,   1.0
2166,276690.800,  22.301565314, 114.190317373,   -4.7642,  2, 16,  0.3028,  0.2936,  1.0069,  0.1141,  0.1829,  0.0434,  0.80,   1.2
2166,276690.900,  22.301565608, 114.190317271,   -5.2486,  2, 16,  0.3028,  0.2936,  1.0069,  0.1141,  0.1829,  0.0434,  0.90,   1.2
2166,276691.000,  22.301565640, 114.190317645,   -5.0706,  2, 16,  0.3028,  0.2936,  1.0069,  0.1141,  0.1829,  0.0434,  1.00,   1.1
2166,276691.100,  22.301565459, 114.190319776,   -5.3749,  2, 16,  0.3028,  0.2936,  1.0069,  0.1141,  0.1829,  0.0434,  1.10,   1.0
2166,276691.200,  22.301566146, 114.190316841,   -5.6110,  2, 16,  0.3028,  0.2936,  1.0069,  0.1141,  0.1829,  0.0435,  1.20,   1.2
2166,276691.300,  22.301565461, 114.190318830,   -5.6047,  2, 16,  0.3028,  0.2936,  1.0069,  0.1141,  0.1829,  0.0435,  1.30,   1.3
2166,276691.400,  22.301565927, 114.190315800,   -5.7129,  2, 16,  0.3028,  0.2936,  1.0069,  0.1141,  0.1829,  0.0435,  1.40,   1.2
2166,276691.500,  22.301565907, 114.190314942,   -6.0433,  2, 16,  0.3028,  0.2936,  1.0069,  0.1141,  0.1829,  0.0436,  1.50,   1.2
2166,276691.600,  22.301565484, 114.190314936,   -5.2225,  2, 17,  0.3010,  0.2775,  0.8929,  0.0994, -0.1055, -0.1157,  1.60,   1.1
2166,276691.700,  22.301565721, 114.190314386,   -5.7791,  2, 16,  0.3028,  0.2936,  1.0069,  0.1141,  0.1829,  0.0436,  1.70,   1.3
2166,276691.800,  22.301566947, 114.190316311,   -6.4484,  2, 17,  0.3010,  0.2775,  0.8929,  0.0994, -0.1055, -0.1157,  1.80,   1.0
2166,276691.900,  22.301567404, 114.190316085,   -6.8730,  2, 17,  0.3010,  0.2775,  0.8929,  0.0994, -0.1055, -0.1157,  1.90,   1.4
2166,276692.000,  22.301567052, 114.190317785,   -6.9456,  2, 17,  0.3010,  0.2775,  0.8929,  0.0994, -0.1055, -0.1157,  2.00,   1.0
2166,276692.100,  22.301566926, 114.190320438,   -7.5970,  2, 17,  0.3010,  0.2775,  0.8929,  0.0994, -0.1055, -0.1157,  2.10,   1.1
2166,276692.200,  22.301567680, 114.190321971,   -8.4173,  2, 17,  0.3010,  0.2775,  0.8929,  0.0994, -0.1055, -0.1157,  2.20,   1.0
2166,276692.300,  22.301566977, 114.190319640,   -8.2950,  2, 16,  0.3028,  0.2935,  1.0068,  0.1141,  0.1829,  0.0438,  2.30,   1.5
2166,276692.400,  22.301567077, 114.190319903,   -8.0387,  2, 16,  0.3028,  0.2935,  1.0068,  0.1141,  0.1829,  0.0439,  2.40,   1.3
2166,276692.500,  22.301566829, 114.190320988,   -7.8309,  2, 16,  0.3028,  0.2935,  1.0068,  0.1141,  0.1829,  0.0439,  2.50,   1.2
2166,276692.600,  22.301566593, 114.190319644,   -6.7479,  2, 16,  0.3028,  0.2935,  1.0068,  0.1141,  0.1829,  0.0439,  2.60,   1.2
2166,276692.700,  22.301567030, 114.190322791,   -7.6398,  2, 16,  0.3028,  0.2935,  1.0068,  0.1141,  0.1829,  0.0439,  2.70,   1.2
2166,276692.800,  22.301567456, 114.190324175,   -7.8810,  2, 16,  0.3028,  0.2935,  1.0068,  0.1141,  0.1829,  0.0440,  2.80,   1.3
2166,276692.900,  22.301567522, 114.190322679,   -7.8589,  2, 16,  0.3028,  0.2935,  1.0068,  0.1141,  0.1829,  0.0440,  2.90,   1.2
2166,276693.000,  22.301567599, 114.190320899,   -7.0533,  2, 17,  0.3010,  0.2775,  0.8928,  0.0994, -0.1054, -0.1156,  3.00,   1.1
2166,276693.100,  22.301567948, 114.190319863,   -7.0409,  2, 17,  0.3010,  0.2774,  0.8928,  0.0994, -0.1054, -0.1156,  3.10,   1.1
2166,276693.200,  22.301567824, 114.190316489,   -6.9008,  2, 16,  0.3028,  0.2935,  1.0068,  0.1141,  0.1829,  0.0441,  3.20,   1.1
2166,276693.300,  22.301567624, 114.190315674,   -6.6248,  2, 16,  0.3028,  0.2935,  1.0068,  0.1141,  0.1829,  0.0441,  3.30,   1.3
2166,276693.400,  22.301567252, 114.190314385,   -6.1921,  2, 16,  0.3028,  0.2935,  1.0068,  0.1141,  0.1829,  0.0442,  3.40,   1.3
2166,276693.500,  22.301567362, 114.190312746,   -5.7020,  2, 16,  0.3028,  0.2935,  1.0068,  0.1141,  0.1829,  0.0442,  3.50,   1.2
2166,276693.600,  22.301567033, 114.190311526,   -5.0507,  2, 16,  0.3028,  0.2935,  1.0068,  0.1141,  0.1829,  0.0442,  3.60,   1.0
2166,276693.700,  22.301566566, 114.190309628,   -4.6356,  2, 16,  0.3028,  0.2935,  1.0068,  0.1141,  0.1829,  0.0443,  3.70,   1.1
2166,276693.800,  22.301566458, 114.190306764,   -3.8840,  2, 16,  0.3028,  0.2935,  1.0068,  0.1141,  0.1829,  0.0443,  3.80,   1.0
2166,276693.900,  22.301566768, 114.190305776,   -3.5236,  2, 16,  0.3028,  0.2935,  1.0068,  0.1141,  0.1829,  0.0443,  3.90,   1.0
2166,276694.000,  22.301566855, 114.190302540,   -2.1591,  2, 16,  0.3028,  0.2935,  1.0068,  0.1141,  0.1829,  0.0443,  4.00,   1.1
2166,276694.100,  22.301567361, 114.190301717,   -2.0378,  2, 16,  0.3028,  0.2935,  1.0068,  0.1141,  0.1829,  0.0444,  4.10,   1.3
2166,276694.200,  22.301566660, 114.190301506,   -2.0336,  2, 16,  0.3028,  0.2935,  1.0068,  0.1141,  0.1829,  0.0444,  4.20,   1.0
2166,276694.300,  22.301566370, 114.190296992,   -0.8054,  2, 16,  0.3028,  0.2935,  1.0068,  0.1141,  0.1829,  0.0444,  4.30,   1.2
2166,276694.400,  22.301566353, 114.190293761,   -0.0940,  2, 16,  0.3028,  0.2935,  1.0068,  0.1141,  0.1829,  0.0445,  4.40,   1.8
2166,276694.500,  22.301566620, 114.190296543,   -1.4550,  2, 16,  0.3028,  0.2935,  1.0068,  0.1141,  0.1829,  0.0445,  4.50,   1.0
2166,276694.600,  22.301567235, 114.190301006,   -3.4781,  2, 16,  0.3028,  0.2935,  1.0068,  0.1141,  0.1829,  0.0445,  4.60,   1.1
2166,276694.700,  22.301566355, 114.190298083,   -2.1338,  2, 16,  0.3028,  0.2935,  1.0068,  0.1141,  0.1829,  0.0446,  4.70,   1.1
2166,276694.800,  22.301570356, 114.190300257,   -4.0650,  2, 15,  0.3177,  0.2942,  1.0345,  0.1224,  0.1692, -0.1446,  4.80,   1.0
2166,276694.900,  22.301570545, 114.190298867,   -3.9729,  2, 15,  0.3177,  0.2942,  1.0345,  0.1224,  0.1692, -0.1446,  4.90,   1.0
2166,276695.000,  22.301571032, 114.190298985,   -4.5513,  2, 15,  0.3177,  0.2942,  1.0345,  0.1224,  0.1692, -0.1446,  5.00,   1.3
2166,276695.100,  22.301570055, 114.190295994,   -3.3773,  2, 15,  0.3177,  0.2942,  1.0345,  0.1224,  0.1692, -0.1446,  5.10,   1.0
2166,276695.200,  22.301569034, 114.190292991,   -2.4134,  2, 14,  0.3265,  0.3098,  1.0398,  0.0877,  0.1359, -0.1141,  5.20,   1.2
2166,276695.300,  22.301567245, 114.190293386,   -2.5479,  2, 14,  0.3265,  0.3098,  1.0398,  0.0877,  0.1359, -0.1141,  5.30,   1.2
2166,276695.400,  22.301564701, 114.190283708,   -0.8958,  2, 15,  0.3135,  0.2973,  1.0305, -0.0157,  0.0802, -0.1602,  5.40,   1.2
2166,276695.500,  22.301567643, 114.190280891,    0.6233,  2, 14,  0.3265,  0.3098,  1.0398,  0.0877,  0.1359, -0.1141,  5.50,   1.3
2166,276695.600,  22.301566451, 114.190278381,    1.7406,  2, 14,  0.3265,  0.3098,  1.0398,  0.0877,  0.1359, -0.1141,  5.60,   1.6
2166,276695.700,  22.301566692, 114.190276461,    2.2178,  2, 14,  0.3265,  0.3098,  1.0398,  0.0877,  0.1359, -0.1141,  5.70,   1.0
2166,276695.800,  22.301570003, 114.190277234,    2.1479,  2, 15,  0.3177,  0.2942,  1.0345,  0.1224,  0.1692, -0.1445,  5.80,   1.1
2166,276695.900,  22.301571957, 114.190274341,    3.0003,  2, 15,  0.3177,  0.2942,  1.0345,  0.1224,  0.1692, -0.1445,  5.90,   1.1
2166,276696.000,  22.301573729, 114.190271677,    4.0145,  2, 15,  0.3177,  0.2942,  1.0345,  0.1224,  0.1692, -0.1445,  6.00,   1.2
2166,276696.100,  22.301575944, 114.190270263,    4.3414,  2, 15,  0.3177,  0.2942,  1.0344,  0.1224,  0.1692, -0.1445,  6.10,   1.1
2166,276696.200,  22.301578361, 114.190273259,    3.1899,  2, 15,  0.3177,  0.2942,  1.0344,  0.1224,  0.1692, -0.1445,  6.20,   1.0
2166,276696.300,  22.301573739, 114.190264997,    4.2615,  2, 15,  0.3177,  0.2942,  1.0344,  0.1224,  0.1692, -0.1445,  6.30,   1.0
2166,276696.400,  22.301572767, 114.190265419,    3.3579,  2, 14,  0.3514,  0.2951,  1.1177,  0.1358,  0.1959,  0.2065,  6.40,   1.3
2166,276696.500,  22.301573683, 114.190265350,    2.6208,  2, 14,  0.3514,  0.2951,  1.1177,  0.1358,  0.1959,  0.2065,  6.50,   1.4
2166,276696.600,  22.301574195, 114.190263786,    2.7280,  2, 14,  0.3514,  0.2951,  1.1177,  0.1358,  0.1959,  0.2066,  6.60,   1.5
2166,276696.700,  22.301572599, 114.190260855,    3.5503,  2, 14,  0.3514,  0.2951,  1.1177,  0.1358,  0.1959,  0.2066,  6.70,   1.3
2166,276696.800,  22.301569196, 114.190260573,    2.9904,  2, 14,  0.3514,  0.2951,  1.1177,  0.1358,  0.1959,  0.2066,  6.80,   1.1
2166,276696.900,  22.301570538, 114.190262289,    1.1988,  2, 14,  0.3514,  0.2951,  1.1178,  0.1358,  0.1959,  0.2066,  6.90,   1.2
2166,276697.000,  22.301575943, 114.190260205,    3.1328,  2, 15,  0.3177,  0.2942,  1.0344,  0.1224,  0.1692, -0.1444,  7.00,   1.1
2166,276697.100,  22.301580663, 114.190264353,   -1.6331,  2, 15,  0.3358,  0.2943,  1.0965,  0.1273,  0.2074,  0.2552,  7.10,   1.4
2166,276697.200,  22.301581904, 114.190262281,   -1.1386,  2, 15,  0.3358,  0.2943,  1.0965,  0.1273,  0.2074,  0.2552,  7.20,   1.1
2166,276697.300,  22.301582962, 114.190260776,    0.6690,  2, 16,  0.3028,  0.2935,  1.0067,  0.1141,  0.1829,  0.0453,  7.30,   1.0
2166,276697.400,  22.301589368, 114.190261576,    0.9444,  2, 16,  0.3028,  0.2935,  1.0067,  0.1141,  0.1829,  0.0454,  7.40,   1.1
2166,276697.500,  22.301591282, 114.190259716,   -0.2603,  2, 16,  0.3028,  0.2935,  1.0067,  0.1141,  0.1829,  0.0454,  7.50,   1.8
2166,276697.600,  22.301590627, 114.190256906,   -0.0915,  2, 16,  0.3028,  0.2935,  1.0067,  0.1141,  0.1829,  0.0454,  7.60,   1.1
2166,276697.700,  22.301589920, 114.190254195,    0.7306,  2, 16,  0.3028,  0.2935,  1.0067,  0.1141,  0.1829,  0.0455,  7.70,   1.1
2166,276697.800,  22.301587258, 114.190248891,    0.8316,  2, 16,  0.3028,  0.2935,  1.0067,  0.1141,  0.1829,  0.0455,  7.80,   1.4
2166,276697.900,  22.301589562, 114.190246092,    2.2770,  2, 16,  0.3028,  0.2935,  1.0067,  0.1141,  0.1829,  0.0455,  7.90,   1.3
2166,276698.000,  22.301587746, 114.190243566,    2.4298,  2, 16,  0.3027,  0.2935,  1.0067,  0.1141,  0.1829,  0.0455,  8.00,   1.1
2166,276698.100,  22.301590952, 114.190246559,    1.1711,  2, 16,  0.3027,  0.2935,  1.0067,  0.1142,  0.1829,  0.0456,  8.10,   1.0
2166,276698.200,  22.301595399, 114.190245102,    2.2735,  2, 16,  0.3027,  0.2935,  1.0067,  0.1142,  0.1829,  0.0456,  8.20,   1.1
2166,276698.300,  22.301594431, 114.190244330,    1.6775,  2, 16,  0.3027,  0.2935,  1.0067,  0.1142,  0.1829,  0.0456,  8.30,   1.0
2166,276698.400,  22.301594462, 114.190242118,    1.1962,  2, 16,  0.3027,  0.2935,  1.0067,  0.1142,  0.1830,  0.0457,  8.40,   1.1
2166,276698.500,  22.301597464, 114.190242851,    0.3722,  2, 16,  0.3027,  0.2934,  1.0067,  0.1142,  0.1830,  0.0457,  8.50,   1.4
2166,276698.600,  22.301599021, 114.190244144,   -0.5697,  2, 16,  0.3027,  0.2934,  1.0067,  0.1142,  0.1830,  0.0457,  8.60,   1.2
2166,276698.700,  22.301602762, 114.190243278,   -1.7588,  2, 16,  0.3027,  0.2934,  1.0067,  0.1142,  0.1830,  0.0457,  8.70,   1.3
2166,276698.800,  22.301599717, 114.190241496,   -2.1869,  2, 16,  0.3027,  0.2934,  1.0067,  0.1142,  0.1830,  0.0458,  8.80,   1.0
2166,276698.900,  22.301594399, 114.190233783,   -0.7824,  2, 16,  0.3027,  0.2934,  1.0067,  0.1142,  0.1830,  0.0458,  8.90,   1.2
2166,276699.000,  22.301598750, 114.190228121,    2.4882,  2, 16,  0.3027,  0.2934,  1.0067,  0.1142,  0.1830,  0.0458,  9.00,   1.0
2166,276699.100,  22.301599027, 114.190224309,    2.7030,  2, 16,  0.3027,  0.2934,  1.0067,  0.1142,  0.1830,  0.0459,  9.10,   1.3
2166,276699.200,  22.301606553, 114.190225166,    2.5065,  2, 16,  0.3027,  0.2934,  1.0067,  0.1142,  0.1830,  0.0459,  9.20,   1.0
2166,276699.300,  22.301614337, 114.190228123,    1.5906,  2, 16,  0.3027,  0.2934,  1.0067,  0.1142,  0.1830,  0.0459,  9.30,   1.4
2166,276699.400,  22.301615822, 114.190226185,    2.3475,  2, 16,  0.3027,  0.2934,  1.0067,  0.1142,  0.1830,  0.0459,  9.40,   1.2
2166,276699.500,  22.301617856, 114.190224387,    2.8971,  2, 16,  0.3027,  0.2934,  1.0067,  0.1142,  0.1830,  0.0460,  9.50,   1.3
2166,276699.600,  22.301619485, 114.190225603,    0.3609,  2, 16,  0.3027,  0.2934,  1.0067,  0.1142,  0.1830,  0.0460,  9.60,   1.3
2166,276699.700,  22.301625819, 114.190226032,    1.0641,  2, 16,  0.3027,  0.2934,  1.0067,  0.1142,  0.1830,  0.0460,  9.70,   1.5
2166,276699.800,  22.301625415, 114.190224064,    1.3950,  2, 16,  0.3027,  0.2934,  1.0067,  0.1142,  0.1830,  0.0461,  9.80,   1.3
2166,276699.900,  22.301629048, 114.190221202,    1.8163,  2, 16,  0.3027,  0.2934,  1.0067,  0.1142,  0.1830,  0.0461,  9.90,   1.1
2166,276700.000,  22.301629516, 114.190216331,    3.2300,  2, 16,  0.3027,  0.2934,  1.0067,  0.1142,  0.1830,  0.0461, 10.00,   1.7
2166,276700.100,  22.301634275, 114.190218034,    2.1920,  2, 16,  0.3027,  0.2934,  1.0067,  0.1142,  0.1830,  0.0461, 10.10,   1.0
2166,276700.200,  22.301633927, 114.190217952,    1.0502,  2, 16,  0.3027,  0.2934,  1.0067,  0.1142,  0.1830,  0.0462, 10.20,   1.2
2166,276700.300,  22.301638725, 114.190214837,    1.6660,  2, 17,  0.2950,  0.2773,  0.9918,  0.0808,  0.1303, -0.0978, 10.30,   1.2
2166,276700.400,  22.301645464, 114.190215347,    1.7489,  2, 17,  0.2950,  0.2773,  0.9918,  0.0808,  0.1303, -0.0977, 10.40,   1.0
2166,276700.500,  22.301646773, 114.190212465,    1.3100,  2, 17,  0.2950,  0.2773,  0.9918,  0.0808,  0.1303, -0.0977, 10.50,   1.1
2166,276700.600,  22.301650777, 114.190215001,    0.3181,  2, 17,  0.2950,  0.2773,  0.9918,  0.0808,  0.1303, -0.0977, 10.60,   1.0
2166,276700.700,  22.301652995, 114.190211737,   -0.0637,  2, 18,  0.2947,  0.2646,  0.9362,  0.0883,  0.2103, -0.1204, 10.70,   1.1
2166,276700.800,  22.301654505, 114.190204965,    2.8426,  2, 18,  0.2947,  0.2646,  0.9362,  0.0883,  0.2103, -0.1204, 10.80,   1.1
2166,276700.900,  22.301658185, 114.190202228,    2.2674,  2, 18,  0.2947,  0.2646,  0.9362,  0.0883,  0.2103, -0.1204, 10.90,   1.0
2166,276701.000,  22.301664429, 114.190198460,    1.8821,  2, 18,  0.2947,  0.2646,  0.9362,  0.0883,  0.2103, -0.1204, 11.00,   1.1
2166,276701.100,  22.301665953, 114.190194094,    3.3613,  2, 18,  0.2947,  0.2646,  0.9362,  0.0883,  0.2103, -0.1204, 11.10,   1.0
2166,276701.200,  22.301670135, 114.190188465,    4.0482,  2, 18,  0.2947,  0.2646,  0.9362,  0.0883,  0.2103, -0.1204, 11.20,   1.1
2166,276701.300,  22.301677735, 114.190192712,    2.5128,  2, 18,  0.2947,  0.2646,  0.9362,  0.0883,  0.2103, -0.1204, 11.30,   1.0
2166,276701.400,  22.301678474, 114.190189352,    3.1647,  2, 18,  0.2947,  0.2646,  0.9362,  0.0883,  0.2103, -0.1204, 11.40,   1.0
2166,276701.500,  22.301680654, 114.190188075,    3.1549,  2, 18,  0.2947,  0.2646,  0.9362,  0.0883,  0.2103, -0.1204, 11.50,   1.0
2166,276701.600,  22.301682034, 114.190185200,    3.0094,  2, 18,  0.2947,  0.2646,  0.9362,  0.0883,  0.2103, -0.1203, 11.60,   1.1
2166,276701.700,  22.301685985, 114.190185896,    3.9012,  2, 18,  0.2947,  0.2646,  0.9362,  0.0883,  0.2103, -0.1203, 11.70,   1.0
2166,276701.800,  22.301690586, 114.190185316,    3.4561,  2, 18,  0.2947,  0.2646,  0.9362,  0.0883,  0.2103, -0.1203, 11.80,   1.1
2166,276701.900,  22.301693782, 114.190185637,    3.6434,  2, 18,  0.2947,  0.2646,  0.9362,  0.0883,  0.2103, -0.1203, 11.90,   1.2
2166,276702.000,  22.301700767, 114.190184503,    1.9706,  2, 18,  0.2947,  0.2646,  0.9362,  0.0883,  0.2103, -0.1203, 12.00,   1.2
