$GPGGA,084536.000,3114.443430,N,12130.161717,E,1,19,0.8,3.7,M,,M,,*4F
$GPRMC,084536.000,A,3114.443430,N,12130.161717,E,0.9,17.440432334,200122,,E,A*1F
$GPGGA,084537.000,3114.449547,N,12130.161930,E,1,19,0.8,17.6,M,,M,,*7A
$GPRMC,084537.000,A,3114.449547,N,12130.161930,E,0.7,17.440432334,200122,,E,A*10
$GPGGA,084538.000,3114.449769,N,12130.165165,E,1,19,0.8,25.0,M,,M,,*70
$GPRMC,084538.000,A,3114.449769,N,12130.165165,E,0.5,17.440432334,200122,,E,A*1F
$GPGGA,084539.000,3114.449774,N,12130.169002,E,1,19,0.8,30.9,M,,M,,*7C
$GPRMC,084539.000,A,3114.449774,N,12130.169002,E,0.3,17.440432334,200122,,E,A*18
$GPGGA,084540.000,3114.449467,N,12130.173371,E,1,19,0.8,30.9,M,,M,,*7F
$GPRMC,084540.000,A,3114.449467,N,12130.173371,E,0.2,17.440432334,200122,,E,A*1A
$GPGGA,084541.000,3114.450364,N,12130.174037,E,1,19,0.8,26.6,M,,M,,*7C
$GPRMC,084541.000,A,3114.450364,N,12130.174037,E,0.1,17.440432334,200122,,E,A*12
$GPGGA,084542.000,3114.450754,N,12130.174528,E,1,19,0.8,24.4,M,,M,,*73
$GPRMC,084542.000,A,3114.450754,N,12130.174528,E,0.2,17.440432334,200122,,E,A*1E
$GPGGA,084543.000,3114.450774,N,12130.174432,E,1,19,0.8,25.9,M,,M,,*76
$GPRMC,084543.000,A,3114.450774,N,12130.174432,E,0.1,17.440432334,200122,,E,A*14
$GPGGA,084544.000,3114.450783,N,12130.176222,E,1,19,0.8,24.4,M,,M,,*70
$GPRMC,084544.000,A,3114.450783,N,12130.176222,E,0.2,17.440432334,200122,,E,A*1D
$GPGGA,084545.000,3114.450594,N,12130.176445,E,1,19,0.8,27.8,M,,M,,*7D
$GPRMC,084545.000,A,3114.450594,N,12130.176445,E,0.2,17.440432334,200122,,E,A*1F
$GPGGA,084546.000,3114.447851,N,12130.177643,E,1,19,0.8,55.9,M,,M,,*7D
$GPRMC,084546.000,A,3114.447851,N,12130.177643,E,0.4,17.440432334,200122,,E,A*1D
$GPGGA,084547.000,3114.447069,N,12130.178083,E,1,19,0.8,64.7,M,,M,,*76
$GPRMC,084547.000,A,3114.447069,N,12130.178083,E,0.3,17.440432334,200122,,E,A*1D
$GPGGA,084548.000,3114.446213,N,12130.178772,E,1,19,0.8,74.2,M,,M,,*7A
$GPRMC,084548.000,A,3114.446213,N,12130.178772,E,0.4,17.440432334,200122,,E,A*12
$GPGGA,084549.000,3114.446193,N,12130.178838,E,1,19,0.8,74.3,M,,M,,*70
$GPRMC,084549.000,A,3114.446193,N,12130.178838,E,0.4,17.440432334,200122,,E,A*19
$GPGGA,084550.000,3114.444158,N,12130.173616,E,1,19,0.8,86.7,M,,M,,*7D
$GPRMC,084550.000,A,3114.444158,N,12130.173616,E,0.3,17.440432334,200122,,E,A*1A
$GPGGA,084551.000,3114.444157,N,12130.173205,E,1,19,0.8,87.1,M,,M,,*72
$GPRMC,084551.000,A,3114.444157,N,12130.173205,E,0.2,17.440432334,200122,,E,A*13
$GPGGA,084552.000,3114.444179,N,12130.173303,E,1,19,0.8,86.9,M,,M,,*73
$GPRMC,084552.000,A,3114.444179,N,12130.173303,E,0.2,17.440432334,200122,,E,A*1B
$GPGGA,084553.000,3114.443327,N,12130.172825,E,1,19,0.8,86.0,M,,M,,*7B
$GPRMC,084553.000,A,3114.443327,N,12130.172825,E,0.5,17.440432334,200122,,E,A*1D
$GPGGA,084554.000,3114.443366,N,12130.172268,E,1,19,0.8,84.0,M,,M,,*78
$GPRMC,084554.000,A,3114.443366,N,12130.172268,E,0.6,17.440432334,200122,,E,A*1F
$GPGGA,084555.000,3114.443313,N,12130.172158,E,1,19,0.8,83.9,M,,M,,*75
$GPRMC,084555.000,A,3114.443313,N,12130.172158,E,0.6,17.440432334,200122,,E,A*1C
$GPGGA,084556.000,3114.443259,N,12130.172233,E,1,19,0.8,83.6,M,,M,,*78
$GPRMC,084556.000,A,3114.443259,N,12130.172233,E,0.5,17.440432334,200122,,E,A*1D
$GPGGA,084557.000,3114.443188,N,12130.172380,E,1,19,0.8,83.6,M,,M,,*7F
$GPRMC,084557.000,A,3114.443188,N,12130.172380,E,0.4,17.440432334,200122,,E,A*1B
$GPGGA,084558.000,3114.443371,N,12130.172577,E,1,19,0.8,82.8,M,,M,,*75
$GPRMC,084558.000,A,3114.443371,N,12130.172577,E,0.3,17.440432334,200122,,E,A*19
$GPGGA,084559.000,3114.443957,N,12130.172688,E,1,19,0.8,81.7,M,,M,,*75
$GPRMC,084559.000,A,3114.443957,N,12130.172688,E,0.2,17.440432334,200122,,E,A*14
$GPGGA,084600.000,3114.443933,N,12130.172588,E,1,19,0.8,81.6,M,,M,,*7A
$GPRMC,084600.000,A,3114.443933,N,12130.172588,E,0.2,17.440432334,200122,,E,A*1A
$GPGGA,084601.000,3114.444024,N,12130.172426,E,1,19,0.8,81.6,M,,M,,*76
$GPRMC,084601.000,A,3114.444024,N,12130.172426,E,0.3,17.440432334,200122,,E,A*17
$GPGGA,084602.000,3114.444114,N,12130.172146,E,1,19,0.8,81.1,M,,M,,*73
$GPRMC,084602.000,A,3114.444114,N,12130.172146,E,0.3,17.440432334,200122,,E,A*15
$GPGGA,084603.000,3114.444904,N,12130.172196,E,1,19,0.8,78.0,M,,M,,*71
$GPRMC,084603.000,A,3114.444904,N,12130.172196,E,0.3,17.440432334,200122,,E,A*10
$GPGGA,084604.000,3114.444872,N,12130.172258,E,1,19,0.8,77.6,M,,M,,*7E
$GPRMC,084604.000,A,3114.444872,N,12130.172258,E,0.3,17.440432334,200122,,E,A*16
$GPGGA,084605.000,3114.445024,N,12130.172428,E,1,19,0.8,77.5,M,,M,,*77
$GPRMC,084605.000,A,3114.445024,N,12130.172428,E,0.2,17.440432334,200122,,E,A*1D
$GPGGA,084606.000,3114.444985,N,12130.172616,E,1,19,0.8,77.4,M,,M,,*79
$GPRMC,084606.000,A,3114.444985,N,12130.172616,E,0.2,17.440432334,200122,,E,A*12
$GPGGA,084607.000,3114.445013,N,12130.172732,E,1,19,0.8,77.3,M,,M,,*7F
$GPRMC,084607.000,A,3114.445013,N,12130.172732,E,0.0,17.440432334,200122,,E,A*11
$GPGGA,084608.000,3114.445011,N,12130.172717,E,1,19,0.8,77.2,M,,M,,*74
$GPRMC,084608.000,A,3114.445011,N,12130.172717,E,0.0,17.440432334,200122,,E,A*1B
$GPGGA,084609.000,3114.445011,N,12130.172713,E,1,19,0.8,77.2,M,,M,,*71
$GPRMC,084609.000,A,3114.445011,N,12130.172713,E,0.0,17.440432334,200122,,E,A*1E
$GPGGA,084610.000,3114.445027,N,12130.172704,E,1,19,0.8,77.2,M,,M,,*7A
$GPRMC,084610.000,A,3114.445027,N,12130.172704,E,0.0,17.440432334,200122,,E,A*15
$GPGGA,084611.000,3114.445069,N,12130.172685,E,1,19,0.8,77.2,M,,M,,*79
$GPRMC,084611.000,A,3114.445069,N,12130.172685,E,0.0,17.440432334,200122,,E,A*16
$GPGGA,084612.000,3114.445083,N,12130.172664,E,1,19,0.8,77.2,M,,M,,*71
$GPRMC,084612.000,A,3114.445083,N,12130.172664,E,0.0,17.440432334,200122,,E,A*1E
$GPGGA,084613.000,3114.445097,N,12130.172647,E,1,19,0.8,77.2,M,,M,,*74
$GPRMC,084613.000,A,3114.445097,N,12130.172647,E,0.1,17.440432334,200122,,E,A*1A
$GPGGA,084614.000,3114.445127,N,12130.172834,E,1,19,0.8,77.2,M,,M,,*73
$GPRMC,084614.000,A,3114.445127,N,12130.172834,E,0.1,17.440432334,200122,,E,A*1D
$GPGGA,084615.000,3114.445133,N,12130.172929,E,1,19,0.8,77.1,M,,M,,*79
$GPRMC,084615.000,A,3114.445133,N,12130.172929,E,0.1,17.440432334,200122,,E,A*14
$GPGGA,084616.000,3114.445181,N,12130.172951,E,1,19,0.8,77.1,M,,M,,*7C
$GPRMC,084616.000,A,3114.445181,N,12130.172951,E,0.1,17.440432334,200122,,E,A*11
$GPGGA,084617.000,3114.445254,N,12130.173158,E,1,19,0.8,77.0,M,,M,,*77
$GPRMC,084617.000,A,3114.445254,N,12130.173158,E,0.1,17.440432334,200122,,E,A*1B
$GPGGA,084618.000,3114.445300,N,12130.173156,E,1,19,0.8,77.0,M,,M,,*76
$GPRMC,084618.000,A,3114.445300,N,12130.173156,E,0.1,17.440432334,200122,,E,A*1A
$GPGGA,084619.000,3114.445442,N,12130.173033,E,1,19,0.8,77.2,M,,M,,*76
$GPRMC,084619.000,A,3114.445442,N,12130.173033,E,0.2,17.440432334,200122,,E,A*1B
$GPGGA,084620.000,3114.445694,N,12130.172681,E,1,19,0.8,76.7,M,,M,,*7F
$GPRMC,084620.000,A,3114.445694,N,12130.172681,E,0.2,17.440432334,200122,,E,A*16
$GPGGA,084621.000,3114.445383,N,12130.172851,E,1,19,0.8,76.9,M,,M,,*70
$GPRMC,084621.000,A,3114.445383,N,12130.172851,E,0.2,17.440432334,200122,,E,A*17
$GPGGA,084622.000,3114.445396,N,12130.172781,E,1,19,0.8,76.9,M,,M,,*75
$GPRMC,084622.000,A,3114.445396,N,12130.172781,E,0.2,17.440432334,200122,,E,A*12
$GPGGA,084623.000,3114.445328,N,12130.172801,E,1,19,0.8,76.9,M,,M,,*76
$GPRMC,084623.000,A,3114.445328,N,12130.172801,E,0.1,17.440432334,200122,,E,A*12
$GPGGA,084624.000,3114.445248,N,12130.172658,E,1,19,0.8,76.8,M,,M,,*75
$GPRMC,084624.000,A,3114.445248,N,12130.172658,E,0.1,17.440432334,200122,,E,A*10
$GPGGA,084625.000,3114.444640,N,12130.171857,E,1,19,0.8,77.0,M,,M,,*72
$GPRMC,084625.000,A,3114.444640,N,12130.171857,E,0.6,17.440432334,200122,,E,A*19
$GPGGA,084626.000,3114.447217,N,12130.174593,E,1,19,0.8,57.9,M,,M,,*7F
$GPRMC,084626.000,A,3114.447217,N,12130.174593,E,0.5,17.440432334,200122,,E,A*1C
$GPGGA,084627.000,3114.447435,N,12130.174918,E,1,19,0.8,54.1,M,,M,,*7C
$GPRMC,084627.000,A,3114.447435,N,12130.174918,E,0.4,17.440432334,200122,,E,A*15
$GPGGA,084628.000,3114.447365,N,12130.174688,E,1,19,0.8,52.9,M,,M,,*79
$GPRMC,084628.000,A,3114.447365,N,12130.174688,E,0.4,17.440432334,200122,,E,A*1E
$GPGGA,084629.000,3114.447556,N,12130.174785,E,1,19,0.8,51.8,M,,M,,*70
$GPRMC,084629.000,A,3114.447556,N,12130.174785,E,0.3,17.440432334,200122,,E,A*12
$GPGGA,084630.000,3114.447637,N,12130.174645,E,1,19,0.8,50.7,M,,M,,*7F
$GPRMC,084630.000,A,3114.447637,N,12130.174645,E,0.3,17.440432334,200122,,E,A*13
$GPGGA,084631.000,3114.447603,N,12130.174526,E,1,19,0.8,50.6,M,,M,,*7E
$GPRMC,084631.000,A,3114.447603,N,12130.174526,E,0.4,17.440432334,200122,,E,A*14
$GPGGA,084632.000,3114.447597,N,12130.174595,E,1,19,0.8,50.3,M,,M,,*7E
$GPRMC,084632.000,A,3114.447597,N,12130.174595,E,0.3,17.440432334,200122,,E,A*16
$GPGGA,084633.000,3114.447614,N,12130.174482,E,1,19,0.8,49.8,M,,M,,*73
$GPRMC,084633.000,A,3114.447614,N,12130.174482,E,0.3,17.440432334,200122,,E,A*18
$GPGGA,084634.000,3114.448341,N,12130.174172,E,1,19,0.8,47.4,M,,M,,*76
$GPRMC,084634.000,A,3114.448341,N,12130.174172,E,0.4,17.440432334,200122,,E,A*18
$GPGGA,084635.000,3114.448932,N,12130.173839,E,1,19,0.8,45.9,M,,M,,*77
$GPRMC,084635.000,A,3114.448932,N,12130.173839,E,0.5,17.440432334,200122,,E,A*17
$GPGGA,084636.000,3114.450695,N,12130.171678,E,1,19,0.8,41.3,M,,M,,*78
$GPRMC,084636.000,A,3114.450695,N,12130.171678,E,1.1,17.440432334,200122,,E,A*13
$GPGGA,084637.000,3114.451847,N,12130.170170,E,1,19,0.8,38.0,M,,M,,*7A
$GPRMC,084637.000,A,3114.451847,N,12130.170170,E,1.5,17.440432334,200122,,E,A*18
$GPGGA,084638.000,3114.452988,N,12130.168689,E,1,19,0.8,35.1,M,,M,,*70
$GPRMC,084638.000,A,3114.452988,N,12130.168689,E,1.9,17.440432334,200122,,E,A*12
$GPGGA,084639.000,3114.454286,N,12130.167216,E,1,19,0.8,32.4,M,,M,,*7D
$GPRMC,084639.000,A,3114.454286,N,12130.167216,E,2.4,17.440432334,200122,,E,A*13
$GPGGA,084640.000,3114.455123,N,12130.166255,E,1,19,0.8,30.4,M,,M,,*7A
$GPRMC,084640.000,A,3114.455123,N,12130.166255,E,2.5,17.440432334,200122,,E,A*17
$GPGGA,084641.000,3114.456369,N,12130.165374,E,1,19,0.8,28.6,M,,M,,*7E
$GPRMC,084641.000,A,3114.456369,N,12130.165374,E,2.8,17.440432334,200122,,E,A*15
$GPGGA,084642.000,3114.457202,N,12130.164202,E,1,19,0.8,27.3,M,,M,,*7B
$GPRMC,084642.000,A,3114.457202,N,12130.164202,E,3.0,-37.336029874,200122,,E,A*3B
$GPGGA,084643.000,3114.458016,N,12130.163133,E,1,19,0.8,26.2,M,,M,,*74
$GPRMC,084643.000,A,3114.458016,N,12130.163133,E,3.1,-39.644627018,200122,,E,A*31
$GPGGA,084644.000,3114.458558,N,12130.162236,E,1,19,0.8,24.8,M,,M,,*73
$GPRMC,084644.000,A,3114.458558,N,12130.162236,E,3.0,-43.081180662,200122,,E,A*3C
$GPGGA,084645.000,3114.459291,N,12130.161375,E,1,19,0.8,24.0,M,,M,,*7C
$GPRMC,084645.000,A,3114.459291,N,12130.161375,E,3.1,-43.531659647,200122,,E,A*30
$GPGGA,084646.000,3114.459799,N,12130.160768,E,1,19,0.8,23.2,M,,M,,*7E
$GPRMC,084646.000,A,3114.459799,N,12130.160768,E,3.0,-44.286216094,200122,,E,A*3D
$GPGGA,084647.000,3114.459580,N,12130.159870,E,1,19,0.8,21.8,M,,M,,*71
$GPRMC,084647.000,A,3114.459580,N,12130.159870,E,2.7,17.440432334,200122,,E,A*12
$GPGGA,084648.000,3114.460126,N,12130.159758,E,1,19,0.8,20.8,M,,M,,*78
$GPRMC,084648.000,A,3114.460126,N,12130.159758,E,2.6,17.440432334,200122,,E,A*1B
$GPGGA,084649.000,3114.461491,N,12130.160137,E,1,19,0.8,20.2,M,,M,,*7E
$GPRMC,084649.000,A,3114.461491,N,12130.160137,E,2.8,17.440432334,200122,,E,A*19
$GPGGA,084650.000,3114.462968,N,12130.160807,E,1,19,0.8,19.9,M,,M,,*75
$GPRMC,084650.000,A,3114.462968,N,12130.160807,E,3.0,-22.109130829,200122,,E,A*39
$GPGGA,084651.000,3114.464395,N,12130.161937,E,1,19,0.8,19.9,M,,M,,*79
$GPRMC,084651.000,A,3114.464395,N,12130.161937,E,3.3,-11.279970007000001,200122,,E,A*3B
$GPGGA,084652.000,3114.465428,N,12130.161976,E,1,19,0.8,20.0,M,,M,,*7C
$GPRMC,084652.000,A,3114.465428,N,12130.161976,E,3.4,-9.734479126,200122,,E,A*08
$GPGGA,084653.000,3114.465679,N,12130.161684,E,1,19,0.8,19.7,M,,M,,*74
$GPRMC,084653.000,A,3114.465679,N,12130.161684,E,2.9,17.440432334,200122,,E,A*1D
$GPGGA,084654.000,3114.466602,N,12130.161394,E,1,19,0.8,19.7,M,,M,,*78
$GPRMC,084654.000,A,3114.466602,N,12130.161394,E,3.0,-14.128962825,200122,,E,A*3F
$GPGGA,084655.000,3114.466647,N,12130.160570,E,1,19,0.8,19.4,M,,M,,*76
$GPRMC,084655.000,A,3114.466647,N,12130.160570,E,2.6,17.440432334,200122,,E,A*13
$GPGGA,084656.000,3114.468947,N,12130.156899,E,1,19,0.8,19.1,M,,M,,*7E
$GPRMC,084656.000,A,3114.468947,N,12130.156899,E,4.1,-34.223855149,200122,,E,A*35
$GPGGA,084657.000,3114.470152,N,12130.154966,E,1,19,0.8,18.9,M,,M,,*70
$GPRMC,084657.000,A,3114.470152,N,12130.154966,E,4.6,-38.910801048,200122,,E,A*33
$GPGGA,084658.000,3114.470169,N,12130.154050,E,1,19,0.8,18.6,M,,M,,*74
$GPRMC,084658.000,A,3114.470169,N,12130.154050,E,3.8,-44.40569441,200122,,E,A*08
$GPGGA,084659.000,3114.469876,N,12130.154390,E,1,19,0.8,18.4,M,,M,,*77
$GPRMC,084659.000,A,3114.469876,N,12130.154390,E,2.4,17.440432334,200122,,E,A*11
$GPGGA,084700.000,3114.470575,N,12130.155239,E,1,19,0.8,18.4,M,,M,,*7F
$GPRMC,084700.000,A,3114.470575,N,12130.155239,E,2.0,17.440432334,200122,,E,A*1D
$GPGGA,084701.000,3114.470580,N,12130.156431,E,1,19,0.8,18.4,M,,M,,*79
$GPRMC,084701.000,A,3114.470580,N,12130.156431,E,1.2,17.440432334,200122,,E,A*1A
$GPGGA,084702.000,3114.470388,N,12130.156799,E,1,19,0.8,18.3,M,,M,,*72
$GPRMC,084702.000,A,3114.470388,N,12130.156799,E,0.6,320.5837024,200122,,E,A*2A
$GPGGA,084703.000,3114.470816,N,12130.156756,E,1,19,0.8,18.1,M,,M,,*7E
$GPRMC,084703.000,A,3114.470816,N,12130.156756,E,0.9,328.953416306,200122,,E,A*25
$GPGGA,084704.000,3114.471569,N,12130.157281,E,1,19,0.8,18.5,M,,M,,*77
$GPRMC,084704.000,A,3114.471569,N,12130.157281,E,1.2,324.396314039,200122,,E,A*27
$GPGGA,084705.000,3114.472274,N,12130.157430,E,1,19,0.8,18.8,M,,M,,*7F
$GPRMC,084705.000,A,3114.472274,N,12130.157430,E,1.5,320.699132598,200122,,E,A*23
$GPGGA,084706.000,3114.473253,N,12130.158126,E,1,19,0.8,18.8,M,,M,,*75
$GPRMC,084706.000,A,3114.473253,N,12130.158126,E,1.9,320.47870873,200122,,E,A*17
$GPGGA,084707.000,3114.474641,N,12130.158287,E,1,19,0.8,18.8,M,,M,,*7C
$GPRMC,084707.000,A,3114.474641,N,12130.158287,E,2.4,325.27109735700003,200122,,E,A*1D
$GPGGA,084708.000,3114.476343,N,12130.158637,E,1,19,0.8,18.9,M,,M,,*78
$GPRMC,084708.000,A,3114.476343,N,12130.158637,E,3.1,8.606758928,200122,,E,A*21
$GPGGA,084709.000,3114.478019,N,12130.158602,E,1,19,0.8,19.1,M,,M,,*74
$GPRMC,084709.000,A,3114.478019,N,12130.158602,E,3.7,5.295899516,200122,,E,A*22
$GPGGA,084710.000,3114.479150,N,12130.157380,E,1,19,0.8,19.7,M,,M,,*77
$GPRMC,084710.000,A,3114.479150,N,12130.157380,E,3.7,-5.035715605,200122,,E,A*08
$GPGGA,084711.000,3114.481082,N,12130.156968,E,1,19,0.8,20.4,M,,M,,*7B
$GPRMC,084711.000,A,3114.481082,N,12130.156968,E,4.4,-7.159625792999999,200122,,E,A*0D
$GPGGA,084712.000,3114.482579,N,12130.156670,E,1,19,0.8,21.2,M,,M,,*7B
$GPRMC,084712.000,A,3114.482579,N,12130.156670,E,4.6,-8.000850521,200122,,E,A*0C
$GPGGA,084713.000,3114.484083,N,12130.156337,E,1,19,0.8,21.7,M,,M,,*7F
$GPRMC,084713.000,A,3114.484083,N,12130.156337,E,4.8,-8.750297062000001,200122,,E,A*03
$GPGGA,084714.000,3114.485644,N,12130.156147,E,1,19,0.8,22.2,M,,M,,*77
$GPRMC,084714.000,A,3114.485644,N,12130.156147,E,4.9,-8.47222594,200122,,E,A*3E
$GPGGA,084715.000,3114.487490,N,12130.156044,E,1,19,0.8,22.7,M,,M,,*78
$GPRMC,084715.000,A,3114.487490,N,12130.156044,E,5.2,-7.464468067,200122,,E,A*05
$GPGGA,084716.000,3114.489050,N,12130.155990,E,1,19,0.8,23.1,M,,M,,*79
$GPRMC,084716.000,A,3114.489050,N,12130.155990,E,5.3,-6.778214227,200122,,E,A*06
$GPGGA,084717.000,3114.491176,N,12130.156190,E,1,19,0.8,23.4,M,,M,,*7A
$GPRMC,084717.000,A,3114.491176,N,12130.156190,E,5.6,-5.1182949110000004,200122,,E,A*34
$GPGGA,084718.000,3114.492923,N,12130.155984,E,1,19,0.8,23.4,M,,M,,*70
$GPRMC,084718.000,A,3114.492923,N,12130.155984,E,5.7,-5.55920957,200122,,E,A*35
$GPGGA,084719.000,3114.494388,N,12130.155736,E,1,19,0.8,23.4,M,,M,,*7B
$GPRMC,084719.000,A,3114.494388,N,12130.155736,E,5.6,-5.895380799,200122,,E,A*07
$GPGGA,084720.000,3114.495372,N,12130.155327,E,1,19,0.8,23.5,M,,M,,*70
$GPRMC,084720.000,A,3114.495372,N,12130.155327,E,5.4,-6.9459255429999995,200122,,E,A*34
$GPGGA,084721.000,3114.496043,N,12130.154789,E,1,19,0.8,23.6,M,,M,,*71
$GPRMC,084721.000,A,3114.496043,N,12130.154789,E,5.0,-8.551459032999999,200122,,E,A*04
$GPGGA,084722.000,3114.495553,N,12130.153508,E,1,19,0.8,23.5,M,,M,,*7A
$GPRMC,084722.000,A,3114.495553,N,12130.153508,E,4.3,-13.802545953,200122,,E,A*3D
$GPGGA,084723.000,3114.494899,N,12130.152029,E,1,19,0.8,23.3,M,,M,,*70
$GPRMC,084723.000,A,3114.494899,N,12130.152029,E,3.7,-21.461196775,200122,,E,A*3A
$GPGGA,084724.000,3114.495837,N,12130.152025,E,1,19,0.8,23.7,M,,M,,*7A
$GPRMC,084724.000,A,3114.495837,N,12130.152025,E,3.6,-19.513975686,200122,,E,A*32
$GPGGA,084725.000,3114.496474,N,12130.151737,E,1,19,0.8,24.2,M,,M,,*76
$GPRMC,084725.000,A,3114.496474,N,12130.151737,E,3.3,-20.180002629,200122,,E,A*31
$GPGGA,084726.000,3114.496810,N,12130.151044,E,1,19,0.8,24.8,M,,M,,*72
$GPRMC,084726.000,A,3114.496810,N,12130.151044,E,3.1,-24.278211255,200122,,E,A*32
$GPGGA,084727.000,3114.497030,N,12130.151044,E,1,19,0.8,25.7,M,,M,,*76
$GPRMC,084727.000,A,3114.497030,N,12130.151044,E,2.7,308.671060046,200122,,E,A*26
$GPGGA,084728.000,3114.497498,N,12130.150767,E,1,19,0.8,26.2,M,,M,,*7E
$GPRMC,084728.000,A,3114.497498,N,12130.150767,E,2.5,290.339269232,200122,,E,A*29
$GPGGA,084729.000,3114.497757,N,12130.150497,E,1,19,0.8,26.8,M,,M,,*79
$GPRMC,084729.000,A,3114.497757,N,12130.150497,E,2.3,290.339269232,200122,,E,A*22
$GPGGA,084730.000,3114.497581,N,12130.150778,E,1,19,0.8,27.3,M,,M,,*70
$GPRMC,084730.000,A,3114.497581,N,12130.150778,E,1.8,290.339269232,200122,,E,A*29
$GPGGA,084731.000,3114.497556,N,12130.150934,E,1,19,0.8,28.0,M,,M,,*71
$GPRMC,084731.000,A,3114.497556,N,12130.150934,E,1.5,290.339269232,200122,,E,A*29
$GPGGA,084732.000,3114.497675,N,12130.151800,E,1,19,0.8,29.3,M,,M,,*75
$GPRMC,084732.000,A,3114.497675,N,12130.151800,E,1.1,290.339269232,200122,,E,A*2B
$GPGGA,084733.000,3114.497525,N,12130.152515,E,1,19,0.8,30.1,M,,M,,*72
$GPRMC,084733.000,A,3114.497525,N,12130.152515,E,0.8,290.339269232,200122,,E,A*2E
$GPGGA,084734.000,3114.498403,N,12130.152977,E,1,19,0.8,30.8,M,,M,,*7E
$GPRMC,084734.000,A,3114.498403,N,12130.152977,E,1.2,290.339269232,200122,,E,A*20
$GPGGA,084735.000,3114.499358,N,12130.154133,E,1,19,0.8,31.6,M,,M,,*76
$GPRMC,084735.000,A,3114.499358,N,12130.154133,E,1.6,290.339269232,200122,,E,A*23
$GPGGA,084736.000,3114.499238,N,12130.153547,E,1,19,0.8,31.9,M,,M,,*7D
$GPRMC,084736.000,A,3114.499238,N,12130.153547,E,1.3,290.339269232,200122,,E,A*22
$GPGGA,084737.000,3114.498990,N,12130.151718,E,1,19,0.8,32.2,M,,M,,*76
$GPRMC,084737.000,A,3114.498990,N,12130.151718,E,1.3,290.339269232,200122,,E,A*21
$GPGGA,084738.000,3114.499524,N,12130.150815,E,1,19,0.8,32.9,M,,M,,*73
$GPRMC,084738.000,A,3114.499524,N,12130.150815,E,1.7,290.339269232,200122,,E,A*2B
$GPGGA,084739.000,3114.499198,N,12130.148635,E,1,19,0.8,33.4,M,,M,,*78
$GPRMC,084739.000,A,3114.499198,N,12130.148635,E,2.6,290.339269232,200122,,E,A*2E
$GPGGA,084740.000,3114.499119,N,12130.146837,E,1,19,0.8,33.6,M,,M,,*7F
$GPRMC,084740.000,A,3114.499119,N,12130.146837,E,3.3,-75.79580335,200122,,E,A*0A
$GPGGA,084741.000,3114.499223,N,12130.145069,E,1,19,0.8,33.4,M,,M,,*76
$GPRMC,084741.000,A,3114.499223,N,12130.145069,E,3.9,-78.763848799,200122,,E,A*31
$GPGGA,084742.000,3114.499218,N,12130.143407,E,1,19,0.8,33.4,M,,M,,*77
$GPRMC,084742.000,A,3114.499218,N,12130.143407,E,4.2,-80.937553899,200122,,E,A*3C
$GPGGA,084743.000,3114.498864,N,12130.141203,E,1,19,0.8,33.8,M,,M,,*7A
$GPRMC,084743.000,A,3114.498864,N,12130.141203,E,4.9,-85.132881188,200122,,E,A*35
$GPGGA,084744.000,3114.498815,N,12130.140092,E,1,19,0.8,33.6,M,,M,,*7E
$GPRMC,084744.000,A,3114.498815,N,12130.140092,E,4.5,-85.720787988,200122,,E,A*37
$GPGGA,084745.000,3114.499091,N,12130.139733,E,1,19,0.8,33.2,M,,M,,*7C
$GPRMC,084745.000,A,3114.499091,N,12130.139733,E,3.6,-82.972103824,200122,,E,A*36
$GPGGA,084746.000,3114.499441,N,12130.139487,E,1,19,0.8,32.7,M,,M,,*7E
$GPRMC,084746.000,A,3114.499441,N,12130.139487,E,2.9,-78.81402233,200122,,E,A*06
$GPGGA,084747.000,3114.499974,N,12130.139654,E,1,19,0.8,32.5,M,,M,,*7A
$GPRMC,084747.000,A,3114.499974,N,12130.139654,E,2.1,326.735817781,200122,,E,A*21
$GPGGA,084748.000,3114.500352,N,12130.140023,E,1,19,0.8,32.3,M,,M,,*74
$GPRMC,084748.000,A,3114.500352,N,12130.140023,E,1.3,320.521329111,200122,,E,A*20
$GPGGA,084749.000,3114.501123,N,12130.140778,E,1,19,0.8,32.4,M,,M,,*7E
$GPRMC,084749.000,A,3114.501123,N,12130.140778,E,1.2,320.521329111,200122,,E,A*2C
$GPGGA,084750.000,3114.501775,N,12130.141879,E,1,19,0.8,32.5,M,,M,,*7D
$GPRMC,084750.000,A,3114.501775,N,12130.141879,E,1.4,320.521329111,200122,,E,A*28
$GPGGA,084751.000,3114.502448,N,12130.143100,E,1,19,0.8,32.5,M,,M,,*77
$GPRMC,084751.000,A,3114.502448,N,12130.143100,E,1.8,320.521329111,200122,,E,A*2E
$GPGGA,084752.000,3114.502967,N,12130.142594,E,1,19,0.8,32.3,M,,M,,*7A
$GPRMC,084752.000,A,3114.502967,N,12130.142594,E,1.5,320.521329111,200122,,E,A*28
$GPGGA,084753.000,3114.503718,N,12130.141605,E,1,19,0.8,32.0,M,,M,,*77
$GPRMC,084753.000,A,3114.503718,N,12130.141605,E,1.8,320.521329111,200122,,E,A*2B
$GPGGA,084754.000,3114.504410,N,12130.139704,E,1,19,0.8,31.5,M,,M,,*75
$GPRMC,084754.000,A,3114.504410,N,12130.139704,E,2.7,320.521329111,200122,,E,A*23
$GPGGA,084755.000,3114.505214,N,12130.138773,E,1,19,0.8,31.1,M,,M,,*72
$GPRMC,084755.000,A,3114.505214,N,12130.138773,E,2.9,320.521329111,200122,,E,A*2E
$GPGGA,084756.000,3114.506223,N,12130.138738,E,1,19,0.8,30.7,M,,M,,*7E
$GPRMC,084756.000,A,3114.506223,N,12130.138738,E,2.7,320.521329111,200122,,E,A*2B
$GPGGA,084757.000,3114.507649,N,12130.138392,E,1,19,0.8,30.5,M,,M,,*70
$GPRMC,084757.000,A,3114.507649,N,12130.138392,E,3.0,-35.417886689,200122,,E,A*37
$GPGGA,084758.000,3114.509245,N,12130.137605,E,1,19,0.8,30.6,M,,M,,*7E
$GPRMC,084758.000,A,3114.509245,N,12130.137605,E,3.5,-37.356562364,200122,,E,A*3E
$GPGGA,084759.000,3114.509926,N,12130.137998,E,1,19,0.8,30.5,M,,M,,*79
$GPRMC,084759.000,A,3114.509926,N,12130.137998,E,3.1,-29.488507182,200122,,E,A*3C
$GPGGA,084800.000,3114.510630,N,12130.137568,E,1,19,0.8,30.4,M,,M,,*78
$GPRMC,084800.000,A,3114.510630,N,12130.137568,E,3.1,-29.880525653000003,200122,,E,A*30
$GPGGA,084801.000,3114.511523,N,12130.135958,E,1,19,0.8,31.0,M,,M,,*71
$GPRMC,084801.000,A,3114.511523,N,12130.135958,E,3.6,-37.120700977,200122,,E,A*38
$GPGGA,084802.000,3114.512082,N,12130.134326,E,1,19,0.8,31.1,M,,M,,*7C
$GPRMC,084802.000,A,3114.512082,N,12130.134326,E,3.8,-42.839423468,200122,,E,A*38
$GPGGA,084803.000,3114.512723,N,12130.132406,E,1,19,0.8,31.1,M,,M,,*72
$GPRMC,084803.000,A,3114.512723,N,12130.132406,E,4.2,-48.824328328,200122,,E,A*32
$GPGGA,084804.000,3114.513527,N,12130.131573,E,1,19,0.8,31.1,M,,M,,*72
$GPRMC,084804.000,A,3114.513527,N,12130.131573,E,4.0,-46.26032906100001,200122,,E,A*0A
$GPGGA,084805.000,3114.514881,N,12130.129249,E,1,19,0.8,31.4,M,,M,,*77
$GPRMC,084805.000,A,3114.514881,N,12130.129249,E,4.5,-45.426028691000006,200122,,E,A*34
$GPGGA,084806.000,3114.518576,N,12130.125229,E,1,19,0.8,31.7,M,,M,,*74
$GPRMC,084806.000,A,3114.518576,N,12130.125229,E,6.6,-45.88946201899999,200122,,E,A*0E
$GPGGA,084807.000,3114.524311,N,12130.122983,E,1,19,0.8,35.1,M,,M,,*73
$GPRMC,084807.000,A,3114.524311,N,12130.122983,E,9.3,-42.055827187,200122,,E,A*3C
$GPGGA,084808.000,3114.526816,N,12130.119007,E,1,19,0.8,36.5,M,,M,,*78
$GPRMC,084808.000,A,3114.526816,N,12130.119007,E,9.7,-41.850304672,200122,,E,A*3D
$GPGGA,084809.000,3114.530156,N,12130.115602,E,1,19,0.8,36.8,M,,M,,*71
$GPRMC,084809.000,A,3114.530156,N,12130.115602,E,11.0,-39.357901939,200122,,E,A*0B
$GPGGA,084810.000,3114.532320,N,12130.111272,E,1,19,0.8,38.2,M,,M,,*7B
$GPRMC,084810.000,A,3114.532320,N,12130.111272,E,12.0,-44.221951901000004,200122,,E,A*06
$GPGGA,084811.000,3114.537358,N,12130.106217,E,1,19,0.8,39.7,M,,M,,*71
$GPRMC,084811.000,A,3114.537358,N,12130.106217,E,15.8,-41.881383079,200122,,E,A*05
$GPGGA,084812.000,3114.557222,N,12130.098375,E,1,19,0.8,44.9,M,,M,,*7F
$GPRMC,084812.000,A,3114.557222,N,12130.098375,E,21.5,-31.976352250999998,200122,,E,A*0F
$GPGGA,084813.000,3114.564095,N,12130.094211,E,1,19,0.8,47.3,M,,M,,*76
$GPRMC,084813.000,A,3114.564095,N,12130.094211,E,24.0,-32.421758552,200122,,E,A*09
$GPGGA,084814.000,3114.566739,N,12130.090767,E,1,19,0.8,48.3,M,,M,,*7D
$GPRMC,084814.000,A,3114.566739,N,12130.090767,E,17.8,-41.350919563000005,200122,,E,A*0C
$GPGGA,084815.000,3114.565978,N,12130.086793,E,1,19,0.8,49.7,M,,M,,*7D
$GPRMC,084815.000,A,3114.565978,N,12130.086793,E,12.0,-58.971770833,200122,,E,A*09
$GPGGA,084816.000,3114.564605,N,12130.082824,E,1,19,0.8,50.3,M,,M,,*71
$GPRMC,084816.000,A,3114.564605,N,12130.082824,E,10.9,-103.431151295,200122,,E,A*37
$GPGGA,084817.000,3114.561741,N,12130.076132,E,1,19,0.8,51.4,M,,M,,*77
$GPRMC,084817.000,A,3114.561741,N,12130.076132,E,14.2,-110.437615476,200122,,E,A*30
$GPGGA,084818.000,3114.555943,N,12130.067013,E,1,19,0.8,49.5,M,,M,,*79
$GPRMC,084818.000,A,3114.555943,N,12130.067013,E,10.0,-113.713391876,200122,,E,A*33
$GPGGA,084819.000,3114.553240,N,12130.062730,E,1,19,0.8,46.7,M,,M,,*78
$GPRMC,084819.000,A,3114.553240,N,12130.062730,E,3.6,-149.49198703,200122,,E,A*3A
$GPGGA,084820.000,3114.551717,N,12130.061094,E,1,19,0.8,47.0,M,,M,,*7B
$GPRMC,084820.000,A,3114.551717,N,12130.061094,E,3.8,-179.29376017799999,200122,,E,A*3A
$GPGGA,084821.000,3114.548818,N,12130.057573,E,1,19,0.8,48.3,M,,M,,*77
$GPRMC,084821.000,A,3114.548818,N,12130.057573,E,6.3,-149.84547813700001,200122,,E,A*30
$GPGGA,084822.000,3114.545294,N,12130.050891,E,1,19,0.8,50.5,M,,M,,*7E
$GPRMC,084822.000,A,3114.545294,N,12130.050891,E,14.1,-115.21852337600001,200122,,E,A*04
$GPGGA,084823.000,3114.546441,N,12130.052108,E,1,19,0.8,49.7,M,,M,,*73
$GPRMC,084823.000,A,3114.546441,N,12130.052108,E,2.9,312.270078007,200122,,E,A*25
$GPGGA,084824.000,3114.546380,N,12130.048838,E,1,19,0.8,50.2,M,,M,,*72
$GPRMC,084824.000,A,3114.546380,N,12130.048838,E,1.3,312.270078007,200122,,E,A*20
$GPGGA,084825.000,3114.545603,N,12130.045639,E,1,19,0.8,52.7,M,,M,,*7B
$GPRMC,084825.000,A,3114.545603,N,12130.045639,E,4.0,-104.722163709,200122,,E,A*00
$GPGGA,084826.000,3114.545080,N,12130.046003,E,1,19,0.8,54.4,M,,M,,*7C
$GPRMC,084826.000,A,3114.545080,N,12130.046003,E,1.1,312.270078007,200122,,E,A*2E
$GPGGA,084827.000,3114.549028,N,12130.054226,E,1,19,0.8,55.5,M,,M,,*75
$GPRMC,084827.000,A,3114.549028,N,12130.054226,E,12.0,68.307904994,200122,,E,A*2A
$GPGGA,084828.000,3114.550917,N,12130.053091,E,1,19,0.8,55.2,M,,M,,*79
$GPRMC,084828.000,A,3114.550917,N,12130.053091,E,9.5,23.985329341999996,200122,,E,A*19
$GPGGA,084829.000,3114.554379,N,12130.059392,E,1,19,0.8,55.6,M,,M,,*70
$GPRMC,084829.000,A,3114.554379,N,12130.059392,E,1.6,312.270078007,200122,,E,A*26
$GPGGA,084830.000,3114.552244,N,12130.057832,E,1,19,0.8,53.7,M,,M,,*79
$GPRMC,084830.000,A,3114.552244,N,12130.057832,E,0.3,312.270078007,200122,,E,A*2C
$GPGGA,084831.000,3114.551671,N,12130.055934,E,1,19,0.8,53.4,M,,M,,*7F
$GPRMC,084831.000,A,3114.551671,N,12130.055934,E,1.2,312.270078007,200122,,E,A*29
$GPGGA,084832.000,3114.550921,N,12130.054319,E,1,19,0.8,51.1,M,,M,,*74
$GPRMC,084832.000,A,3114.550921,N,12130.054319,E,2.9,312.270078007,200122,,E,A*2D
$GPGGA,084833.000,3114.550695,N,12130.052795,E,1,19,0.8,49.2,M,,M,,*79
$GPRMC,084833.000,A,3114.550695,N,12130.052795,E,3.7,-103.034930605,200122,,E,A*09
$GPGGA,084834.000,3114.550707,N,12130.049289,E,1,19,0.8,47.3,M,,M,,*79
$GPRMC,084834.000,A,3114.550707,N,12130.049289,E,6.3,-97.54247779100001,200122,,E,A*0C
$GPGGA,084835.000,3114.551032,N,12130.052273,E,1,19,0.8,43.5,M,,M,,*75
$GPRMC,084835.000,A,3114.551032,N,12130.052273,E,0.6,312.270078007,200122,,E,A*26
$GPGGA,084836.000,3114.552088,N,12130.059799,E,1,19,0.8,41.6,M,,M,,*7F
$GPRMC,084836.000,A,3114.552088,N,12130.059799,E,7.5,85.216893767,200122,,E,A*18
$GPGGA,084837.000,3114.551816,N,12130.061578,E,1,19,0.8,41.9,M,,M,,*7B
$GPRMC,084837.000,A,3114.551816,N,12130.061578,E,3.2,82.06170226,200122,,E,A*20
$GPGGA,084838.000,3114.554293,N,12130.069777,E,1,19,0.8,42.5,M,,M,,*7C
$GPRMC,084838.000,A,3114.554293,N,12130.069777,E,11.9,73.255184497,200122,,E,A*2D
$GPGGA,084839.000,3114.556306,N,12130.081346,E,1,19,0.8,41.8,M,,M,,*7C
$GPRMC,084839.000,A,3114.556306,N,12130.081346,E,10.4,89.46584821299999,200122,,E,A*14
$GPGGA,084840.000,3114.558284,N,12130.092765,E,1,19,0.8,43.5,M,,M,,*7F
$GPRMC,084840.000,A,3114.558284,N,12130.092765,E,20.9,77.08039248,200122,,E,A*10
$GPGGA,084841.000,3114.558366,N,12130.094450,E,1,19,0.8,44.2,M,,M,,*70
$GPRMC,084841.000,A,3114.558366,N,12130.094450,E,7.1,84.231741263,200122,,E,A*17
$GPGGA,084842.000,3114.556940,N,12130.092290,E,1,19,0.8,45.4,M,,M,,*78
$GPRMC,084842.000,A,3114.556940,N,12130.092290,E,2.4,312.270078007,200122,,E,A*2C
$GPGGA,084843.000,3114.552466,N,12130.076822,E,1,19,0.8,46.8,M,,M,,*72
$GPRMC,084843.000,A,3114.552466,N,12130.076822,E,17.9,-107.60658721700001,200122,,E,A*09
$GPGGA,084844.000,3114.549785,N,12130.072526,E,1,19,0.8,47.9,M,,M,,*7C
$GPRMC,084844.000,A,3114.549785,N,12130.072526,E,9.9,-118.236029213,200122,,E,A*05
$GPGGA,084845.000,3114.548899,N,12130.073647,E,1,19,0.8,49.3,M,,M,,*7F
$GPRMC,084845.000,A,3114.548899,N,12130.073647,E,3.1,-146.969237641,200122,,E,A*04
$GPGGA,084846.000,3114.553063,N,12130.080757,E,1,19,0.8,51.4,M,,M,,*79
$GPRMC,084846.000,A,3114.553063,N,12130.080757,E,14.8,72.9076695,200122,,E,A*29
$GPGGA,084847.000,3114.552513,N,12130.079178,E,1,19,0.8,53.0,M,,M,,*70
$GPRMC,084847.000,A,3114.552513,N,12130.079178,E,4.0,84.607897349,200122,,E,A*1D
$GPGGA,084848.000,3114.553480,N,12130.084550,E,1,19,0.8,55.1,M,,M,,*7E
$GPRMC,084848.000,A,3114.553480,N,12130.084550,E,12.3,77.786779712,200122,,E,A*21
$GPGGA,084849.000,3114.551593,N,12130.079411,E,1,19,0.8,57.1,M,,M,,*7A
$GPRMC,084849.000,A,3114.551593,N,12130.079411,E,1.7,315.511740466,200122,,E,A*20
$GPGGA,084850.000,3114.549479,N,12130.079124,E,1,19,0.8,58.9,M,,M,,*7A
$GPRMC,084850.000,A,3114.549479,N,12130.079124,E,1.3,315.511740466,200122,,E,A*23
$GPGGA,084851.000,3114.547421,N,12130.081561,E,1,19,0.8,60.5,M,,M,,*7D
$GPRMC,084851.000,A,3114.547421,N,12130.081561,E,4.2,138.74244816700002,200122,,E,A*13
$GPGGA,084852.000,3114.545477,N,12130.084823,E,1,19,0.8,61.6,M,,M,,*73
$GPRMC,084852.000,A,3114.545477,N,12130.084823,E,7.1,130.204376769,200122,,E,A*20
$GPGGA,084853.000,3114.545406,N,12130.087604,E,1,19,0.8,63.1,M,,M,,*79
$GPRMC,084853.000,A,3114.545406,N,12130.087604,E,3.8,108.373090481,200122,,E,A*26
$GPGGA,084854.000,3114.545648,N,12130.093007,E,1,19,0.8,64.6,M,,M,,*76
$GPRMC,084854.000,A,3114.545648,N,12130.093007,E,8.8,79.034593449,200122,,E,A*17
$GPGGA,084855.000,3114.544506,N,12130.096665,E,1,19,0.8,65.6,M,,M,,*79
$GPRMC,084855.000,A,3114.544506,N,12130.096665,E,8.3,87.296795365,200122,,E,A*14
$GPGGA,084856.000,3114.544489,N,12130.100119,E,1,19,0.8,66.2,M,,M,,*79
$GPRMC,084856.000,A,3114.544489,N,12130.100119,E,9.3,87.48806998200001,200122,,E,A*2D
$GPGGA,084857.000,3114.545735,N,12130.100108,E,1,19,0.8,67.2,M,,M,,*7C
$GPRMC,084857.000,A,3114.545735,N,12130.100108,E,5.9,67.54720745899999,200122,,E,A*2B
$GPGGA,084858.000,3114.545942,N,12130.102841,E,1,19,0.8,67.2,M,,M,,*7B
$GPRMC,084858.000,A,3114.545942,N,12130.102841,E,6.2,72.594754013,200122,,E,A*1F
$GPGGA,084859.000,3114.545382,N,12130.105612,E,1,19,0.8,67.0,M,,M,,*71
$GPRMC,084859.000,A,3114.545382,N,12130.105612,E,6.4,82.196707225,200122,,E,A*19
$GPGGA,084900.000,3114.546015,N,12130.107246,E,1,19,0.8,66.3,M,,M,,*77
$GPRMC,084900.000,A,3114.546015,N,12130.107246,E,5.9,77.216563005,200122,,E,A*12
$GPGGA,084901.000,3114.545070,N,12130.108134,E,1,19,0.8,65.7,M,,M,,*78
$GPRMC,084901.000,A,3114.545070,N,12130.108134,E,4.5,89.63869664100001,200122,,E,A*20
$GPGGA,084902.000,3114.544488,N,12130.108842,E,1,19,0.8,64.4,M,,M,,*73
$GPRMC,084902.000,A,3114.544488,N,12130.108842,E,3.5,98.291897124,200122,,E,A*13
$GPGGA,084903.000,3114.546284,N,12130.106148,E,1,19,0.8,63.7,M,,M,,*73
$GPRMC,084903.000,A,3114.546284,N,12130.106148,E,0.7,312.472634099,200122,,E,A*2C
$GPGGA,084904.000,3114.547000,N,12130.103311,E,1,19,0.8,63.0,M,,M,,*77
$GPRMC,084904.000,A,3114.547000,N,12130.103311,E,3.7,-86.45282641799999,200122,,E,A*0B
$GPGGA,084905.000,3114.546079,N,12130.099548,E,1,19,0.8,62.6,M,,M,,*76
$GPRMC,084905.000,A,3114.546079,N,12130.099548,E,8.8,-95.421467049,200122,,E,A*30
$GPGGA,084906.000,3114.545809,N,12130.099958,E,1,19,0.8,61.3,M,,M,,*72
$GPRMC,084906.000,A,3114.545809,N,12130.099958,E,1.7,299.368615495,200122,,E,A*2F
$GPGGA,084907.000,3114.546494,N,12130.098717,E,1,19,0.8,60.1,M,,M,,*7F
$GPRMC,084907.000,A,3114.546494,N,12130.098717,E,0.5,293.164454072,200122,,E,A*2C
$GPGGA,084908.000,3114.545292,N,12130.095177,E,1,19,0.8,59.7,M,,M,,*72
$GPRMC,084908.000,A,3114.545292,N,12130.095177,E,5.3,-110.41484663700001,200122,,E,A*30
$GPGGA,084909.000,3114.543814,N,12130.090936,E,1,19,0.8,59.4,M,,M,,*7A
$GPRMC,084909.000,A,3114.543814,N,12130.090936,E,10.8,-107.013573164,200122,,E,A*3A
$GPGGA,084910.000,3114.543480,N,12130.085052,E,1,19,0.8,59.5,M,,M,,*7D
$GPRMC,084910.000,A,3114.543480,N,12130.085052,E,16.0,-97.534176817,200122,,E,A*06
$GPGGA,084911.000,3114.542779,N,12130.081340,E,1,19,0.8,59.6,M,,M,,*7F
$GPRMC,084911.000,A,3114.542779,N,12130.081340,E,11.7,-98.58359193,200122,,E,A*3D
$GPGGA,084912.000,3114.542300,N,12130.077477,E,1,19,0.8,59.7,M,,M,,*7D
$GPRMC,084912.000,A,3114.542300,N,12130.077477,E,6.7,-104.861776658,200122,,E,A*07
$GPGGA,084913.000,3114.541973,N,12130.072488,E,1,19,0.8,60.1,M,,M,,*78
$GPRMC,084913.000,A,3114.541973,N,12130.072488,E,6.8,-104.174506305,200122,,E,A*04
$GPGGA,084914.000,3114.541427,N,12130.070561,E,1,19,0.8,60.3,M,,M,,*75
$GPRMC,084914.000,A,3114.541427,N,12130.070561,E,5.2,-109.487564226,200122,,E,A*02
$GPGGA,084915.000,3114.541119,N,12130.068447,E,1,19,0.8,60.3,M,,M,,*70
$GPRMC,084915.000,A,3114.541119,N,12130.068447,E,5.3,-107.42252498,200122,,E,A*34
$GPGGA,084916.000,3114.540625,N,12130.067840,E,1,19,0.8,60.3,M,,M,,*7E
$GPRMC,084916.000,A,3114.540625,N,12130.067840,E,3.8,-115.35427355200001,200122,,E,A*35
$GPGGA,084917.000,3114.540127,N,12130.067635,E,1,19,0.8,60.3,M,,M,,*76
$GPRMC,084917.000,A,3114.540127,N,12130.067635,E,2.5,196.866216896,200122,,E,A*2A
$GPGGA,084918.000,3114.539862,N,12130.066830,E,1,19,0.8,60.3,M,,M,,*75
$GPRMC,084918.000,A,3114.539862,N,12130.066830,E,2.7,226.931890351,200122,,E,A*24
$GPGGA,084919.000,3114.540161,N,12130.066263,E,1,19,0.8,58.9,M,,M,,*7D
$GPRMC,084919.000,A,3114.540161,N,12130.066263,E,2.3,250.112432513,200122,,E,A*25
$GPGGA,084920.000,3114.539801,N,12130.065670,E,1,19,0.8,58.9,M,,M,,*73
$GPRMC,084920.000,A,3114.539801,N,12130.065670,E,2.3,218.840206128,200122,,E,A*24
$GPGGA,084921.000,3114.539420,N,12130.065061,E,1,19,0.8,58.9,M,,M,,*7B
$GPRMC,084921.000,A,3114.539420,N,12130.065061,E,2.3,234.036953737,200122,,E,A*28
$GPGGA,084922.000,3114.524926,N,12130.063376,E,1,19,0.8,62.8,M,,M,,*74
$GPRMC,084922.000,A,3114.524926,N,12130.063376,E,7.3,-151.676508023,200122,,E,A*05
$GPGGA,084923.000,3114.520184,N,12130.063418,E,1,19,0.8,65.5,M,,M,,*74
$GPRMC,084923.000,A,3114.520184,N,12130.063418,E,7.1,-160.200268873,200122,,E,A*06
$GPGGA,084924.000,3114.512717,N,12130.064494,E,1,19,0.8,69.5,M,,M,,*71
$GPRMC,084924.000,A,3114.512717,N,12130.064494,E,12.2,-175.465497011,200122,,E,A*33
$GPGGA,084925.000,3114.511279,N,12130.065529,E,1,19,0.8,71.7,M,,M,,*73
$GPRMC,084925.000,A,3114.511279,N,12130.065529,E,6.9,177.48240405400003,200122,,E,A*1A
$GPGGA,084926.000,3114.509398,N,12130.066424,E,1,19,0.8,74.3,M,,M,,*79
$GPRMC,084926.000,A,3114.509398,N,12130.066424,E,4.5,172.86374448200002,200122,,E,A*10
$GPGGA,084927.000,3114.507044,N,12130.067103,E,1,19,0.8,77.0,M,,M,,*75
$GPRMC,084927.000,A,3114.507044,N,12130.067103,E,5.0,171.976920064,200122,,E,A*2C
$GPGGA,084928.000,3114.505294,N,12130.067781,E,1,19,0.8,79.8,M,,M,,*7D
$GPRMC,084928.000,A,3114.505294,N,12130.067781,E,4.8,169.396982635,200122,,E,A*2C
$GPGGA,084929.000,3114.505010,N,12130.067461,E,1,19,0.8,82.0,M,,M,,*73
$GPRMC,084929.000,A,3114.505010,N,12130.067461,E,3.2,173.650405459,200122,,E,A*2D
$GPGGA,084930.000,3114.506876,N,12130.066791,E,1,19,0.8,83.5,M,,M,,*79
$GPRMC,084930.000,A,3114.506876,N,12130.066791,E,0.4,190.077172706,200122,,E,A*24
$GPGGA,084931.000,3114.508599,N,12130.066054,E,1,19,0.8,84.4,M,,M,,*72
$GPRMC,084931.000,A,3114.508599,N,12130.066054,E,2.2,189.15321202599998,200122,,E,A*19
$GPGGA,084932.000,3114.507394,N,12130.066543,E,1,19,0.8,85.7,M,,M,,*74
$GPRMC,084932.000,A,3114.507394,N,12130.066543,E,0.4,199.809891859,200122,,E,A*24
$GPGGA,084933.000,3114.506796,N,12130.067087,E,1,19,0.8,86.6,M,,M,,*7C
$GPRMC,084933.000,A,3114.506796,N,12130.067087,E,0.6,212.635061157,200122,,E,A*2D
$GPGGA,084934.000,3114.506150,N,12130.067533,E,1,19,0.8,87.4,M,,M,,*7E
$GPRMC,084934.000,A,3114.506150,N,12130.067533,E,1.0,244.738685499,200122,,E,A*2F
$GPGGA,084935.000,3114.505233,N,12130.068174,E,1,19,0.8,88.4,M,,M,,*7D
$GPRMC,084935.000,A,3114.505233,N,12130.068174,E,1.3,237.89803239900002,200122,,E,A*1E
$GPGGA,084936.000,3114.506505,N,12130.067325,E,1,19,0.8,88.1,M,,M,,*73
$GPRMC,084936.000,A,3114.506505,N,12130.067325,E,0.2,236.29531483099998,200122,,E,A*16
$GPGGA,084937.000,3114.508155,N,12130.066064,E,1,19,0.8,87.4,M,,M,,*70
$GPRMC,084937.000,A,3114.508155,N,12130.066064,E,0.7,247.530457052,200122,,E,A*20
$GPGGA,084938.000,3114.509486,N,12130.064240,E,1,19,0.8,86.7,M,,M,,*71
$GPRMC,084938.000,A,3114.509486,N,12130.064240,E,1.6,245.66857478400001,200122,,E,A*12
$GPGGA,084939.000,3114.511543,N,12130.063249,E,1,19,0.8,84.9,M,,M,,*73
$GPRMC,084939.000,A,3114.511543,N,12130.063249,E,2.4,244.42627264200001,200122,,E,A*1E
$GPGGA,084940.000,3114.513615,N,12130.062106,E,1,19,0.8,82.8,M,,M,,*71
$GPRMC,084940.000,A,3114.513615,N,12130.062106,E,3.6,-39.945506248,200122,,E,A*3E
$GPGGA,084941.000,3114.514005,N,12130.061578,E,1,19,0.8,80.7,M,,M,,*73
$GPRMC,084941.000,A,3114.514005,N,12130.061578,E,2.0,228.070783427,200122,,E,A*26
$GPGGA,084942.000,3114.514294,N,12130.060587,E,1,19,0.8,79.5,M,,M,,*7F
$GPRMC,084942.000,A,3114.514294,N,12130.060587,E,2.3,217.01632703200002,200122,,E,A*19
$GPGGA,084943.000,3114.514369,N,12130.059510,E,1,19,0.8,78.7,M,,M,,*7A
$GPRMC,084943.000,A,3114.514369,N,12130.059510,E,2.5,221.61251164200002,200122,,E,A*1C
$GPGGA,084944.000,3114.512962,N,12130.058878,E,1,19,0.8,78.1,M,,M,,*7E
$GPRMC,084944.000,A,3114.512962,N,12130.058878,E,2.8,224.642820726,200122,,E,A*2D
$GPGGA,084945.000,3114.512781,N,12130.057141,E,1,19,0.8,77.9,M,,M,,*77
$GPRMC,084945.000,A,3114.512781,N,12130.057141,E,3.2,-115.049379109,200122,,E,A*05
$GPGGA,084946.000,3114.512149,N,12130.055611,E,1,19,0.8,77.4,M,,M,,*7B
$GPRMC,084946.000,A,3114.512149,N,12130.055611,E,3.5,-115.687065156,200122,,E,A*03
$GPGGA,084947.000,3114.510315,N,12130.054602,E,1,19,0.8,77.1,M,,M,,*75
$GPRMC,084947.000,A,3114.510315,N,12130.054602,E,4.2,-130.858255372,200122,,E,A*06
$GPGGA,084948.000,3114.509465,N,12130.054055,E,1,19,0.8,76.6,M,,M,,*70
$GPRMC,084948.000,A,3114.509465,N,12130.054055,E,4.0,-133.532747269,200122,,E,A*08
$GPGGA,084949.000,3114.510044,N,12130.054053,E,1,19,0.8,75.8,M,,M,,*75
$GPRMC,084949.000,A,3114.510044,N,12130.054053,E,2.9,231.523744621,200122,,E,A*28
$GPGGA,084950.000,3114.510083,N,12130.053541,E,1,19,0.8,75.4,M,,M,,*7B
$GPRMC,084950.000,A,3114.510083,N,12130.053541,E,2.5,229.173203293,200122,,E,A*25
$GPGGA,084951.000,3114.511575,N,12130.053295,E,1,19,0.8,74.5,M,,M,,*79
$GPRMC,084951.000,A,3114.511575,N,12130.053295,E,2.0,213.562655498,200122,,E,A*25
$GPGGA,084952.000,3114.512186,N,12130.053638,E,1,19,0.8,73.5,M,,M,,*75
$GPRMC,084952.000,A,3114.512186,N,12130.053638,E,1.4,215.435971504,200122,,E,A*21
$GPGGA,084953.000,3114.511642,N,12130.054584,E,1,19,0.8,72.4,M,,M,,*7B
$GPRMC,084953.000,A,3114.511642,N,12130.054584,E,1.2,225.910162341,200122,,E,A*2D
$GPGGA,084954.000,3114.510929,N,12130.055283,E,1,19,0.8,71.4,M,,M,,*7D
$GPRMC,084954.000,A,3114.510929,N,12130.055283,E,1.6,225.910162341,200122,,E,A*2C
$GPGGA,084955.000,3114.509900,N,12130.056081,E,1,19,0.8,70.2,M,,M,,*7B
$GPRMC,084955.000,A,3114.509900,N,12130.056081,E,2.4,213.155822106,200122,,E,A*2C
$GPGGA,084956.000,3114.508716,N,12130.056021,E,1,19,0.8,69.3,M,,M,,*73
$GPRMC,084956.000,A,3114.508716,N,12130.056021,E,3.0,176.374347678,200122,,E,A*2F
$GPGGA,084957.000,3114.508325,N,12130.055479,E,1,19,0.8,68.6,M,,M,,*78
$GPRMC,084957.000,A,3114.508325,N,12130.055479,E,2.5,200.848777304,200122,,E,A*2B
$GPGGA,084958.000,3114.508114,N,12130.052737,E,1,19,0.8,68.6,M,,M,,*79
$GPRMC,084958.000,A,3114.508114,N,12130.052737,E,2.7,200.848777304,200122,,E,A*28
$GPGGA,084959.000,3114.507879,N,12130.050740,E,1,19,0.8,68.5,M,,M,,*74
$GPRMC,084959.000,A,3114.507879,N,12130.050740,E,3.4,-119.338332242,200122,,E,A*08
$GPGGA,085000.000,3114.507739,N,12130.048513,E,1,19,0.8,68.1,M,,M,,*72
$GPRMC,085000.000,A,3114.507739,N,12130.048513,E,4.2,-111.600384876,200122,,E,A*0D
$GPGGA,085001.000,3114.507853,N,12130.046763,E,1,19,0.8,67.4,M,,M,,*71
$GPRMC,085001.000,A,3114.507853,N,12130.046763,E,4.3,-106.855006732,200122,,E,A*0B
$GPGGA,085002.000,3114.507826,N,12130.046600,E,1,19,0.8,66.2,M,,M,,*73
$GPRMC,085002.000,A,3114.507826,N,12130.046600,E,3.2,-110.83759910299999,200122,,E,A*34
$GPGGA,085003.000,3114.507614,N,12130.044164,E,1,19,0.8,65.5,M,,M,,*7E
$GPRMC,085003.000,A,3114.507614,N,12130.044164,E,4.2,-106.153344159,200122,,E,A*07
$GPGGA,085004.000,3114.507264,N,12130.044638,E,1,19,0.8,64.2,M,,M,,*72
$GPRMC,085004.000,A,3114.507264,N,12130.044638,E,2.7,200.848777304,200122,,E,A*2B
$GPGGA,085005.000,3114.505959,N,12130.045496,E,1,19,0.8,63.1,M,,M,,*77
$GPRMC,085005.000,A,3114.505959,N,12130.045496,E,2.3,227.392204125,200122,,E,A*27
$GPGGA,085006.000,3114.506246,N,12130.045284,E,1,19,0.8,61.3,M,,M,,*77
$GPRMC,085006.000,A,3114.506246,N,12130.045284,E,1.7,220.744380928,200122,,E,A*20
$GPGGA,085007.000,3114.505956,N,12130.044096,E,1,19,0.8,60.2,M,,M,,*7F
$GPRMC,085007.000,A,3114.505956,N,12130.044096,E,2.4,227.06913617400002,200122,,E,A*1B
$GPGGA,085008.000,3114.505232,N,12130.043468,E,1,19,0.8,59.4,M,,M,,*77
$GPRMC,085008.000,A,3114.505232,N,12130.043468,E,2.6,212.940766767,200122,,E,A*2C
$GPGGA,085009.000,3114.504535,N,12130.042157,E,1,19,0.8,58.4,M,,M,,*7E
$GPRMC,085009.000,A,3114.504535,N,12130.042157,E,3.2,-131.34760232899998,200122,,E,A*37
$GPGGA,085010.000,3114.503800,N,12130.039624,E,1,19,0.8,57.8,M,,M,,*76
$GPRMC,085010.000,A,3114.503800,N,12130.039624,E,4.3,-123.00124189700001,200122,,E,A*3D
$GPGGA,085011.000,3114.502743,N,12130.039299,E,1,19,0.8,57.1,M,,M,,*75
$GPRMC,085011.000,A,3114.502743,N,12130.039299,E,3.8,-134.11380486,200122,,E,A*3D
$GPGGA,085012.000,3114.501082,N,12130.037525,E,1,19,0.8,56.8,M,,M,,*79
$GPRMC,085012.000,A,3114.501082,N,12130.037525,E,4.7,-135.116502008,200122,,E,A*08
$GPGGA,085013.000,3114.500200,N,12130.036620,E,1,19,0.8,56.8,M,,M,,*76
$GPRMC,085013.000,A,3114.500200,N,12130.036620,E,4.5,-136.89226918,200122,,E,A*38
$GPGGA,085014.000,3114.499366,N,12130.035738,E,1,19,0.8,56.8,M,,M,,*7A
$GPRMC,085014.000,A,3114.499366,N,12130.035738,E,4.3,-137.28460555700002,200122,,E,A*3C
$GPGGA,085015.000,3114.501124,N,12130.036415,E,1,19,0.8,55.3,M,,M,,*78
$GPRMC,085015.000,A,3114.501124,N,12130.036415,E,2.5,225.50739974099997,200122,,E,A*16
$GPGGA,085016.000,3114.500630,N,12130.035855,E,1,19,0.8,55.3,M,,M,,*73
$GPRMC,085016.000,A,3114.500630,N,12130.035855,E,2.5,225.50739974099997,200122,,E,A*1D
$GPGGA,085017.000,3114.500108,N,12130.035409,E,1,19,0.8,55.3,M,,M,,*7B
$GPRMC,085017.000,A,3114.500108,N,12130.035409,E,2.4,225.50739974099997,200122,,E,A*14
$GPGGA,085018.000,3114.500657,N,12130.035895,E,1,19,0.8,53.5,M,,M,,*70
$GPRMC,085018.000,A,3114.500657,N,12130.035895,E,1.7,225.50739974099997,200122,,E,A*1F
$GPGGA,085019.000,3114.500797,N,12130.035582,E,1,19,0.8,52.0,M,,M,,*73
$GPRMC,085019.000,A,3114.500797,N,12130.035582,E,1.6,225.50739974099997,200122,,E,A*19
$GPGGA,085020.000,3114.501143,N,12130.035491,E,1,19,0.8,50.3,M,,M,,*75
$GPRMC,085020.000,A,3114.501143,N,12130.035491,E,1.2,209.545971465,200122,,E,A*2D
$GPGGA,085021.000,3114.500903,N,12130.035215,E,1,19,0.8,50.3,M,,M,,*73
$GPRMC,085021.000,A,3114.500903,N,12130.035215,E,1.2,208.21271852299998,200122,,E,A*14
$GPGGA,085022.000,3114.499795,N,12130.034657,E,1,19,0.8,49.0,M,,M,,*78
$GPRMC,085022.000,A,3114.499795,N,12130.034657,E,1.8,217.98170598099998,200122,,E,A*19
$GPGGA,085023.000,3114.498527,N,12130.034807,E,1,19,0.8,47.6,M,,M,,*70
$GPRMC,085023.000,A,3114.498527,N,12130.034807,E,2.1,213.37684703,200122,,E,A*16
$GPGGA,085024.000,3114.497768,N,12130.034866,E,1,19,0.8,46.6,M,,M,,*77
$GPRMC,085024.000,A,3114.497768,N,12130.034866,E,2.3,213.37684703,200122,,E,A*12
$GPGGA,085025.000,3114.497388,N,12130.034662,E,1,19,0.8,45.9,M,,M,,*7A
$GPRMC,085025.000,A,3114.497388,N,12130.034662,E,2.2,214.391471643,200122,,E,A*27
$GPGGA,085026.000,3114.496605,N,12130.034115,E,1,19,0.8,45.5,M,,M,,*73
$GPRMC,085026.000,A,3114.496605,N,12130.034115,E,2.4,221.94676744400002,200122,,E,A*11
$GPGGA,085027.000,3114.495982,N,12130.033827,E,1,19,0.8,45.5,M,,M,,*7E
$GPRMC,085027.000,A,3114.495982,N,12130.033827,E,2.4,227.42746156200002,200122,,E,A*10
$GPGGA,085028.000,3114.494932,N,12130.033291,E,1,19,0.8,45.7,M,,M,,*7E
$GPRMC,085028.000,A,3114.494932,N,12130.033291,E,2.7,229.020821771,200122,,E,A*26
$GPGGA,085029.000,3114.494014,N,12130.032566,E,1,19,0.8,45.8,M,,M,,*73
$GPRMC,085029.000,A,3114.494014,N,12130.032566,E,2.8,229.020821771,200122,,E,A*2B
$GPGGA,085030.000,3114.493338,N,12130.032108,E,1,19,0.8,45.8,M,,M,,*7D
$GPRMC,085030.000,A,3114.493338,N,12130.032108,E,2.8,219.999207281,200122,,E,A*29
$GPGGA,085031.000,3114.492558,N,12130.032001,E,1,19,0.8,45.8,M,,M,,*75
$GPRMC,085031.000,A,3114.492558,N,12130.032001,E,2.8,219.999207281,200122,,E,A*21
$GPGGA,085032.000,3114.491860,N,12130.030714,E,1,19,0.8,45.8,M,,M,,*72
$GPRMC,085032.000,A,3114.491860,N,12130.030714,E,3.0,-150.769266682,200122,,E,A*0D
$GPGGA,085033.000,3114.490573,N,12130.029841,E,1,19,0.8,45.6,M,,M,,*74
$GPRMC,085033.000,A,3114.490573,N,12130.029841,E,3.3,-149.47236555799998,200122,,E,A*36
$GPGGA,085034.000,3114.489635,N,12130.028770,E,1,19,0.8,45.7,M,,M,,*77
$GPRMC,085034.000,A,3114.489635,N,12130.028770,E,3.5,-147.287234276,200122,,E,A*09
$GPGGA,085035.000,3114.489274,N,12130.027389,E,1,19,0.8,45.7,M,,M,,*7A
$GPRMC,085035.000,A,3114.489274,N,12130.027389,E,3.5,-142.201807993,200122,,E,A*05
$GPGGA,085036.000,3114.488652,N,12130.025828,E,1,19,0.8,45.6,M,,M,,*7B
$GPRMC,085036.000,A,3114.488652,N,12130.025828,E,3.7,-138.044179426,200122,,E,A*0A
$GPGGA,085037.000,3114.488490,N,12130.024090,E,1,19,0.8,45.5,M,,M,,*7F
$GPRMC,085037.000,A,3114.488490,N,12130.024090,E,3.8,-132.243326688,200122,,E,A*03
$GPGGA,085038.000,3114.488302,N,12130.022365,E,1,19,0.8,45.2,M,,M,,*74
$GPRMC,085038.000,A,3114.488302,N,12130.022365,E,4.0,-127.450657919,200122,,E,A*04
$GPGGA,085039.000,3114.488061,N,12130.020969,E,1,19,0.8,45.0,M,,M,,*75
$GPRMC,085039.000,A,3114.488061,N,12130.020969,E,4.0,-124.66899998299999,200122,,E,A*3B
$GPGGA,085040.000,3114.488303,N,12130.019810,E,1,19,0.8,44.9,M,,M,,*71
$GPRMC,085040.000,A,3114.488303,N,12130.019810,E,3.7,-120.518007307,200122,,E,A*07
$GPGGA,085041.000,3114.488175,N,12130.019053,E,1,19,0.8,44.7,M,,M,,*72
$GPRMC,085041.000,A,3114.488175,N,12130.019053,E,3.5,-119.518900497,200122,,E,A*02
$GPGGA,085042.000,3114.488010,N,12130.017635,E,1,19,0.8,44.5,M,,M,,*79
$GPRMC,085042.000,A,3114.488010,N,12130.017635,E,3.6,-116.58023727,200122,,E,A*36
$GPGGA,085043.000,3114.488149,N,12130.016260,E,1,19,0.8,44.3,M,,M,,*76
$GPRMC,085043.000,A,3114.488149,N,12130.016260,E,3.5,-112.294760206,200122,,E,A*0C
$GPGGA,085044.000,3114.488174,N,12130.014958,E,1,19,0.8,44.3,M,,M,,*7D
$GPRMC,085044.000,A,3114.488174,N,12130.014958,E,3.5,-109.28800248,200122,,E,A*3B
$GPGGA,085045.000,3114.488298,N,12130.013880,E,1,19,0.8,44.2,M,,M,,*7F
$GPRMC,085045.000,A,3114.488298,N,12130.013880,E,3.4,-106.119974508,200122,,E,A*04
$GPGGA,085046.000,3114.488431,N,12130.013180,E,1,19,0.8,44.0,M,,M,,*72
$GPRMC,085046.000,A,3114.488431,N,12130.013180,E,3.2,-103.54920287600001,200122,,E,A*36
$GPGGA,085047.000,3114.489069,N,12130.012315,E,1,19,0.8,43.8,M,,M,,*7B
$GPRMC,085047.000,A,3114.489069,N,12130.012315,E,3.0,-96.854180429,200122,,E,A*30
$GPGGA,085048.000,3114.489685,N,12130.011234,E,1,19,0.8,43.4,M,,M,,*7D
$GPRMC,085048.000,A,3114.489685,N,12130.011234,E,2.9,-91.273030726,200122,,E,A*3C
$GPGGA,085049.000,3114.489455,N,12130.010765,E,1,19,0.8,43.1,M,,M,,*76
$GPRMC,085049.000,A,3114.489455,N,12130.010765,E,2.8,190.668503171,200122,,E,A*21
$GPGGA,085050.000,3114.489290,N,12130.010032,E,1,19,0.8,42.9,M,,M,,*7D
$GPRMC,085050.000,A,3114.489290,N,12130.010032,E,2.7,202.46440393,200122,,E,A*16
$GPGGA,085051.000,3114.487316,N,12130.010924,E,1,19,0.8,42.3,M,,M,,*79
$GPRMC,085051.000,A,3114.487316,N,12130.010924,E,2.4,250.119809118,200122,,E,A*27
$GPGGA,085052.000,3114.485526,N,12130.011438,E,1,19,0.8,41.8,M,,M,,*74
$GPRMC,085052.000,A,3114.485526,N,12130.011438,E,2.5,250.119809118,200122,,E,A*23
$GPGGA,085053.000,3114.484519,N,12130.011343,E,1,19,0.8,41.4,M,,M,,*7F
$GPRMC,085053.000,A,3114.484519,N,12130.011343,E,2.5,250.119809118,200122,,E,A*24
$GPGGA,085054.000,3114.485030,N,12130.010189,E,1,19,0.8,41.2,M,,M,,*74
$GPRMC,085054.000,A,3114.485030,N,12130.010189,E,2.4,250.119809118,200122,,E,A*28
$GPGGA,085055.000,3114.484018,N,12130.010449,E,1,19,0.8,41.4,M,,M,,*71
$GPRMC,085055.000,A,3114.484018,N,12130.010449,E,2.3,250.119809118,200122,,E,A*2C
$GPGGA,085056.000,3114.480190,N,12130.012851,E,1,19,0.8,43.2,M,,M,,*74
$GPRMC,085056.000,A,3114.480190,N,12130.012851,E,3.3,-172.110613327,200122,,E,A*00
$GPGGA,085057.000,3114.478960,N,12130.012384,E,1,19,0.8,44.0,M,,M,,*73
$GPRMC,085057.000,A,3114.478960,N,12130.012384,E,3.2,-166.99471818700002,200122,,E,A*32
$GPGGA,085058.000,3114.478580,N,12130.012789,E,1,19,0.8,44.0,M,,M,,*77
$GPRMC,085058.000,A,3114.478580,N,12130.012789,E,2.5,247.353773717,200122,,E,A*2C
$GPGGA,085059.000,3114.477295,N,12130.013319,E,1,19,0.8,44.4,M,,M,,*72
$GPRMC,085059.000,A,3114.477295,N,12130.013319,E,2.9,247.353773717,200122,,E,A*21
$GPGGA,085100.000,3114.476124,N,12130.014092,E,1,19,0.8,44.4,M,,M,,*70
$GPRMC,085100.000,A,3114.476124,N,12130.014092,E,3.2,168.148200647,200122,,E,A*2A
$GPGGA,085101.000,3114.475530,N,12130.013107,E,1,19,0.8,44.3,M,,M,,*7E
$GPRMC,085101.000,A,3114.475530,N,12130.013107,E,2.9,247.353773717,200122,,E,A*2A
$GPGGA,085102.000,3114.475731,N,12130.011478,E,1,19,0.8,43.8,M,,M,,*7D
$GPRMC,085102.000,A,3114.475731,N,12130.011478,E,2.5,247.353773717,200122,,E,A*29
$GPGGA,085103.000,3114.476326,N,12130.009763,E,1,19,0.8,43.2,M,,M,,*77
$GPRMC,085103.000,A,3114.476326,N,12130.009763,E,2.5,247.353773717,200122,,E,A*29
$GPGGA,085104.000,3114.476580,N,12130.008021,E,1,19,0.8,42.6,M,,M,,*7F
$GPRMC,085104.000,A,3114.476580,N,12130.008021,E,3.3,-100.817218794,200122,,E,A*06
$GPGGA,085105.000,3114.476970,N,12130.006613,E,1,19,0.8,41.9,M,,M,,*78
$GPRMC,085105.000,A,3114.476970,N,12130.006613,E,3.4,-95.02391964899999,200122,,E,A*0B
$GPGGA,085106.000,3114.477647,N,12130.005073,E,1,19,0.8,41.2,M,,M,,*79
$GPRMC,085106.000,A,3114.477647,N,12130.005073,E,3.4,-89.518178734,200122,,E,A*3D
$GPGGA,085107.000,3114.478552,N,12130.004221,E,1,19,0.8,40.5,M,,M,,*72
$GPRMC,085107.000,A,3114.478552,N,12130.004221,E,3.1,-80.66882042399999,200122,,E,A*00
$GPGGA,085108.000,3114.478506,N,12130.003897,E,1,19,0.8,39.8,M,,M,,*7F
$GPRMC,085108.000,A,3114.478506,N,12130.003897,E,2.7,247.353773717,200122,,E,A*24
$GPGGA,085109.000,3114.477856,N,12130.003262,E,1,19,0.8,39.0,M,,M,,*71
$GPRMC,085109.000,A,3114.477856,N,12130.003262,E,2.6,247.353773717,200122,,E,A*23
$GPGGA,085110.000,3114.477962,N,12130.002851,E,1,19,0.8,38.1,M,,M,,*74
$GPRMC,085110.000,A,3114.477962,N,12130.002851,E,2.4,247.353773717,200122,,E,A*24
$GPGGA,085111.000,3114.478511,N,12130.002651,E,1,19,0.8,37.4,M,,M,,*76
$GPRMC,085111.000,A,3114.478511,N,12130.002651,E,2.1,247.353773717,200122,,E,A*29
$GPGGA,085112.000,3114.479524,N,12130.001605,E,1,19,0.8,37.6,M,,M,,*72
$GPRMC,085112.000,A,3114.479524,N,12130.001605,E,2.4,247.353773717,200122,,E,A*2A
$GPGGA,085113.000,3114.480456,N,12130.000976,E,1,19,0.8,37.4,M,,M,,*79
$GPRMC,085113.000,A,3114.480456,N,12130.000976,E,2.5,247.353773717,200122,,E,A*22
$GPGGA,085114.000,3114.481957,N,12130.000280,E,1,19,0.8,36.9,M,,M,,*7D
$GPRMC,085114.000,A,3114.481957,N,12130.000280,E,3.1,-45.190397216,200122,,E,A*35
$GPGGA,085115.000,3114.483262,N,12129.999726,E,1,19,0.8,36.5,M,,M,,*77
$GPRMC,085115.000,A,3114.483262,N,12129.999726,E,3.3,-39.206622785,200122,,E,A*32
$GPGGA,085116.000,3114.484267,N,12129.998747,E,1,19,0.8,36.2,M,,M,,*77
$GPRMC,085116.000,A,3114.484267,N,12129.998747,E,3.5,-39.406775976999995,200122,,E,A*38
$GPGGA,085117.000,3114.485356,N,12129.997965,E,1,19,0.8,36.4,M,,M,,*73
$GPRMC,085117.000,A,3114.485356,N,12129.997965,E,3.8,-36.491873747,200122,,E,A*3F
$GPGGA,085118.000,3114.486494,N,12129.997529,E,1,19,0.8,36.3,M,,M,,*75
$GPRMC,085118.000,A,3114.486494,N,12129.997529,E,3.9,-32.426651981,200122,,E,A*3D
$GPGGA,085119.000,3114.487346,N,12129.996911,E,1,19,0.8,36.5,M,,M,,*7D
$GPRMC,085119.000,A,3114.487346,N,12129.996911,E,3.8,-32.527633396999995,200122,,E,A*36
$GPGGA,085120.000,3114.487798,N,12129.996248,E,1,19,0.8,36.9,M,,M,,*7B
$GPRMC,085120.000,A,3114.487798,N,12129.996248,E,3.5,-35.419581807,200122,,E,A*3F
$GPGGA,085121.000,3114.488584,N,12129.995811,E,1,19,0.8,37.1,M,,M,,*76
$GPRMC,085121.000,A,3114.488584,N,12129.995811,E,3.5,-33.901448572,200122,,E,A*32
$GPGGA,085122.000,3114.489463,N,12129.994772,E,1,19,0.8,37.7,M,,M,,*71
$GPRMC,085122.000,A,3114.489463,N,12129.994772,E,3.7,-35.435836629,200122,,E,A*35
$GPGGA,085123.000,3114.490007,N,12129.993360,E,1,19,0.8,38.7,M,,M,,*71
$GPRMC,085123.000,A,3114.490007,N,12129.993360,E,3.7,-40.428363777,200122,,E,A*35
$GPGGA,085124.000,3114.490589,N,12129.992463,E,1,19,0.8,39.5,M,,M,,*73
$GPRMC,085124.000,A,3114.490589,N,12129.992463,E,3.8,-41.478453813,200122,,E,A*36
$GPGGA,085125.000,3114.491651,N,12129.992836,E,1,19,0.8,40.0,M,,M,,*72
$GPRMC,085125.000,A,3114.491651,N,12129.992836,E,3.6,-32.920692939,200122,,E,A*30
$GPGGA,085126.000,3114.492990,N,12129.993643,E,1,19,0.8,40.4,M,,M,,*79
$GPRMC,085126.000,A,3114.492990,N,12129.993643,E,3.5,-20.838497574,200122,,E,A*35
$GPGGA,085127.000,3114.494104,N,12129.994157,E,1,19,0.8,40.6,M,,M,,*7C
$GPRMC,085127.000,A,3114.494104,N,12129.994157,E,3.5,-12.508517308,200122,,E,A*39
$GPGGA,085128.000,3114.495742,N,12129.995028,E,1,19,0.8,40.7,M,,M,,*7F
$GPRMC,085128.000,A,3114.495742,N,12129.995028,E,3.8,-1.521745589,200122,,E,A*05
$GPGGA,085129.000,3114.497005,N,12129.997863,E,1,19,0.8,40.6,M,,M,,*7C
$GPRMC,085129.000,A,3114.497005,N,12129.997863,E,4.2,23.343486124000002,200122,,E,A*18
$GPGGA,085130.000,3114.498967,N,12130.001252,E,1,19,0.8,40.5,M,,M,,*73
$GPRMC,085130.000,A,3114.498967,N,12130.001252,E,5.9,43.270511187,200122,,E,A*1D
$GPGGA,085131.000,3114.500301,N,12130.004488,E,1,19,0.8,40.2,M,,M,,*7B
$GPRMC,085131.000,A,3114.500301,N,12130.004488,E,7.0,51.797248423999996,200122,,E,A*19
$GPGGA,085132.000,3114.501567,N,12130.006715,E,1,19,0.8,40.0,M,,M,,*78
$GPRMC,085132.000,A,3114.501567,N,12130.006715,E,6.6,49.181277718000004,200122,,E,A*1B
$GPGGA,085133.000,3114.502355,N,12130.007530,E,1,19,0.8,39.8,M,,M,,*7F
$GPRMC,085133.000,A,3114.502355,N,12130.007530,E,4.7,36.111532744,200122,,E,A*13
$GPGGA,085134.000,3114.503093,N,12130.009509,E,1,19,0.8,39.6,M,,M,,*7A
$GPRMC,085134.000,A,3114.503093,N,12130.009509,E,5.3,48.532935126000005,200122,,E,A*1D
$GPGGA,085135.000,3114.504255,N,12130.012045,E,1,19,0.8,38.8,M,,M,,*7C
$GPRMC,085135.000,A,3114.504255,N,12130.012045,E,6.4,56.902332947,200122,,E,A*17
$GPGGA,085136.000,3114.505371,N,12130.010131,E,1,19,0.8,37.9,M,,M,,*77
$GPRMC,085136.000,A,3114.505371,N,12130.010131,E,3.8,19.362078806,200122,,E,A*15
$GPGGA,085137.000,3114.506356,N,12130.006451,E,1,19,0.8,37.5,M,,M,,*78
$GPRMC,085137.000,A,3114.506356,N,12130.006451,E,4.8,-42.887241833000004,200122,,E,A*38
$GPGGA,085138.000,3114.507434,N,12130.003581,E,1,19,0.8,37.2,M,,M,,*7B
$GPRMC,085138.000,A,3114.507434,N,12130.003581,E,6.8,-57.868640868,200122,,E,A*34
$GPGGA,085139.000,3114.508293,N,12130.000838,E,1,19,0.8,37.0,M,,M,,*70
$GPRMC,085139.000,A,3114.508293,N,12130.000838,E,7.4,-61.745908076999996,200122,,E,A*3E
$GPGGA,085140.000,3114.508998,N,12129.998468,E,1,19,0.8,36.8,M,,M,,*7E
$GPRMC,085140.000,A,3114.508998,N,12129.998468,E,6.9,-60.645304277,200122,,E,A*3F
$GPGGA,085141.000,3114.509751,N,12129.994042,E,1,19,0.8,36.7,M,,M,,*7A
$GPRMC,085141.000,A,3114.509751,N,12129.994042,E,8.5,-67.069942703,200122,,E,A*37
$GPGGA,085142.000,3114.510248,N,12129.991117,E,1,19,0.8,36.6,M,,M,,*79
$GPRMC,085142.000,A,3114.510248,N,12129.991117,E,7.8,-66.570129153,200122,,E,A*3D
$GPGGA,085143.000,3114.510776,N,12129.988904,E,1,19,0.8,36.4,M,,M,,*70
$GPRMC,085143.000,A,3114.510776,N,12129.988904,E,7.4,-66.868915536,200122,,E,A*3E
$GPGGA,085144.000,3114.511329,N,12129.987570,E,1,19,0.8,36.3,M,,M,,*7F
$GPRMC,085144.000,A,3114.511329,N,12129.987570,E,6.6,-65.023858782,200122,,E,A*34
$GPGGA,085145.000,3114.509508,N,12129.980979,E,1,19,0.8,37.9,M,,M,,*7B
$GPRMC,085145.000,A,3114.509508,N,12129.980979,E,8.3,-77.352379066,200122,,E,A*33
$GPGGA,085146.000,3114.509328,N,12129.979769,E,1,19,0.8,38.3,M,,M,,*70
$GPRMC,085146.000,A,3114.509328,N,12129.979769,E,3.7,-56.47483926,200122,,E,A*09
$GPGGA,085147.000,3114.508994,N,12129.981100,E,1,19,0.8,38.1,M,,M,,*71
$GPRMC,085147.000,A,3114.508994,N,12129.981100,E,1.3,315.290797505,200122,,E,A*26
$GPGGA,085148.000,3114.509458,N,12129.980990,E,1,19,0.8,38.4,M,,M,,*77
$GPRMC,085148.000,A,3114.509458,N,12129.980990,E,2.0,315.290797505,200122,,E,A*25
$GPGGA,085149.000,3114.508927,N,12129.982499,E,1,19,0.8,38.5,M,,M,,*75
$GPRMC,085149.000,A,3114.508927,N,12129.982499,E,0.4,313.07232471599997,200122,,E,A*10
$GPGGA,085150.000,3114.508430,N,12129.983049,E,1,19,0.8,38.5,M,,M,,*7E
$GPRMC,085150.000,A,3114.508430,N,12129.983049,E,0.2,313.07232471599997,200122,,E,A*1D
$GPGGA,085151.000,3114.508249,N,12129.983433,E,1,19,0.8,38.6,M,,M,,*7D
$GPRMC,085151.000,A,3114.508249,N,12129.983433,E,0.4,313.07232471599997,200122,,E,A*1B
$GPGGA,085152.000,3114.508309,N,12129.983339,E,1,19,0.8,38.9,M,,M,,*79
$GPRMC,085152.000,A,3114.508309,N,12129.983339,E,0.2,313.07232471599997,200122,,E,A*16
$GPGGA,085153.000,3114.508621,N,12129.984101,E,1,19,0.8,39.2,M,,M,,*73
$GPRMC,085153.000,A,3114.508621,N,12129.984101,E,0.6,313.07232471599997,200122,,E,A*12
$GPGGA,085154.000,3114.509073,N,12129.985077,E,1,19,0.8,39.3,M,,M,,*74
$GPRMC,085154.000,A,3114.509073,N,12129.985077,E,1.1,313.07232471599997,200122,,E,A*12
$GPGGA,085155.000,3114.510077,N,12129.985610,E,1,19,0.8,39.7,M,,M,,*7A
$GPRMC,085155.000,A,3114.510077,N,12129.985610,E,1.3,313.07232471599997,200122,,E,A*1A
$GPGGA,085156.000,3114.510968,N,12129.986766,E,1,19,0.8,40.3,M,,M,,*77
$GPRMC,085156.000,A,3114.510968,N,12129.986766,E,1.8,313.07232471599997,200122,,E,A*16
$GPGGA,085157.000,3114.512043,N,12129.987757,E,1,19,0.8,40.8,M,,M,,*7C
$GPRMC,085157.000,A,3114.512043,N,12129.987757,E,2.3,313.07232471599997,200122,,E,A*1E
$GPGGA,085158.000,3114.512745,N,12129.990082,E,1,19,0.8,41.2,M,,M,,*70
$GPRMC,085158.000,A,3114.512745,N,12129.990082,E,3.0,53.783541755,200122,,E,A*13
$GPGGA,085159.000,3114.514013,N,12129.989821,E,1,19,0.8,41.1,M,,M,,*79
$GPRMC,085159.000,A,3114.514013,N,12129.989821,E,2.9,313.07232471599997,200122,,E,A*19
$GPGGA,085200.000,3114.513792,N,12129.988187,E,1,19,0.8,40.9,M,,M,,*72
