     3.04           OBSERVATION DATA    M: Mixed            RINEX VERSION / TYPE
Higeo_Hi1105        Huawei CBG          20220209 110521 UTC PGM / RUN BY / DATE 
************************************************************COMMENT             
* If you have any problem,                                 *COMMENT             
*     please contact with LBS Technology Group, thanks.    *COMMENT             
*                                                          *COMMENT             
* Version Higeo2RinexV1.1 2020.07.21                       *COMMENT             
* Fuction:  Convert Higeo Log to Rinex file                *COMMENT             
*                                                          *COMMENT             
* Note that the verision support B1C B2A signal            *COMMENT             
*     BDS: C1D L1D D1D S1D indicate BDS B1C                *COMMENT             
*     BDS: C5D L5D D5D S5D indicate BDS B2A                *COMMENT             
*     Reference: RINEX V3.04                               *COMMENT             
*                                                          *COMMENT             
* Copyright(C) Huawei Technologies Co., Ltd. 2019 - 2020   *COMMENT             
*     All rights reserved.                                 *COMMENT             
************************************************************COMMENT             
                                                            MARKER NAME         
                                                            MARKER NUMBER       
                                                            MARKER TYPE         
                                                            OBSERVER / AGENCY   
                                                            REC # / TYPE / VERS 
                                                            ANT # / TYPE        
        0.0000        0.0000        0.0000                  APPROX POSITION XYZ 
        0.0000        0.0000        0.0000                  ANTENNA: DELTA H/E/N
G    8 C1C L1C D1C S1C C5I L5I D5I S5I                      SYS / # / OBS TYPES 
R    4 C1C L1C D1C S1C                                      SYS / # / OBS TYPES 
E    8 C1C L1C D1C S1C C5I L5I D5I S5I                      SYS / # / OBS TYPES 
J    8 C1C L1C D1C S1C C5I L5I D5I S5I                      SYS / # / OBS TYPES 
C   12 C2I L2I D2I S2I C1D L1D D1D S1D C5D L5D D5D S5D      SYS / # / OBS TYPES 
  2021    12     8     2    48   47.0000000     GPS         TIME OF FIRST OBS   
  2021    12     8     3     3   19.0000000     GPS         TIME OF LAST OBS    
G                                                           SYS / PHASE SHIFT   
R                                                           SYS / PHASE SHIFT   
E                                                           SYS / PHASE SHIFT   
J                                                           SYS / PHASE SHIFT   
C                                                           SYS / PHASE SHIFT   
  0                                                         GLONASS SLOT / FRQ #
 C1C    0.000 C1P    0.000 C2C    0.000 C2P    0.000        GLONASS COD/PHS/BIS 
                                                            END OF HEADER       
> 2021 12  8  2 48 47.0000000  0  1                     
G10  21176148.289       -8686.152       -1780.856          24.000                                                                  
> 2021 12  8  2 48 48.0000000  0  1                     
G10  21175809.729      -18050.578       -1782.403          29.000                                                                  
> 2021 12  8  2 48 49.0000000  0  1                     
G10  21175470.881      -27412.983       -1781.623          29.000                                                                  
> 2021 12  8  2 48 50.0000000  0  2                     
G10  21175131.858      -36774.635       -1782.676          28.000                                                                  
R 8  20286719.621                                          26.000  
> 2021 12  8  2 48 51.0000000  0  3                     
G10  21174792.626      -46136.350       -1781.924          26.000                                                                  
G23  20223732.239        4229.738         269.498          20.000                                                                  
R 8  20286658.492                                          28.000  
> 2021 12  8  2 48 52.0000000  0  4                     
G10  21174452.269      -55507.526       -1784.098          26.000                                                                  
G23  20223782.459        5653.210         274.118          19.000                                                                  
G32  22749631.734      -32456.008       -1621.899          18.000                                                                  
R 8  20286596.631                                          28.000  
> 2021 12  8  2 48 53.0000000  0  4                     
G10  21174112.880      -64875.550       -1780.871          27.000                                                                  
G23  20223832.906        7091.936         274.612          22.000                                                                  
G32  22749323.406      -40972.860       -1619.436          18.000                                                                  
R 8  20286533.113                                          30.000  
> 2021 12  8  2 48 55.0000000  0  4                     
G10  21173773.647      -74231.405       -1781.981          28.000                                                                  
G23  20223894.696        8529.166         273.496          20.000                                                                  
G32  22739413.694      -49504.313       -1627.069          20.000                                                                  
R 8  20286469.210                                          30.000  
> 2021 12  8  2 48 56.0000000  0  4                     
G10  21173435.088      -83605.349       -1784.057          23.000                                                                  
G23  20223948.702        9966.196         272.945          22.000                                                                  
G32  22739067.917      -58068.695       -1631.545          18.000                                                                  
R 8  20286405.918                                          25.000  
> 2021 12  8  2 48 57.0000000  0  7                     
G10  21173095.769      -92979.064       -1784.604          25.000                                                                  
G23  20224006.845       11391.570         270.179          22.000                                                                  
G32  22738764.090      -66655.437       -1635.279          17.000                                                                  
R 8  20286342.399                                          27.000  
R 9  21368239.028                                          17.000  
C 8  36269006.684        2592.969        1221.587          27.000                                                                                                                                  
C13  35965306.983        3734.343        1015.858          24.000                                                                                                                                  
> 2021 12  8  2 48 58.0000000  0  7                     
G10  21172741.599     -102786.441       -1787.758          29.000                                                                  
G23  20224056.297       12875.329         270.332          22.000                                                                  
G32  22738456.074      -75617.153       -1631.787          22.000                                                                  
R 8  20286272.703                                          24.000  
R 9  21376915.426                                          18.000  
C 8  36269249.531        9238.068        1221.342          24.000                                                                                                                                  
C13  35965509.528        9254.579        1013.760          23.000                                                                                                                                  
> 2021 12  8  2 48 59.0000000  0  7                     
G10  21172402.576     -112177.446       -1786.703          19.000                                                                  
G23  20224109.641       14296.306         270.332          20.000                                                                  
G32  22738147.606      -84188.954       -1631.255          18.000                                                                  
R 8  20286209.097                                          29.000  
R 9  21377301.740                                          18.000  
C 8  36269484.543       15595.798        1220.443          24.000                                                                                                                                  
C13  35965704.573       14538.991        1016.187          17.000                                                                                                                                  
> 2021 12  8  2 49  0.0000000  0  6                     
G10  21172062.560     -121569.111       -1789.020          18.000                                                                  
G23  20224159.599       15717.242         271.618          20.000                                                                  
G32  22737836.939      -92768.646       -1632.836          16.000                                                                  
R 8  20286142.926                                          29.000  
R 9  21377687.548                                          20.000  
C 8  36269719.626       21961.543        1223.752          25.000                                                                                                                                  
> 2021 12  8  2 49  1.0000000  0 11                     
G10  21171722.368     -130965.052       -1787.745          23.000                                                                  
G23  20224209.750       17147.407         272.581          19.000                                                                  
G32  22737526.568     -101340.752       -1631.273          17.000                                                                  
R 8  20286079.250                                          29.000  
R 9  21378069.062                                          20.000  
R24  22356707.656                                          18.000  
E33  24624799.532        4318.478        1007.994          22.000                                                                  
C 8  36269954.742       28328.776        1222.154          24.000                                                                                                                                  
C 9  36675715.822        1554.476         257.712          23.000                                                                                                                                  
C13  35966100.997        7246.602        1014.055          21.000                                                                                                                                  
C20  25598243.542       11575.276        2429.755          22.000                                                                                                                                  
> 2021 12  8  2 49  2.0000000  0 11                     
G10  21171373.539     -140353.637       -1786.213          28.000                                                                  
G23  20224261.908       18579.926         272.761          22.000                                                                  
G32  22737205.570     -109911.293       -1630.803          20.000                                                                  
R 8  20286014.824                                          28.000  
R 9  21378452.165                                          19.000  
R24  22356568.875                                          18.000  
E33  24625002.565        9617.294        1008.717          22.000                                                                  
C 8  36270189.579       34686.606        1220.993          24.000                                                                                                                                  
C 9  36675772.825        2893.580         257.449          25.000                                                                                                                                  
C13  35966293.477       12530.950        1014.364          22.000                                                                                                                                  
C20  25598713.179       24229.362        2431.344          20.000                                                                                                                                  
> 2021 12  8  2 49  3.0000000  0 10                     
G10  21171038.477     -149743.207       -1785.939          31.000                                                                  
G23  20224315.338       20007.984         272.357          22.000                                                                  
R 8  20285950.712                                          31.000  
R 9  21378849.892                                          18.000  
R24  22356427.406                                          17.000  
E33  24625186.787       14917.998        1008.597          28.000                                                                  
C 8  36270423.858       41041.783        1220.205          24.000                                                                                                                                  
C 9  36675825.883        4236.657         258.843          24.000                                                                                                                                  
C13  35966487.122       17811.555        1014.160          24.000                                                                                                                                  
C20  25599176.587       36883.101        2427.932          24.000                                                                                                                                  
> 2021 12  8  2 49  4.0000000  0 13                     
G10  21170698.661     -159125.819       -1785.373          25.000    21170700.268       -5991.770       -1334.562          19.000  
G23  20224367.845       21438.387         273.254          20.000                                                                  
G32  22736420.570     -127053.481       -1630.191          28.000                                                                  
R 8  20285886.966                                          30.000  
R 9  21379234.583                                          18.000  
R24  22356285.677                                          14.000  
E33  24625378.600       20218.561        1008.755          20.000                                                                  
C 6  36078015.075        1048.020         345.140          24.000                                                                                                                                  
C 8  36270658.084       47388.703        1219.275          22.000                                                                                                                                  
C 9  36675877.824        5586.796         258.739          26.000                                                                                                                                  
C13  35966681.735       23086.042        1012.868          21.000                                                                                                                                  
C20  25599639.664       49523.532        2425.802          25.000                                                                                                                                  
C36  22653517.435       -7980.854       -1776.923          21.000                                                                                                                                  
> 2021 12  8  2 49  5.0000000  0 14                     
G10  21170357.492     -168507.157       -1785.015          27.000    21170361.873      -11225.315       -1330.555          18.000  
G23  20224420.299       22871.124         270.678          19.000                                                                  
G24  20795222.101       63979.764        2256.210          14.000                                                                  
G32  22736111.230     -135617.531       -1631.270          19.000                                                                  
R 8  20285822.138                                          21.000  
R 9  21379619.901                                          18.000  
R24  22356142.795                                          13.000  
E33  24625570.568       25521.313        1008.733          22.000                                                                  
C 6  36078079.761        2849.859         347.048          20.000                                                                                                                                  
C 8  36270892.328       53736.172        1218.971          22.000                                                                                                                                  
C 9  36675927.707        6938.303         260.389          25.000                                                                                                                                  
C13  35966876.413       28365.404        1014.730          24.000                                                                                                                                  
C20  25600104.695       62163.926        2427.736          25.000                                                                                                                                  
C36  22653168.692      -17246.730       -1780.970          25.000                                                                                                                                  
> 2021 12  8  2 49  6.0000000  0 14                     
G10  21170018.399     -177888.706       -1787.354          31.000    21170022.554      -16446.419       -1331.853          19.000  
G23  20224473.537       24296.112         271.064          22.000                                                                  
G24  20795651.202       75829.513        2253.666          15.000                                                                  
G32  22735801.626     -144196.114       -1632.655          19.000                                                                  
R 8  20285759.791                                          25.000  
R 9  21380009.391                                          17.000  
R24  22356001.675                                          13.000  
E33  24625765.696        4659.837        1008.607          24.000                                                                  
C 6  36078147.448        4661.358         345.638          21.000                                                                                                                                  
C 8  36271126.206       60086.847        1219.197          24.000                                                                                                                                  
C 9  36675977.973        8289.198         257.636          26.000                                                                                                                                  
C13  35967070.848       33648.395        1013.362          20.000                                                                                                                                  
C20  25600570.039       74799.453        2426.882          24.000                                                                                                                                  
C36  22652830.612      -26523.941       -1779.901          26.000                                                                                                                                  
> 2021 12  8  2 49  7.0000000  0 15                     
G10  21169681.986     -187279.499       -1787.779          32.000    21169681.726      -21682.107       -1334.279          20.000  
G12  23894918.023      -42630.599       -2352.783          17.000                                                                  
G23  20224528.225       25722.004         270.005          23.000                                                                  
G24  20796080.285       87677.752        2254.393          16.000                                                                  
G32  22735492.529     -152766.386          -0.006          21.000                                                                  
R 8  20285696.708                                          26.000  
R 9  21380396.490                                          16.000  
R24  22355860.817                                          12.000  
E33  24625955.537        9960.760        1008.612          25.000                                                                  
C 6  36078211.210        6455.756         344.379          23.000                                                                                                                                  
C 8  36271359.699       66429.966        1217.593          24.000                                                                                                                                  
C 9  36676027.698        9630.842         258.271          26.000                                                                                                                                  
C13  35967265.173       38917.880        1010.259          17.000                                                                                                                                  
C20  25601035.631       87436.559        2426.784          24.000                                                                                                                                  
C36  22652488.099      -35800.746       -1781.383          26.000                                                                                                                                  
> 2021 12  8  2 49  8.0000000  0 16                     
G10  21169343.173     -196668.760       -1785.450          33.000    21169341.656      -26917.448       -1332.614          20.000  
G12  23894479.740      -55005.731       -2355.355          17.000                                                                  
G23  20224579.842       27149.390         272.639          24.000                                                                  
G24  20796505.704       99514.655        2253.341          14.000                                                                  
G32  22735183.502     -161332.974          -0.006          19.000                                                                  
R 8  20285633.852                                          27.000  
R 9  21380783.799                                          15.000  
R24  22355702.233                                          14.000  
E33  24626146.756       15261.555        1008.684          28.000                                                                  
C 6  36078278.409        8243.630         342.666          21.000                                                                                                                                  
C 8  36271593.436       72768.500        1217.006          24.000                                                                                                                                  
C 9  36676076.935       10974.959         258.010          25.000                                                                                                                                  
C13  35967459.363       44183.208        1011.996          17.000                                                                                                                                  
C20  25601501.621      100069.523        2426.177          25.000                                                                                                                                  
C22  22737705.023       -5334.665       -1206.488          24.000                                                                                                                                  
C36  22652146.040      -45075.951       -1781.339          25.000                                                                                                                                  
> 2021 12  8  2 49  9.0000000  0 16                     
G10  21169004.743     -206051.502       -1782.915          33.000    21169001.796      -32149.513       -1333.686          20.000  
G12  23894045.927      -67385.156       -2356.536          19.000                                                                  
G23  20224632.942       28578.788         273.555          24.000                                                                  
G24  20796934.421      111352.708        2253.643          15.000                                                                  
G32  22734875.959     -169903.831          -0.006          15.000                                                                  
R 8  20285571.241                                          25.000  
R 9  21381172.992                                          19.000  
R24  22355561.235                                          13.000  
E33  24626338.866       20563.038        1008.930          27.000                                                                  
C 6  36078344.683       10026.322         342.429          22.000                                                                                                                                  
C 8  36271826.948       79106.696        1216.859          22.000                                                                                                                                  
C 9  36676125.631       12307.206         254.485          25.000                                                                                                                                  
C13  35967651.948       49455.997        1012.731          18.000                                                                                                                                  
C20  25601967.874      112711.256        2428.528          25.000                                                                                                                                  
C22  22737470.684      -11626.242       -1208.912          25.000                                                                                                                                  
C36  22651803.476      -54351.287       -1781.509          23.000                                                                                                                                  
> 2021 12  8  2 49 10.0000000  0 15                     
G10  21168663.207     -215442.887       -1789.392          31.000    21168661.761      -37387.633       -1334.447          18.000  
G12  23893616.582      -79763.681       -2355.659          17.000                                                                  
G23  20224685.343       30000.199         268.432          20.000                                                                  
G24  20797372.160      123194.544        2253.007          17.000                                                                  
G32  22734565.414     -178481.185          -0.006          17.000                                                                  
R 8  20285507.042                                          24.000  
R 9  21381562.411                                          18.000  
R24  22355419.958                                          13.000  
E33  24626530.016       25865.662        1009.895          20.000                                                                  
C 8  36272060.930       85443.962        1217.617          21.000                                                                                                                                  
C 9  36676174.301       13635.749         255.127          22.000                                                                                                                                  
C13  35967849.296       54728.823        1012.940          23.000                                                                                                                                  
C20  25602434.283      125349.328        2425.257          22.000                                                                                                                                  
C22  22737240.743      -17920.117       -1208.237          24.000                                                                                                                                  
C36  22651461.819      -63617.790       -1779.679          23.000                                                                                                                                  
> 2021 12  8  2 49 11.0000000  0 15                     
G10  21168324.613     -224835.597       -1787.335          33.000    21168322.102      -42622.418       -1332.898          17.000  
G12  23893168.352      -92142.445       -2354.811          15.000                                                                  
G23  20224736.889       31414.476         269.849          20.000                                                                  
G24  20797798.635      135041.094        2254.163          17.000                                                                  
G32  22734268.898     -187060.970          -0.006          19.000                                                                  
R 8  20285440.888                                          27.000  
R 9  21381951.744                                          17.000  
R24  22355278.961                                          17.000  
E33  24626722.649       31167.235        1008.420          22.000                                                                  
C 8  36272294.999       91790.896        1218.862          21.000                                                                                                                                  
C 9  36676223.468       14969.022         254.041          21.000                                                                                                                                  
C13  35968048.215       60001.023        1012.376          26.000                                                                                                                                  
C20  25602900.535      137991.116        2426.365          17.000                                                                                                                                  
C22  22737007.486      -24217.274       -1210.388          25.000                                                                                                                                  
C36  22651119.707      -72889.679       -1781.991          25.000                                                                                                                                  
> 2021 12  8  2 49 12.0000000  0 13                     
G10  21167984.718     -234232.506       -1785.794          32.000    21167984.911      -47853.406       -1332.160          16.000  
G12  23892726.233     -104518.734          -0.010          12.000                                                                  
G23  20224783.515       32839.083         271.396          25.000                                                                  
G24  20798227.754      146892.249        2257.497          17.000                                                                  
R 8  20285375.938                                          23.000  
R 9  21382341.984                                          18.000  
R24  22355137.982                                          17.000  
E33  24626913.257       36456.338        1007.299          19.000                                                                  
C 6  36078550.710        3665.845         341.063          21.000                                                                                                                                  
C 8  36272528.982       98133.454        1220.077          20.000                                                                                                                                  
C 9  36676273.769       16293.965         255.133          29.000                                                                                                                                  
C13  35968242.366       65264.599        1012.712          26.000                                                                                                                                  
C20  25603366.561      150626.938        2427.229          15.000                                                                                                                                  
> 2021 12  8  2 49 13.0000000  0 14                     
G10  21167646.236     -243620.465       -1787.295          36.000    21167645.819      -53081.503       -1330.598          15.000  
G12  23892278.108     -116894.119          -0.010          13.000                                                                  
G23  20224834.747       34267.092         272.341          23.000                                                                  
G24  20798669.803      158742.877        2253.672          19.000                                                                  
R 8  20285311.495                                          26.000  
R 9  21382727.983                                          20.000  
R24  22354986.043                                          17.000  
E33  24627104.407       41765.368        1009.268          20.000                                                                  
C 6  36078610.144        5444.944         341.776          21.000                                                                                                                                  
C 8  36272763.138      104483.721        1219.005          21.000                                                                                                                                  
C 9  36676323.460       17627.212         255.970          27.000                                                                                                                                  
C13  35968435.928       70531.466        1009.900          27.000                                                                                                                                  
C20  25603833.721      163273.254          -0.003          11.000                                                                                                                                  
C22  22736523.382       -5159.594       -1209.966          33.000                                                                    22736521.704       -4475.691        -911.346          20.000  
> 2021 12  8  2 49 14.0000000  0 15                     
G10  21167305.922     -253010.070       -1786.440          34.000    21167307.075      -58302.668       -1329.702          15.000  
G12  23891829.794     -129274.071          -0.010          13.000                                                                  
G23  20224885.596       35696.558         272.514          19.000                                                                  
G24  20799075.869      170584.809        2252.536          18.000                                                                  
R 8  20285246.318                                          23.000  
R 9  21383112.935                                          19.000  
R24  22354845.010                                          14.000  
E33  24627296.255       47064.457        1008.673          25.000                                                                  
C 6  36078669.036        7217.862         340.536          22.000                                                                                                                                  
C 8  36272997.451      110821.095        1217.236          25.000                                                                                                                                  
C 9  36676373.195       18954.548         254.742          25.000                                                                                                                                  
C13  35968629.877       75795.998        1010.771          26.000                                                                                                                                  
C20  25604300.514      175930.262          -0.003          12.000                                                                                                                                  
C22  22736292.760      -11454.979       -1208.958          33.000                                                                    22736290.192       -8042.168        -909.416          20.000  
C36  22650095.870      -12433.344       -1779.844          25.000                                                                                                                                  
> 2021 12  8  2 49 15.0000000  0 14                     
G10  21166964.675     -262403.009       -1786.871          35.000    21166967.556      -63531.612       -1334.806          14.000  
G23  20224937.841       37123.958         271.774          22.000                                                                  
G24  20799506.052      182417.968        2252.239          20.000                                                                  
R 8  20285183.340                                          32.000  
R 9  21383490.350                                          16.000  
R24  22354701.133                                          15.000  
E33  24627488.137       52372.582        1010.065          20.000                                                                  
C 6  36078734.298        8985.739         337.011          17.000                                                                                                                                  
C 8  36273231.486      117169.165        1218.913          24.000                                                                                                                                  
C 9  36676422.309       20284.944         254.190          17.000                                                                                                                                  
C13  35968824.015       81069.016        1012.185          25.000                                                                                                                                  
C20  25604766.801      188580.467          -0.003          14.000                                                                                                                                  
C22  22736062.050      -17744.715       -1206.984          31.000                                                                    22736058.017      -11616.583        -913.820          19.000  
C36  22649754.840      -21707.161       -1782.020          19.000                                                                                                                                  
> 2021 12  8  2 49 16.0000000  0 13                     
G10  21166624.867     -271790.428       -1786.572          33.000    21166619.790      -68765.025       -1333.679          15.000  
G23  20224992.004       38559.473         273.359          24.000                                                                  
G24  20799936.095      194256.857        2252.136          20.000                                                                  
R 8  20285118.216                                          28.000  
R 9  21383875.721                                          16.000  
R24  22354559.405                                          16.000  
E33  24627680.439       57695.306        1015.137          18.000                                                                  
C 8  36273465.346      123510.391        1216.210          24.000                                                                                                                                  
C 9  36676471.441       21616.589         257.488          15.000                                                                                                                                  
C13  35969018.480       86335.324        1010.319          24.000                                                                                                                                  
C20  25605233.420      201232.268          -0.003          16.000                                                                                                                                  
C22  22735830.503      -24039.651       -1210.453          31.000                                                                    22735825.580      -15196.833        -911.281          17.000  
C36  22649412.763      -30982.826       -1780.070          17.000                                                                                                                                  
> 2021 12  8  2 49 17.0000000  0 14                     
G10  21166283.959     -281181.238       -1787.846          30.000    21166280.418      -73991.826       -1333.259          13.000  
G23  20225044.476       39996.894         273.299          24.000                                                                  
G24  20800363.922      206093.462        2252.774          18.000                                                                  
R 8  20285054.924                                          27.000  
R 9  21384264.443                                          16.000  
R24  22354417.814                                          17.000  
E33  24627873.176       63023.566        1011.285          20.000                                                                  
C 8  36273699.276      129844.575        1214.789          19.000                                                                                                                                  
C 9  36676520.722       22951.911         255.375          20.000                                                                                                                                  
C13  35969213.630       91600.746        1010.760          28.000                                                                                                                                  
C19  22305682.916       29407.675         971.172          20.000                                                                                                                                  
C20  25605699.725      213875.662          -0.003          19.000                                                                                                                                  
C22  22735599.026      -30336.346       -1210.731          28.000                                                                    22735593.143      -18768.993        -910.444          17.000  
C36  22649070.792      -40256.117       -1780.667          21.000                                                                                                                                  
> 2021 12  8  2 49 18.0000000  0 15                     
G10  21165945.784     -290571.157       -1787.152          32.000                                                                  
G23  20225096.371       41433.363         272.309          24.000                                                                  
G24  20800792.569      217930.275        2251.996          15.000                                                                  
R 8  20284989.974                                          25.000  
R 9  21384654.962                                          15.000  
R24  22354275.996                                          18.000  
E33  24628063.890       68333.550        1010.479          24.000                                                                  
C 6  36078949.000        5251.751         339.389          29.000                                                                                                                                  
C 8  36273932.124      136156.845        1210.544          17.000                                                                                                                                  
C 9  36676569.680       24273.533         253.014          25.000                                                                                                                                  
C13  35969407.418       96855.156        1012.281          27.000                                                                                                                                  
C19  22305869.110       34455.366         966.584          16.000                                                                                                                                  
C20  25606158.875      226500.609        2422.510          20.000                                                                                                                                  
C22  22735367.252      -36632.581       -1208.863          25.000                                                                    22735363.097      -22339.970        -909.826          19.000  
C36  22648715.016      -49528.453       -1780.171          26.000                                                                                                                                  
> 2021 12  8  2 49 19.0000000  0 15                     
G10  21165603.371     -299962.618       -1786.667          31.000                                                                  
G23  20225148.704       42860.011         272.571          21.000                                                                  
G24  20801224.497      229759.481        2250.228          15.000                                                                  
R 8  20284929.248                                          31.000  
R 9  21385044.940                                          18.000  
R24  22354137.336                                          17.000  
E33  24628256.645       73631.857        1009.920          26.000                                                                  
C 6  36079003.496        7017.423         341.181          27.000                                                                                                                                  
C 8  36274165.007      142470.721        1214.370          19.000                                                                                                                                  
C 9  36676618.498       25593.111         253.565          24.000                                                                                                                                  
C13  35969601.765      102121.876        1011.584          25.000                                                                                                                                  
C19  22306054.693       39487.259         966.130          15.000                                                                                                                                  
C20  25606619.997      239118.158        2422.280          19.000                                                                                                                                  
C22  22735135.252      -42929.933       -1210.818          28.000                                                                    22735130.607      -25913.528        -910.270          19.000  
C36  22648373.483      -58793.214       -1777.744          30.000                                                                                                                                  
> 2021 12  8  2 49 20.0000000  0 15                     
G10  21165262.840     -309351.725       -1784.717          31.000                                                                  
G23  20225199.831       44293.223         273.812          20.000                                                                  
G24  20801652.429      241576.536        2248.396          11.000                                                                  
R 8  20284863.582                                          28.000  
R 9  21385437.937                                          16.000  
R24  22353997.108                                          17.000  
E33  24628448.999       78945.139        1011.387          23.000                                                                  
C 6  36079069.229        8800.786         344.567          19.000                                                                                                                                  
C 8  36274396.807      148800.270        1216.401          17.000                                                                                                                                  
C 9  36676667.769       26915.980         255.041          19.000                                                                                                                                  
C13  35969795.397      107386.089        1010.999          27.000                                                                                                                                  
C19  22306237.362       44529.508         968.309          16.000                                                                                                                                  
C20  25607085.481      251739.305        2423.033          17.000                                                                                                                                  
C22  22734903.391      -49229.967       -1210.761          28.000                                                                    22734898.502      -29483.143        -909.828          19.000  
C36  22648031.720      -68065.090       -1782.684          26.000                                                                    22648035.016       -9881.564       -1342.991          17.000  
> 2021 12  8  2 49 21.0000000  0 15                     
G10  21164924.358     -318744.918       -1788.298          33.000    21164914.535      -94947.957       -1335.051          19.000  
G23  20225251.185       45715.717         271.911          19.000                                                                  
G24  20802080.448      253394.673        2247.618          12.000                                                                  
R 8  20284799.854                                          27.000  
R 9  21385830.969                                          17.000  
R24  22353857.070                                          16.000  
E33  24628640.515       84257.614        1010.709          22.000    24628642.331        6285.400         757.243          17.000  
C 6  36079135.082       10585.842         343.608          17.000                                                                                                                                  
C 8  36274630.196      155128.255        1215.271          20.000                                                                                                                                  
C 9  36676716.570       28247.500         254.573          19.000                                                                                                                                  
C13  35969989.391      112648.910        1010.362          25.000                                                                                                                                  
C19  22306423.468       49574.928         969.543          17.000                                                                                                                                  
C20  25607550.530      264355.717        2421.492          17.000                                                                                                                                  
C22  22734671.408      -55536.348       -1211.248          30.000                                                                    22734666.815      -33056.099        -910.692          17.000  
C36  22647688.998      -77342.310       -1780.547          24.000                                                                    22647693.672      -15147.693       -1342.236          17.000  
> 2021 12  8  2 49 22.0000000  0 14                     
G10  21164583.590     -328135.386       -1787.398          33.000    21164573.279     -100193.914       -1338.583          19.000  
G23  20225303.081       47152.805         275.628          18.000                                                                  
R 8  20303448.642                                          30.000  
R 9  21386218.959                                          18.000  
R24  22353709.668                                          14.000  
E33  24628833.270       89581.036        1014.588          21.000    24628836.168        9252.531         753.869          16.000  
C 6  36079197.831       12352.829         339.053          20.000                                                                                                                                  
C 8  36274868.279      161452.786        1215.108          23.000                                                                                                                                  
C 9  36676765.964       29579.039         256.091          23.000                                                                                                                                  
C13  35970182.883      117915.368        1011.438          25.000                                                                                                                                  
C19  22306609.697       54623.167         969.394          15.000                                                                                                                                  
C20  25608015.473      276962.530        2420.566          15.000                                                                                                                                  
C22  22734440.663      -61833.876       -1209.515          29.000                                                                    22734434.693      -36631.658        -912.487          19.000  
C36  22647347.061      -86614.710       -1782.636          19.000                                                                    22647350.095      -20414.236       -1341.338          17.000  
> 2021 12  8  2 49 23.0000000  0 14                     
G10  21164244.271     -337525.505       -1786.832          34.000    21164234.430     -105437.297       -1336.572          18.000  
G23  20225355.552       48600.883         274.142          17.000                                                                  
R 8  20303385.699                                          29.000  
R 9  21386609.320                                          17.000  
R24  22353569.962                                          12.000  
E33  24629025.641       94902.189        1012.205          22.000    24629027.213       12212.280         752.293          17.000  
C 6  36079258.870       14111.652         338.278          23.000                                                                                                                                  
C 8  36275106.449      167780.321        1215.081          24.000                                                                                                                                  
C 9  36676815.270       30908.958         253.936          20.000                                                                                                                                  
C13  35970377.352      123184.647        1010.533          23.000                                                                                                                                  
C19  22306797.828       59673.371          -0.007          15.000                                                                                                                                  
C20  25608483.226      289572.526        2421.086          15.000                                                                                                                                  
C22  22734209.919      -68133.289       -1209.630          33.000                                                                    22734200.633      -40216.742        -916.505          17.000  
C36  22647005.141      -95891.834       -1781.634          20.000                                                                    22647008.629      -25674.106       -1339.733          17.000  
> 2021 12  8  2 49 24.0000000  0 14                     
G10  21163903.547     -346914.812       -1789.933          34.000    21163895.783     -110674.739       -1336.283          19.000  
G23  20225407.709       50039.295         273.755          17.000                                                                  
G24  20803368.309      288829.875        2248.830          16.000                                                                  
R 8  20303321.814                                          31.000  
