     3.03           OBSERVATION DATA    M: Mixed            RINEX VERSION / TYPE
Geo++ RINEX Logger  Geo++               20211106 072323 UTC PGM / RUN BY / DATE
************************************************************COMMENT
This file was generated by the Geo++ RINEX Logger App       COMMENT
for Android devices (Version 2.1.6). If you encounter       COMMENT
any issues, please send an email to android@geopp.de        COMMENT
Filtering Mode: MORE                                        COMMENT
************************************************************COMMENT
Very close agent                                            MARKER NAME
HUMAN                                                       MARKER TYPE
Zhang Guohao        PolyU IPNL                              OBSERVER / AGENCY
unknown             HUAWEI              ELS-AN00            REC # / TYPE / VERS
unknown             ELS-AN00                                ANT # / TYPE
 -2418940.9906  5385389.8315  2405883.0356                  APPROX POSITION XYZ
        0.0000        0.0000        0.0000                  ANTENNA: DELTA H/E/N
G    8 C1C L1C D1C S1C C5Q L5Q D5Q S5Q                      SYS / # / OBS TYPES
R    4 C1C L1C D1C S1C                                      SYS / # / OBS TYPES
E   12 C1B L1B D1B S1B C1C L1C D1C S1C C5Q L5Q D5Q S5Q      SYS / # / OBS TYPES
C    4 C2I L2I D2I S2I                                      SYS / # / OBS TYPES
J    8 C1C L1C D1C S1C C5Q L5Q D5Q S5Q                      SYS / # / OBS TYPES
  2021    11     6     7    23   41.9264200     GPS         TIME OF FIRST OBS
 24 R01  1 R02 -4 R03  5 R04  6 R05  1 R06 -4 R07  5 R08  6 GLONASS SLOT / FRQ #
    R09 -2 R10 -5 R11  0 R12 -1 R13 -2 R14 -7 R15  0 R16 -1 GLONASS SLOT / FRQ #
    R17  4 R18 -3 R19  3 R20  2 R21  4 R22 -3 R23  3 R24  2 GLONASS SLOT / FRQ #
G L1C                                                       SYS / PHASE SHIFT
G L5Q -0.25000                                              SYS / PHASE SHIFT
R L1C                                                       SYS / PHASE SHIFT
E L1B                                                       SYS / PHASE SHIFT
E L1C +0.50000                                              SYS / PHASE SHIFT
E L5Q -0.25000                                              SYS / PHASE SHIFT
C L2I                                                       SYS / PHASE SHIFT
J L1C                                                       SYS / PHASE SHIFT
J L5Q -0.25000                                              SYS / PHASE SHIFT
 C1C    0.000 C1P    0.000 C2C    0.000 C2P    0.000        GLONASS COD/PHS/BIS
                                                            END OF HEADER
> 2021 11  6  7 23 41.9264200  3  1
Very close agent                                            MARKER NAME
> 2021 11  6  7 23 41.9264200  0  1
C054911651257.620                           0.000          35.000  
> 2021 11  6  7 23 42.9264200  0  1
C054911651489.340                           0.000          34.000  
> 2021 11  6  7 23 43.9264200  0  6
C054911651722.000                           0.000          39.000  
G10  20680485.997                           0.000          47.000  
G25  20899973.350                           0.000          28.000  
G26  25223958.517                           0.000          38.000  
G31  20949171.690                           0.000          46.000  
G32  21222453.201                           0.000          36.000  
> 2021 11  6  7 25 57.0437294  0  7
C05  40826486.412                       -1210.591          38.000  
G10  22184638.294                       -2559.124          46.000  
G23  24156095.983                       -4405.979          37.000  
G25  22713179.893                       -2458.128          27.000  
G26  24851358.463                        2373.215          38.000  
G31  22956698.009                        -466.114          46.000  
G32  23097929.936                         -66.803          39.000  
> 2021 11  6  7 25 58.0437294  0 15
C05  40826724.147                       -1211.644          39.000  
C069645048774.042                           0.000          38.000  
C079645357917.627                           0.000          39.000  
C099645263606.517                           0.000          40.000  
C139645579137.179                       -1210.591          38.000  
C169644849128.154                           0.000          35.000  
C239629849311.111                           0.000          45.000  
C329629739438.375                           0.000          43.000  
C379630185463.898                           0.000          43.000  
G10  22185125.757                       -2559.962          46.000  
G23  24156936.301                       -4406.649          37.000  
G25  22713647.869                       -2460.098          27.000  
G26  24850911.172                        2371.074          37.000  
G31  22956787.946                        -466.879          46.000  
G32  23097942.827                         -67.743          39.000  
> 2021 11  6  7 25 59.0437294  0 15
C05  40826956.186                       -1212.016          38.000  
C06  38591570.212                       -1114.449          38.000  
C07  39624510.822                         173.673          39.000  
C09  39428943.610                       -1202.557          40.000  
C13  39366606.266                       -2934.440          38.000  
C16  39039807.903                       -1061.367          34.000  
C23  24158581.262                       -2707.930          44.000  
C32  23975072.603                         125.879          42.000  
C37  24402349.105                         -38.637          42.000  
G10  22185612.920                       -2560.784          45.000  
G23  24157775.720                       -4407.112          37.000  
G25  22714117.644                       -2461.109          28.000  
G26  24850457.886                        2372.636          37.000  
G31  22956876.685                        -467.131          46.000  
G32  23097955.418                         -67.082          38.000  
> 2021 11  6  7 26  0.0437294  0 15
C05  40827188.825                       -1212.525          38.000  
C06  38591787.861                       -1115.135          38.000  
C07  39624476.945                         173.400          39.000  
C09  39429174.750                       -1202.750          40.000  
C13  39367169.576                       -2935.039          38.000  
C16  39040009.664                       -1060.982          34.000  
C23  24159101.702                       -2708.690          44.000  
C32  23975049.219                         124.746          43.000  
C37  24402357.799                         -39.133          43.000  
G10  22186099.483                       -2562.068          46.000  
G23  24158613.940                       -4407.339          37.000  
G25  22714585.620                       -2461.763          29.000  
G26  24850005.499                        2370.323          38.000  
G31  22956965.424                        -467.873          46.000  
G32  23097968.309                         -68.237          39.000  
> 2021 11  6  7 26  1.0437294  0 15
C05  40827421.464                       -1212.887          38.000  
C06  38592002.812                       -1114.711          38.000  
C07  39624443.668                         172.134          39.000  
C09  39429405.591                       -1204.042          40.000  
C13  39367733.485                       -2935.719          38.000  
C16  39040217.120                       -1061.891          35.000  
C23  24159621.242                       -2709.424          44.000  
C32  23975025.535                         124.150          42.000  
C37  24402364.395                         -39.995          43.000  
G10  22186586.646                       -2562.542          46.000    22186594.140                       -1913.711          36.000  
G23  24159449.461                       -4408.438          37.000  
G25  22715054.495                       -2461.586          29.000  
G26  24849554.312                        2369.813          38.000  
G31  22957054.162                        -468.304          46.000  
G32  23097979.701                         -69.070          40.000  
> 2021 11  6  7 26  2.0437294  0 19
C05  40827653.803                       -1213.292          38.000  
C06  38592218.663                       -1115.535          38.000  
C07  39624409.792                         172.155          39.000  
C09  39429637.930                       -1204.172          40.000  
C13  39368297.395                       -2936.754          38.000  
C16  39040419.180                       -1062.615          35.000  
C23  24160141.682                       -2710.743          44.000  
C32  23975001.252                         122.690          42.000  
C37  24402371.590                         -41.419          43.000  
E02  25224654.035                          19.049          43.000  
E03  25836453.995                        -687.733          41.000  
G10  22187074.708                       -2564.666          46.000    22187081.603                       -1913.177          36.000  
G23  24160287.381                       -4409.208          37.000  
G25  22715524.869                       -2463.531          29.000  
G26  24849102.224                        2369.283          37.000  
G31  22957143.800                        -470.087          46.000  
G32  23097993.792                         -69.740          40.000  
J01  39354406.212                         -56.635          29.000  
J02  39587976.914                       -1984.236          26.000  
> 2021 11  6  7 26  3.0437294  0 19
C05  40827886.143                       -1213.616          38.000  
C06  38592432.115                       -1116.221          38.000  
C07  39624377.414                         171.284          39.000  
C09  39429869.669                       -1204.474          40.000  
C13  39368859.506                       -2936.124          38.000  
C16  39040622.439                       -1062.495          35.000  
C23  24160662.421                       -2711.138          44.000  
C32  23974977.269                         122.785          42.000  
C37  24402379.984                         -42.127          43.000  
E02  25224650.738                          19.031          43.000  
E03  25836585.004                        -687.638          41.000  
G10  22187564.269                       -2565.019          46.000    22187569.665                       -1915.846          36.000  
G23  24161127.699                       -4410.117          37.000  
G25  22715993.445                       -2465.116          29.000  
G26  24848653.135                        2369.277          37.000  
G31  22957234.337                        -470.399          46.000  
G32  23098009.081                         -69.079          40.000  
J01  39354418.203                         -57.910          30.000  
J02  39588351.654                       -1984.320          26.000  
> 2021 11  6  7 26  4.0437294  0 20
C03  38133133.881                       -1214.143          43.000  
C05  40828119.381                       -1214.640          38.000  
C06  38592646.167                       -1116.743          39.000  
C07  39624346.536                         171.071          40.000  
C09  39430100.509                       -1204.672          40.000  
C109647079862.549                       -1204.474          32.000  
C13  39369424.614                       -2937.688          38.000  
C16  39040828.097                       -1063.029          36.000  
C23  24161182.561                       -2711.948          44.000  
C32  23974953.585                         121.224          43.000  
C37  24402387.778                         -43.055          43.000  
E02  25224646.541                          17.907          43.000  
E03  25836715.114                        -689.073          41.000  
G10  22188052.631                       -2566.486          46.000    22188057.727                       -1915.569          36.000  
G23  24161967.718                       -4411.345          37.000  
G26  24848203.147                        2368.912          37.000  
G31  22957323.975                        -471.072          46.000  
G32  23098020.473                         -70.165          40.000  
J01  39354430.195                         -58.253          29.000  
J02  39588727.594                       -1983.542          27.000  
> 2021 11  6  7 26  5.0437294  0 19
C03  38133367.719                       -1214.757          43.000  
C05  40828355.318                       -1217.321          38.000  
C06  38592861.118                       -1116.958          38.000  
C07  39624312.659                         171.393          40.000  
C09  39430333.448                       -1205.336          41.000  
C10  40364244.515                          60.072          32.000  
C13  39369988.824                       -2937.451          38.000  
C16  39041031.956                       -1063.452          35.000  
C23  24161702.701                       -2712.584          44.000  
C32  23974929.901                         120.026          42.000  
C37  24402395.273                         -43.608          43.000  
E02  25224642.943                          17.616          43.000  
E03  25836846.723                        -689.452          41.000  
G10  22188540.693                       -2567.510          47.000    22188546.689                       -1917.098          36.000  
G23  24162804.439                       -4411.910          37.000  
G26  24847753.158                        2368.334          37.000  
G31  22957412.114                        -472.756          46.000  
G32  23098032.765                         -70.544          40.000  
J01  39354440.688                         -58.985          29.000  
> 2021 11  6  7 26  6.0437294  0 20
C03  38133601.257                       -1215.346          43.000  
C05  40828587.957                       -1216.368          36.000  
C06  38593074.870                       -1117.328          39.000  
C07  39624279.982                         170.239          40.000  
C09  39430563.989                       -1205.374          40.000  
C10  40364234.922                          58.514          33.000  
C13  39370552.134                       -2939.410          38.000  
C16  39041236.714                       -1064.531          35.000  
C23  24162224.340                       -2713.544          44.000  
C32  23974907.417                         119.606          43.000  
C37  24402404.267                         -45.080          43.000  
E02  25224640.245                          16.077          43.000  
E03  25836978.032                        -689.619          41.000  
G10  22189029.355                       -2568.855          46.000    22189035.350                       -1917.782          36.000  
G23  24163646.556                       -4412.955          37.000  
G26  24847300.772                        2366.650          37.000  
G31  22957502.052                        -473.539          46.000  
G32  23098047.454                         -72.061          40.000  
J01  39354452.380                         -59.303          29.000  
J02  39589487.568                       -1985.934          26.000  
> 2021 11  6  7 26  7.0437294  0 20
C03  38133834.196                       -1216.092          43.000  
C05  40828821.195                       -1215.565          38.000  
C06  38593288.922                       -1117.304          38.000  
C07  39624247.604                         169.564          40.000  
C09  39430794.829                       -1206.040          40.000  
C10  40364221.131                          58.629          33.000  
C13  39371116.643                       -2939.098          38.000  
C16  39041442.072                       -1064.740          35.000  
C23  24162745.679                       -2714.022          44.000  
C32  23974885.532                         118.434          42.000  
C37  24402413.860                         -45.349          42.000  
E02  25224636.947                          15.306          43.000  
E03  25837109.341                        -691.060          41.000  
G10  22189518.916                       -2569.767          46.000    22189524.612                       -1918.229          36.000  
G23  24164484.476                       -4413.556          37.000  
G26  24846851.383                        2365.837          37.000  
G31  22957592.290                        -474.202          46.000  
G32  23098061.245                         -72.730          40.000    23098068.140                         -55.487          28.000  
J01  39354464.671                         -59.986          30.000  
J02  39589866.806                       -1987.455          28.000  
> 2021 11  6  7 26  8.0437294  0 20
C03  38134067.135                       -1216.331          43.000  
C05  40829053.834                       -1215.627          38.000  
C06  38593504.173                       -1117.431          38.000  
C07  39624215.526                         169.397          40.000  
C09  39431026.269                       -1206.485          40.000  
C10  40364212.437                          58.472          33.000  
C13  39371681.752                       -2940.083          38.000  
C16  39041645.631                       -1064.860          36.000  
C23  24163266.719                       -2714.993          45.000  
C32  23974862.448                         117.616          42.000  
C37  24402422.554                         -46.229          43.000  
E02  25224633.649                          14.713          43.000  
E03  25837241.550                        -691.572          41.000  
G10  22190007.577                       -2570.970          47.000    22190013.573                       -1919.703          36.000  
G23  24165323.295                       -4414.189          37.000  
G26  24846398.996                        2364.920          37.000  
G31  22957681.628                        -475.569          46.000  
G32  23098075.935                         -73.881          41.000    23098081.631                         -53.205          28.000  
J01  39354476.363                         -59.906          29.000  
J02  39590245.743                       -1986.488          28.000  
> 2021 11  6  7 26  9.0437294  0 20
C03  38134300.973                       -1216.543          43.000  
C05  40829287.373                       -1216.720          38.000  
C06  38593716.426                       -1117.613          38.000  
C07  39624182.249                         168.807          40.000  
C09  39431258.308                       -1205.931          40.000  
C10  40364202.244                          57.903          33.000  
C13  39372247.460                       -2939.711          38.000  
C16  39041850.389                       -1064.846          35.000  
C23  24163788.357                       -2715.490          44.000  
C32  23974840.563                         117.012          43.000  
C37  24402431.848                         -47.605          43.000  
E02  25224631.851                          13.318          43.000  
E03  25837372.859                        -691.734          41.000  
G10  22190497.438                       -2571.839          47.000    22190502.835                       -1920.620          36.000  
G23  24166163.013                       -4415.196          37.000  
G26  24845949.007                        2366.234          37.000  
G31  22957772.165                        -476.037          46.000  
G32  23098089.425                         -73.418          40.000    23098095.421                         -54.237          29.000  
J01  39354486.856                         -60.309          30.000  
J02  39590624.981                       -1987.665          28.000  
> 2021 11  6  7 26 10.0437294  0 19
C03  38134535.410                       -1217.273          43.000  
C05  40829521.211                       -1216.884          38.000  
C06  38593932.876                       -1118.451          38.000  
C07  39624149.572                         167.510          40.000  
C09  39431490.947                       -1207.261          40.000  
C10  40364189.053                          56.869          32.000  
C13  39372810.770                       -2941.562          38.000  
C16  39042056.647                       -1065.895          35.000  
C23  24164309.696                       -2716.532          45.000  
C32  23974818.978                         115.734          42.000  
C37  24402440.842                         -48.547          43.000  
E02  25224629.752                          12.503          43.000  
E03  25837505.067                        -693.550          41.000  
G10  22190986.400                       -2573.622          47.000    22190992.396                       -1920.927          36.000  
G23  24167003.332                       -4416.310          37.000  
G26  24845498.120                        2363.963          37.000  
G31  22957862.702                        -477.035          45.000  
G32  23098102.317                         -73.725          41.000    23098109.512                         -56.435          29.000  
J01  39354498.847                         -60.575          30.000  
> 2021 11  6  7 26 11.0437294  0 20
C03  38134769.848                       -1217.796          43.000  
C05  40829754.749                       -1217.077          38.000  
C06  38594147.228                       -1120.221          38.000  
C07  39624117.194                         167.765          40.000  
C09  39431721.187                       -1207.310          41.000  
C10  40364176.162                          57.619          33.000  
C13  39373377.078                       -2941.472          38.000  
C16  39042261.405                       -1065.926          36.000  
C23  24164831.635                       -2717.567          45.000  
C32  23974795.894                         115.266          42.000  
C37  24402449.536                         -49.408          43.000  
E02  25224627.054                          11.755          43.000    25224633.649                           7.688          33.000  
E03  25837636.976                        -692.946          41.000    25837647.169                        -518.045          29.000  
G10  22191476.261                       -2574.755          47.000    22191481.957                       -1922.060          36.000  
G23  24167845.749                       -4417.325          37.000  
G26  24845049.630                        2363.334          37.000  
G31  22957952.940                        -477.917          45.000  
G32  23098116.407                         -75.218          40.000    23098123.602                         -55.267          29.000  
J01  39354511.738                         -62.614          30.000  
J02  39591387.353                       -1988.089          28.000  
> 2021 11  6  7 26 12.0437294  0 20
C03  38135002.787                       -1218.495          43.000  
C05  40829989.187                       -1218.910          38.000  
C06  38594363.078                       -1119.612          38.000  
C07  39624086.016                         166.433          40.000  
C09  39431953.527                       -1208.624          40.000  
C10  40364166.869                          55.669          33.000  
C13  39373941.288                       -2942.825          38.000  
C16  39042465.863                       -1066.274          36.000  
C23  24165354.173                       -2718.377          45.000  
C32  23974774.309                         114.213          42.000  
C37  24402459.429                         -49.873          43.000  
E02  25224625.255                          10.315          43.000    25224631.251                           8.942          33.000  
E03  25837769.484                        -693.487          42.000    25837779.977                        -518.955          29.000  
G10  22191965.522                       -2575.436          47.000    22191971.818                       -1922.826          37.000  
G23  24168686.666                       -4417.144          37.000  
G26  24844601.740                        2363.785          37.000  
G31  22958044.976                        -478.644          46.000  
G32  23098130.197                         -75.636          40.000    23098137.692                         -55.952          29.000  
J01  39354523.730                         -62.793          30.000  
J02  39591766.590                       -1989.947          27.000  
> 2021 11  6  7 26 13.0437294  0 20
C03  38135236.025   198580186.3561      -1218.889          43.000  
C05  40830223.924   212613688.2541      -1219.446          38.000  
C06  38594577.430   200972096.6471      -1121.018          38.000  
C07  39624054.238   206333010.0731        165.930          40.000  
C09  39432185.566   205333738.5351      -1208.782          41.000  
C10  40364158.175   210186869.5731         56.254          32.000  
C13  39374504.598   205033387.3001      -2942.282          38.000  
C16  39042670.022   203305432.5041      -1066.370          36.000  
C23  24165876.412   125838059.7931      -2719.307          44.000  
C32  23974752.124   124842939.0071        113.570          42.000  
C37  24402468.722   127070060.7161        -50.946          43.000  
E02  25224623.157   132556442.9811          9.918          42.000    25224629.452    98986873.1481          8.471          33.000  
E03  25837902.592   135779089.8131       -695.092          41.000    25837912.485   101393518.2161       -519.591          29.000  
G10  22192457.182   116622142.2761      -2576.696          47.000    22192462.278    87087987.7191      -1924.134          36.000  
G23  24169526.385   127011724.0841      -4417.850          37.000  
G26  24844149.653   130556901.7251       2360.872          37.000  
G31  22958135.214   120645820.4681       -479.373          45.000  
G32  23098146.086   121381423.3301        -76.204          40.000    23098152.382    90642056.3141        -57.831          29.000  
J01  39354535.422   206809481.2521        -62.982          30.000  
J02  39592144.928   208058128.1221      -1989.723          27.000  
> 2021 11  6  7 26 14.0437294  0 20
C03  38135470.163   198581405.329       -1219.129          43.000  
C05  40830458.062   212614907.985       -1219.836          38.000  
C06  38594793.281   200973216.824       -1120.170          39.000  
C07  39624022.760   206332844.255         166.001          40.000  
C09  39432418.505   205334947.183       -1208.970          40.000  
C10  40364145.883   210186814.213          55.156          33.000  
C13  39375069.407   205036329.956       -2942.281          38.000  
C16  39042873.881   203306499.186       -1065.670          36.000  
C23  24166398.950   125840779.103       -2719.474          45.000  
C32  23974730.539   124842825.872         113.240          42.000  
C37  24402478.616   127070112.047         -51.908          43.000  
E02  25224620.758   132556433.472           9.815          43.000    25224628.253    98986866.097           6.952          33.000  
E03  25838034.501   135779784.582        -695.258          41.000    25838044.394   101394037.447        -519.824          29.000  
G10  22192947.342                       -2577.560          47.000    22192952.739    87089912.103       -1924.647          36.000  
G23  24170368.802                       -4418.918          38.000  
G26  24843700.264                        2362.338          37.000  
G31  22958226.650                        -480.180          45.000  
G32  23098160.476                         -75.827          40.000    23098167.971    90642113.787         -57.471          29.000  
J01  39354548.013   206809544.606         -63.713          31.000  
J02  39592523.866   208060117.481       -1989.438          28.000  
> 2021 11  6  7 26 15.0437294  0 20
C03  38135704.601   198582624.617       -1219.648          43.000  
C05  40830691.301   212616127.749       -1219.836          38.000  
C06  38595008.532                       -1120.821          38.000  
C07  39623991.282                         165.231          40.000  
C09  39432649.944                       -1209.099          40.000  
C10  40364134.491                          55.160          33.000  
C13  39375635.115                       -2943.137          38.000  
C16  39043078.939                       -1067.390          36.000  
C23  24166920.889                       -2720.651          45.000  
C32  23974709.254                         112.021          42.000  
C37  24402488.509                         -52.276          43.000  
E02  25224618.960   132556424.815           7.984          43.000    25224626.155    98986859.622           5.567          33.000  
E03  25838167.609   135780479.872        -695.626          42.000    25838176.003   101394556.297        -519.309          29.000  
G10  22193438.402   116627297.3201      -2578.912          47.000    22193442.899    87091837.257       -1925.209          37.000  
G23  24171206.122   127020562.0871      -4419.896          37.000  
G26  24843253.573   130552178.7871       2362.441          37.000  
G31  22958318.687   120646780.8431       -481.271          45.000  
G32  23098174.566   121381576.0671        -77.541          41.000    23098182.361    90642170.892         -57.209          29.000  
J01  39354560.305   206809607.961         -63.311          31.000  
J02  39592902.204   208062107.002       -1989.533          28.000  
> 2021 11  6  7 26 16.0437294  0 20
C03  38135939.339   198583844.539       -1220.287          43.000  
C05  40830924.539   212617347.499       -1219.839          38.000  
C06  38595223.183   200975458.7621      -1120.528          39.000  
C07  39623959.803   206332514.0981        165.192          40.000  
C09  39432881.984   205337365.4861      -1209.111          40.000  
C10  40364124.298   210186704.9151         54.130          33.000  
C13  39376201.423   205042217.2151      -2943.324          38.000  
C16  39043285.796   203308633.5761      -1066.614          36.000  
C23  24167442.228   125846219.9501      -2720.947          45.000  
C32  23974687.969   124842602.0221        110.934          42.000  
C37  24402499.301   127070217.2331        -53.505          43.000  
E02  25224617.161   132556417.062           7.466          42.000    25224624.956    98986853.797           5.854          33.000  
E03  25838300.117   135781175.799        -695.875          42.000    25838307.612   101395074.924        -518.682          28.000  
G10  22193928.563   116629876.514       -2579.346          47.000    22193933.959    87093763.311       -1926.631          36.000  
G23  24172048.839   127024982.224       -4420.591          37.000  
G26  24842802.985   130549817.997        2360.087          36.000  
G31  22958410.723   120647262.314        -481.814          45.000  
G32  23098191.055   121381653.286         -77.545          41.000    23098196.751    90642227.551         -56.928          29.000  
J01  39354571.397   206809671.639         -64.142          31.000  
J02  39593282.041   208064096.607       -1989.067          28.000  
> 2021 11  6  7 26 17.0437294  0 20
C03  38136173.476   198585064.905       -1220.680          43.000  
C05  40831160.476   212618567.502       -1220.731          38.000  
C06  38595439.034   200976580.059       -1121.062          39.000  
C07  39623928.625   206332349.813         164.590          40.000  
C09  39433114.623   205338575.247       -1210.321          40.000  
C10  40364115.304   210186651.020          53.829          33.000  
C13  39376767.431   205045161.422       -2944.806          38.000  
C16  39043491.753   203309701.329       -1068.140          36.000  
C23  24167965.666   125848941.541       -2722.378          44.000  
C32  23974666.084   124842491.359         109.594          42.000  
C37  24402509.794   127070271.160         -54.680          43.000  
E02  25224615.962   132556410.227           6.051          43.000    25224623.457    98986848.712           4.331          33.000  
E03  25838433.824   135781872.341        -697.277          42.000    25838440.120   101395594.015        -519.398          28.000  
G10  22194419.623   116632456.788       -2580.775          47.000    22194425.019    87095690.144       -1927.589          36.000  
G23  24172892.155   127029403.202       -4421.161          37.000  
G26  24842354.796   130547457.880        2359.245          37.000  
G31  22958502.759   120647744.639        -482.810          45.000  
G32  23098205.145   121381731.125         -78.399          41.000    23098211.141    90642286.122         -60.038          29.000  
J01  39354583.988   206809736.289         -64.785          31.000  
J02  39593659.480   208066086.060       -1990.473          28.000  
> 2021 11  6  7 26 18.0437294  0 20
C03  38136407.315   198586285.754       -1221.124          43.000  
C05  40831395.813   212619788.797       -1221.486          38.000  
C06  38595654.584   200977701.741       -1121.460          39.000  
C07  39623895.948   206332186.039         163.778          40.000  
C09  39433346.662   205339785.327       -1210.247          40.000  
C10  40364104.212   210186597.629          53.787          33.000  
C13  39377332.840   205048106.181       -2944.835          38.000  
C16  39043695.912   203310769.430       -1067.417          36.000  
C23  24168487.904   125851663.888       -2722.367          45.000  
C32  23974644.799   124842381.526         109.919          42.000  
C37  24402520.287   127070325.926         -55.109          42.000  
E02  25224614.163   132556404.269           5.504          43.000    25224622.257    98986844.326           3.649          33.000  
E03  25838566.932   135782569.458        -697.356          42.000    25838572.628   101396113.692        -520.051          29.000  
G10  22194910.683   116635038.154       -2582.032          47.000    22194916.379    87097617.783       -1929.011          36.000  
G23  24173730.075   127033824.922       -4423.196          37.000  
G26  24841906.606   130545098.435        2360.276          37.000  
G31  22958594.196   120648227.786        -483.620          45.000  
G32  23098222.533   121381809.490         -78.190          41.000    23098226.131    90642346.130         -59.677          29.000  
J01  39354596.880   206809801.070         -65.428          32.000  
J02  39594038.118   208068076.927       -1991.474          28.000  
> 2021 11  6  7 26 19.0378614  0 20
C03  36377459.909   189426983.951       -1221.546          43.000  
C05  39072446.608   203460487.211       -1221.599          38.000  
C06  36836686.493   191818300.950       -1123.413          39.000  
C07  37864682.326   197171499.955         162.246          39.000  
C09  37674398.057   196180472.966       -1211.198          41.000  
C10  38604909.178   201026021.893          51.840          32.000  
C13  37618715.505   195890528.628       -2946.266          38.000  
C16  37284718.526   194151315.108       -1069.162          36.000  
C23  22409829.198   116693864.169       -2723.931          44.000  
C32  22215441.670   115681749.677         108.087          42.000  
C37  22643348.036   117909858.749         -56.560          42.000  
E02  23465431.720   123311834.869           3.522          42.000    23465439.214    92083432.079           2.778          33.000  
E03  24079517.297   126538702.870        -698.304          42.000    24079524.492    94493225.716        -520.213          29.000  
G10  20436219.600   107393056.317       -2583.587          46.000    20436225.595    80196137.843       -1929.686          36.000  
G23  22415390.048   117793683.107       -4424.213          37.000  
G26  23082274.474   121298175.279        2357.730          36.000  
G31  21199504.089   111404147.480        -484.900          45.000  
G32  21339055.080   112137324.112         -79.877          41.000    21339059.277    83738996.712         -59.644          29.000  
J01  37595427.627   197565302.333         -66.494          32.000  
J02  37835234.612   198825504.497       -1993.240          29.000  
> 2021 11  6  7 26 20.0378606  0 21
C03  36377455.711   189426957.198       -1222.784          43.000  
C05  39072441.212   203460460.288       -1222.632          37.000  
C06  36836663.109   191818175.228       -1123.336          38.000  
C07  37864410.414   197170089.072         161.578          39.000  
C09  37674390.562   196180435.652       -1211.631          40.000  
C10  38604660.949   201024721.269          51.096          33.000  
C13  37619042.579   195892226.331       -2947.364          37.000  
C16  37284684.650   194151135.842       -1070.363          35.000  
C23  22410112.502   116695339.903       -2724.798          44.000  
C32  22215181.450   115680393.338         107.057          42.000  
C37  22643120.194   117908667.134         -57.099          42.000  
E02  23465190.687   123310571.106           3.014          42.000    23465198.781    92082488.357           3.664          33.000  
E03  24079411.171   126538141.572        -699.408          42.000    24079417.166    94492805.038        -521.172          29.000  
E08  24117254.272                         627.278          39.000  
G10  20436471.725   107394380.288       -2584.676          47.000    20436477.721    80197126.530       -1930.411          37.000  
G23  22415991.732   117796846.794       -4423.895          37.000  
G26  23081584.651   121294557.530        2356.777          36.000  
G31  21199355.991   111403372.744        -485.376          44.000  
G32  21338829.336   112136144.060         -80.189          42.000    21338834.133    83738115.276         -60.300          29.000  
J01  37595195.288                         -65.376          32.000  
J02  37835374.016   198826237.772       -1994.248          28.000  
> 2021 11  6  7 26 21.0378596  0 23
C03  36377390.656   189426619.315       -1223.691          43.000  
C05  39072377.956   203460122.229       -1223.553          38.000  
C06  36836578.867   191817737.353       -1123.741          39.000  
C07  37864080.942   197168366.180         160.742          39.000  
C09  37674322.509   196180086.141       -1211.918          40.000  
C10  38604352.163   201023108.669          50.865          32.000  
C13  37619308.495   195893612.001       -2948.303          38.000  
C16  37284590.815   194150644.366       -1069.226          36.000  
C23  22410335.248   116696503.835       -2725.845          44.000  
C32  22214860.972   115678725.289         105.925          42.000  
C37  22642830.295   117907163.838         -58.535          42.000  
E02  23464890.294   123308992.814           2.268          42.000    23464898.389    92081309.791           0.932          33.000  
E03  24079244.486   126537265.467        -700.355          42.000    24079250.782    94492150.234        -521.930          29.000  
E08  24116833.364                         627.288          39.000  
G10  20436662.993   107395389.946       -2586.186          47.000    20436669.888    80197880.483       -1931.370          37.000  
G23  22416534.056   117799695.873       -4424.765          37.000  
G26  23080836.969   121290625.001        2356.360          37.000  
G31  21199148.835   111402283.451        -487.600          45.000  
G32  21338545.133   112134649.142         -81.298          41.000    21338549.629    83736999.274         -61.062          29.000  
J01  37594912.584   197562576.6231        -69.665          32.000  
R01  19773171.318                         435.147          35.000  
R08  20610009.587                       -2533.376          36.000  
R12  19922885.274                         597.701          45.000  
> 2021 11  6  7 26 22.9999982  0 24
C03  36377503.378   189427206.432       -1223.588          43.000  
C05  39072490.977   203460714.108       -1224.413          38.000  
C06  36836654.115   191818125.086       -1124.118          38.000  
C07  37863672.925   197166082.031         160.506          40.000  
C09  37674432.233   196180655.372       -1212.596          40.000  
C10  38603984.917   201021080.763          50.291          33.000  
C13  37620070.567   195897580.363       -2947.687          38.000  
C16  37284646.876   194150941.024       -1070.484          36.000  
C23  22411015.177   116700037.756       -2726.999          44.000  
C32  22214473.040   115676590.618         104.489          41.000  
C37  22642504.720   117905464.551         -60.286          43.000  
E02  23464541.936   123307000.547           0.422          42.000    23464550.330    92079935.900          -0.638          33.000  
E03  24079158.445   126536832.176        -700.823          41.000    24079165.341    94491816.923        -524.351          29.000  
E08  24116251.167   126731755.3911        625.866          39.000  
G10  20437281.764   107398641.213       -2588.054          47.000    20437287.760    80200307.049       -1932.646          36.000  
G23  22417837.854   117806533.368       -4426.693          37.000  
G26  23079609.619   121284167.765        2355.303          36.000  
G31  21198982.150   111401403.530        -488.233          45.000  
G32  21338229.151   112133151.588         -81.640          42.000    21338232.749    83735808.850         -61.984          29.000  
J01  37594588.808   197560898.033         -69.268          32.000  
J02  37835849.786   198828732.8541      -1995.059          28.000  
R01  19772671.564   105696261.6051        433.892          35.000  
R08  20610595.082  4111266451.1831      -2534.719          36.000  
R12  19922320.465   106421460.9741        594.884          45.000  
> 2021 11  6  7 26 23.9999972  0 24
C03  36377438.923   189426869.215       -1224.368          43.000  
C05  39072426.222   203460377.296       -1224.515          38.000  
C06  36836571.972   191817688.587       -1125.293          39.000  
C07  37863342.853   197164360.934         159.385          39.000  
C09  37674365.080   196180307.227       -1213.410          40.000  
C10  38603674.033   201019469.828          49.371          33.000  
C13  37620337.382   195898967.909       -2948.870          38.000  
C16  37284551.842   194150450.905       -1070.800          35.000  
C23  22411239.122   116701204.228       -2728.141          44.000  
C32  22214153.462   115674925.296         103.892          42.000  
C37  22642217.519   117903964.083         -61.491          42.000  
E02  23464242.743   123305425.172          -0.230          42.000    23464250.537    92078759.504          -0.194          33.000  
E03  24078991.461   126535958.118        -701.898          41.000    24078998.356    94491164.778        -524.101          28.000  
E08  24115831.457  -3872480602.246         625.473          39.000  
G10  20437474.531   107399654.400       -2589.452          47.000    20437480.527    80201063.653       -1933.475          36.000  
G23  22418381.677   117809384.997       -4427.704          37.000  
G26  23078862.536   121280237.417        2354.246          36.000  
G31  21198775.893   111400317.012        -489.206          45.000  
G32  21337944.948   112131658.649         -83.183          42.000    21337948.246    83734693.905         -61.568          29.000  
J01  37594301.007   197559391.257         -68.955          32.000  
J02  37835929.831   198829152.580       -1995.850          28.000  
R01  19772293.826   105694242.419         432.029          35.000  
R08  20610767.463   110369724.865       -2535.691          36.000  
R12  19921910.348   106419269.951         593.761          44.000  
> 2021 11  6  7 26 24.9999964  0 24
C03  36377435.026   189426845.043       -1225.048          43.000  
C05  39072421.426   203460353.305       -1225.491          38.000  
C06  36836547.389   191817564.564       -1125.352          39.000  
C07  37863070.642   197162952.500         158.853          39.000  
C09  37674358.784   196180271.612       -1213.197          40.000  
C10  38603423.706   201018171.545          50.021          33.000  
C13  37620664.156   195900668.124       -2949.835          38.000  
C16  37284517.965   194150273.298       -1072.336          36.000  
C23  22411522.426   116702683.598       -2728.393          44.000  
C32  22213893.841   115673572.888         102.983          42.000  
C37  22641989.377   117902776.640         -61.702          43.000  
E02  23464004.708   123304165.675          -1.255          42.000    23464011.003    92077818.994           0.226          34.000  
E03  24078884.735   126535399.638        -701.923          42.000    24078892.230    94490748.812        -525.302          29.000  
E08  24115471.706  -3870794983.449         625.119          39.000  
G10  20437727.256   107400983.672       -2590.090          47.000    20437733.851    80202056.308       -1933.261          37.000  
G23  22418983.661   117812552.381       -4428.416          37.000  
G26  23078173.613   121276622.738        2353.836          37.000  
G31  21198628.695   111399546.333        -489.973          44.000  
G32  21337720.104   112130481.274         -83.305          42.000    21337723.701    83733815.241         -63.431          28.000  
J01  37594077.662   197558199.948         -69.858          32.000  
J02  37836068.335   198829888.126       -1995.501          26.000  
R01  19771975.746   105692541.788         431.423          35.000  
R08  20611002.200   110370981.369       -2536.431          36.000  
R12  19921558.692   106417391.270         592.646          45.000  
> 2021 11  6  7 26 25.9999956  0 24
C03  36377430.229   189426821.360       -1225.536          43.000  
C05  39072417.528   203460329.662       -1225.384          38.000  
C06  36836524.005   191817440.868       -1125.476          38.000  
C07  37862801.728   197161544.506         159.550          39.000  
C09  37674351.889   196180236.288       -1214.040          40.000  
C10  38603176.377   201016873.647          47.850          33.000  
C13  37620991.230   195902368.825       -2948.714          38.000  
C16  37284481.391   194150096.045       -1072.670          35.000  
C23  22411806.929   116704163.669       -2729.037          44.000  
C32  22213634.221   115672221.300         102.813          41.000  
C37  22641760.635   117901589.989         -62.679          42.000  
E02  23463765.173   123302907.008          -2.257          42.000    23463770.570    92076879.103          -1.515          33.000  
E03  24078778.908   126534841.750        -702.641          42.000    24078785.204    94490331.944        -523.515          28.000  
E08  24115113.155   126725775.689         626.088          39.000  
G10  20437980.281   107402313.991       -2591.150          47.000    20437986.876    80203049.732       -1934.592          36.000  
G23  22419585.944   117815720.548       -4428.573          37.000  
G26  23077484.690   121273008.670        2353.384          37.000  
G31  21198481.796   111398776.445        -490.898          44.000  
G32  21337497.358   112129304.454         -83.527          42.000    21337500.056    83732937.353         -63.381          29.000  
J01  37593849.819   197557009.062         -70.510          32.000  
J02  37836208.038   198830623.860       -1996.474          27.000  
R01  19771657.966   105690843.207         430.165          35.000  
R08  20611235.139  4106207379.002       -2537.912          36.000  
R12  19921207.035   106415512.440         592.258          45.000  
> 2021 11  6  7 26 26.9999949  0 24
C03  36377454.512   189426954.165       -1225.688          43.000  
C05  39072441.512   203460462.312       -1225.869          38.000  
C06  36836530.301   191817473.587       -1125.983          38.000  
C07  37862561.894   197160293.115         158.427          40.000  
C09  37674374.373   196180357.437       -1214.617          40.000  
C10  38602957.229   201015732.340          48.355          33.000  
C13  37621348.582   195904226.124       -2951.108          38.000  
C16  37284478.693   194150075.181       -1071.840          35.000  
C23  22412121.111   116705800.581       -2729.968          44.000  
C32  22213404.580   115671026.572         101.265          42.000  
C37  22641563.672   117900560.274         -63.961          43.000  
E02  23463555.319   123301806.736          -3.177          42.000    23463561.015    92076057.483          -2.316          33.000  
E03  24078703.061   126534441.882        -703.336          42.000    24078709.356    94490033.046        -526.141          29.000  
E08  24114784.282   126724046.722         625.324          39.000  
G10  20438263.285   107403802.896       -2592.238          47.000    20438270.480    80204161.577       -1935.531          37.000  
G23  22420220.005   117819046.956       -4429.533          36.000  
G26  23076828.744   121269552.740        2352.077          36.000  
G31  21198363.978   111398164.899        -491.647          44.000  
G32  21337303.692   112128285.680         -84.017          42.000    21337306.090    83732177.146         -62.512          29.000  
J01  37593655.854   197555976.168         -69.901          32.000  
J02  37836377.121   198831517.542       -1996.725          27.000  
R01  19771368.366   105689295.757         428.535          35.000  
R08  20611501.654  4104521292.417       -2538.662          37.000  
R12  19920885.958   106413797.164         590.544          45.000  
> 2021 11  6  7 26 27.9999944  0 24
C03  36377540.553   189427399.556       -1226.386          43.000  
C05  39072526.053   203460907.718       -1226.412          38.000  
C06  36836595.056   191817818.950       -1126.668          38.000  
C07  37862381.119   197159354.481         158.055          39.000  
C09  37674458.615   196180791.156       -1213.982          40.000  
C10  38602797.439   201014903.786          47.731          32.000  
C13  37621764.694   195906396.169       -2950.304          38.000  
C16  37284532.955   194150366.901       -1073.537          35.000  
C23  22412495.852   116707750.478       -2731.125          44.000  
C32  22213235.497   115670144.920         101.025          41.000  
C37  22641425.168   117899843.665         -64.411          42.000  
E02  23463405.422   123301022.446          -3.920          42.000    23463412.318    92075471.816          -2.146          33.000  
E03  24078686.272   126534357.752        -703.580          42.000    24078693.467    94489970.971        -526.155          29.000  
E08  24114516.268  -3865737526.712         624.052          39.000  
G10  20438606.547   107405608.008       -2593.410          47.000    20438613.742    80205509.555       -1936.299          36.000  
G23  22420912.225   117822689.237       -4430.922          36.000  
G26  23076230.358   121266412.571        2351.841          36.000  
G31  21198308.217   111397869.311        -492.863          44.000  
G32  21337170.284   112127582.586         -84.991          41.000    21337172.383    83731652.065         -64.495          29.000  
J01  37593515.851   197555258.851         -69.846          32.000  
J02  37836608.561   198832727.505       -1997.894          27.000  
R01  19771140.524   105688077.942         428.109          36.000  
R08  20611821.233   110375367.232       -2539.322          37.000  
R12  19920626.038   106412409.062         589.633          45.000  
> 2021 11  6  7 26 28.9999933  0 24
C03  36377445.818   189426909.022       -1227.050          43.000  
C05  39072433.417   203460417.059       -1226.692          38.000  
C06  36836482.934   191817228.133       -1126.732          38.000  
C07  37862021.668   197157479.841         157.320          40.000  
C09  37674361.182   196180288.700       -1214.508          40.000  
C10  38602458.674   201013139.141          47.364          33.000  
C13  37622001.231   195907630.256       -2951.036          38.000  
C16  37284410.040   194149722.481       -1073.826          35.000  
C23  22412690.717   116708764.588       -2731.947          44.000  
C32  22212887.438   115668327.534          99.591          41.000  
C37  22641108.587   117898191.377         -65.530          42.000  
E02  23463075.951   123299293.907          -4.875          42.000    23463083.445    92074181.056          -3.538          33.000  
E03  24078490.508   126533329.062        -705.217          42.000    24078498.302    94489203.219        -526.975          28.000  
E08  24114067.478  -3864052395.870         624.271          39.000  
G10  20438770.833   107406469.082       -2594.583          47.000    20438777.729    80206152.579       -1937.918          36.000  
G23  22421427.269   117825387.143       -4431.782          37.000  
G26  23075450.898   121262327.900        2351.572          36.000  
G31  21198071.980   111396629.414        -493.432          44.000  
G32  21336857.601   112125934.933         -85.581          42.000    21336858.800    83730422.745         -65.097          29.000  
J01  37593201.068   197553596.956         -73.368          32.000  
J02  37836658.926   198832993.083       -1998.477          27.000  
R01  19770732.507   105685896.735         426.839          36.000  
R08  20611963.635   110376129.879       -2541.004          37.000  
R12  19920184.743   106410051.776         588.031          44.000  
> 2021 11  6  7 26 29.9999926  0 24
C03  36377471.301   189427043.368       -1227.185          43.000  
C05  39072459.499   203460551.330       -1227.569          37.000  
C06  36836489.229   191817262.066       -1127.161          39.000  
C07  37861782.134   197156230.116         157.020          39.000  
C09  37674385.166   196180411.032       -1215.499          40.000  
C10  38602240.125   201011999.423          45.700          33.000  
C13  37622359.483   195909489.264       -2952.358          38.000  
C16  37284406.443   194149702.811       -1071.978          35.000  
C23  22413004.600   116710403.885       -2732.043          44.000  
C32  22212659.896   115667135.388          99.046          42.000  
C37  22640912.223   117897164.367         -65.718          43.000  
E02  23462867.595   123298196.416          -5.615          42.000    23462874.490    92073361.431          -4.384          33.000  
E03  24078415.260   126532931.123        -704.459          42.000    24078423.055    94488906.553        -526.954          29.000  
E08  24113738.606  -3862366614.511         624.005          40.000  
G10  20439055.636   107407961.377       -2595.489          47.000    20439061.332    80207266.954       -1938.684          37.000  
G23  22422058.632   117828715.977       -4431.494          37.000  
G26  23074795.851   121258874.005        2351.554          36.000  
G31  21197957.160   111396020.524        -493.919          44.000  
G32  21336664.235   112124917.969         -85.780          42.000    21336665.734    83729663.566         -64.512          29.000  
J01  37593008.002   197552565.625         -71.791          33.000  
J02  37836829.508   198833888.833       -1998.641          27.000  
R01  19770444.406   105684356.585         425.489          36.000  
R08  20612229.850   110377554.983       -2541.790          37.000  
R12  19919864.865   106408343.260         587.082          45.000  
> 2021 11  6  7 26 30.9999918  0 24
C03  36377467.703   189427021.694       -1227.507          43.000  
C05  39072456.501   203460530.069       -1227.996          38.000  
C06  36836465.845   191817140.313       -1127.887          39.000  
C07  37861511.721   197154824.805         156.215          40.000  
C09  37674377.671   196180377.646       -1216.133          40.000  
C10  38601990.398   201010704.109          45.101          32.000  
C13  37622686.856   195911192.722       -2953.052          38.000  
C16  37284372.266   194149527.462       -1074.649          35.000  
C23  22413288.803   116711887.853       -2733.493          44.000  
C32  22212400.575   115665788.003          98.582          42.000  
C37  22640685.580   117895982.156         -67.121          43.000  
E02  23462628.960   123296942.300          -6.754          43.000    23462636.455    92072424.978          -5.736          33.000  
E03  24078309.733   126532376.271        -705.964          42.000    24078317.228    94488491.845        -526.501          29.000  
E08  24113380.054   126716667.802         622.616          39.000  
G10  20439309.560   107409297.280       -2597.062          47.000    20439315.556    80208264.557       -1939.353          36.000  
G23  22422661.514   117831888.091       -4433.770          37.000  
G26  23074108.727   121255263.271        2349.916          37.000    23074123.417    90547816.3511       1753.864          25.000  
G31  21197811.460   111395254.972        -495.302          44.000  
G32  21336439.390   112123744.083         -87.075          42.000    21336442.388    83728787.019         -65.780          29.000  
J01  37592781.659   197551377.384         -72.487          32.000  
J02  37836970.410   198834627.542       -1999.130          26.000  
R01  19770124.228   105682644.329         424.887          36.000  
R08  20612466.386  4097776479.076       -2543.205          37.000  
R12  19919518.304   106406491.385         585.807          45.000  
> 2021 11  6  7 26 31.9999913  0 24
C03  36377553.144   189427468.986       -1228.260          43.000  
C05  39072541.342   203460977.907       -1229.292          38.000  
C06  36836531.800   191817487.342       -1127.810          39.000  
C07  37861332.145   197153888.464         155.809          40.000  
C09  37674461.613   196180813.058       -1216.300          40.000  
C10  38601833.007   201009877.670          44.226          33.000  
C13  37623102.068   195913365.113       -2953.834          38.000  
C16  37284430.726   194149820.891       -1073.752          35.000  
C23  22413663.244   116713841.004       -2733.826          43.000  
C32  22212231.792   115664909.842          97.381          42.000  
C37  22640549.474   117895269.206         -67.333          42.000  
E02  23462480.862   123296161.793          -7.490          42.000    23462488.357    92071842.123          -4.604          33.000  
E03  24078294.743   126532294.724        -706.273          42.000    24078301.039    94488430.321        -527.010          29.000  
E08  24113111.740   126715258.183         622.662          40.000  
G10  20439653.123   107411106.966       -2597.768          47.000    20439659.418    80209615.942       -1939.586          36.000  
G23  22423353.136   117835533.705       -4432.379          36.000  
G26  23073512.740   121252125.919        2349.974          36.000    23073527.130    90545474.750        1753.271          24.000  
G31  21197755.100   111394962.960        -495.561          44.000  
G32  21336305.683   112123043.486         -87.621          42.000    21336309.280    83728264.313         -64.976          29.000  
J01  37592641.956   197550662.278         -72.017          32.000  
J02  37837200.951   198835839.466       -1999.874          25.000  
R01  19769895.786   105681423.474         424.140          36.000  
R08  20612787.464  4096090721.012       -2544.612          37.000  
R12  19919260.183   106405113.400         584.202          45.000  
> 2021 11  6  7 26 32.9999905  0 24
C03  36377550.146   189427448.625       -1229.021          43.000  
C05  39072538.045   203460958.932       -1229.804          38.000  
C06  36836509.015   191817366.473       -1128.538          38.000  
C07  37861062.032   197152484.313         154.984          39.000  
C09  37674455.917   196180780.499       -1216.134          40.000  
C10  38601583.880   201008583.407          46.182          33.000  
C13  37623431.241   195915069.776       -2953.749          38.000  
C16  37284396.250   194149646.341       -1075.462          35.000  
C23  22413949.246   116715326.610       -2735.333          44.000  
C32  22211973.671   115663564.204          95.894          42.000  
C37  22640322.231   117894088.822         -68.895          43.000  
