     3.03           OBSERVATION DATA    M: Mixed            RINEX VERSION / TYPE
Geo++ RINEX Logger  Geo++               20210912 115942 UTC PGM / RUN BY / DATE
************************************************************COMMENT
This file was generated by the Geo++ RINEX Logger App       COMMENT
for Android devices (Version 2.1.6). If you encounter       COMMENT
any issues, please send an email to android@geopp.de        COMMENT
Filtering Mode: MORE                                        COMMENT
************************************************************COMMENT
Geo++                                                       MARKER NAME
GEODETIC                                                    MARKER TYPE
Geo++               Geo++                                   OBSERVER / AGENCY
unknown             HUAWEI              ELS-AN00            REC # / TYPE / VERS
unknown             ELS-AN00                                ANT # / TYPE
 -2417100.9021  5385876.5299  2406645.6497                  APPROX POSITION XYZ
        0.0000        0.0000        0.0000                  ANTENNA: DELTA H/E/N
G    8 C1C L1C D1C S1C C5Q L5Q D5Q S5Q                      SYS / # / OBS TYPES
R    4 C1C L1C D1C S1C                                      SYS / # / OBS TYPES
E   12 C1B L1B D1B S1B C1C L1C D1C S1C C5Q L5Q D5Q S5Q      SYS / # / OBS TYPES
C    4 C2I L2I D2I S2I                                      SYS / # / OBS TYPES
J    8 C1C L1C D1C S1C C5Q L5Q D5Q S5Q                      SYS / # / OBS TYPES
  2021     9    12    12     0    0.9975721     GPS         TIME OF FIRST OBS
 24 R01  1 R02 -4 R03  5 R04  6 R05  1 R06 -4 R07  5 R08  6 GLONASS SLOT / FRQ #
    R09 -2 R10 -5 R11  0 R12 -1 R13 -2 R14 -7 R15  0 R16 -1 GLONASS SLOT / FRQ #
    R17  4 R18 -3 R19  3 R20  2 R21  4 R22 -3 R23  3 R24  2 GLONASS SLOT / FRQ #
G L1C                                                       SYS / PHASE SHIFT
G L5Q -0.25000                                              SYS / PHASE SHIFT
R L1C                                                       SYS / PHASE SHIFT
E L1B                                                       SYS / PHASE SHIFT
E L1C +0.50000                                              SYS / PHASE SHIFT
E L5Q -0.25000                                              SYS / PHASE SHIFT
C L2I                                                       SYS / PHASE SHIFT
J L1C                                                       SYS / PHASE SHIFT
J L5Q -0.25000                                              SYS / PHASE SHIFT
 C1C    0.000 C1P    0.000 C2C    0.000 C2P    0.000        GLONASS COD/PHS/BIS
                                                            END OF HEADER
> 2021  9 12 12  0  0.9975721  0  5
C23  22554594.479   117447677.747        -257.335          23.000  
G10  21655945.301   113802882.7621      -3589.903          36.000  
G26  21412456.865   112523249.599        1996.701          19.000  
G31  21090635.657   110831823.450        -792.334          28.000  
G32  20843267.606   109532096.426        -181.259          23.000  
> 2021  9 12 12  0  1.9975716  0  3
G10  21656483.728                       -3593.455          34.000  
G31  21090635.357   110831828.569        -793.605          29.000  
G32  20843150.987   109531491.081        -183.803          24.000  
> 2021  9 12 12  0  2.9975713  0  4
C23  22554456.874   117446939.8141       -256.668          21.000  
G10  21657079.716   113808707.2111      -3590.232          35.000  
G31  21090695.915   110832149.695        -793.916          32.000  
G32  20843094.626   109531202.692        -184.594          24.000  
> 2021  9 12 12  0  3.9975708  0  3
C23  22554356.144   117446415.999        -258.173          22.000  
G10  21657610.948   113811509.731       -3591.654          39.000  
G31  21090696.215   110832155.851        -794.332          32.000  
> 2021  9 12 12  0  4.9975706  0  4
C23  22554345.951   117446361.053        -258.096          19.000  
G10  21658229.720   113814785.586       -3591.514          36.000  
G31  21090787.052   110832634.517        -793.446          30.000  
G32  20842946.229   109530470.7211       -185.674          28.000  
> 2021  9 12 12  0  5.9975700  0  4
C23  22554219.439   117445682.473        -258.006          20.000  
G10  21658734.870   113817431.931       -3591.045          34.000  
G31  21090755.574   110832482.866        -794.029          31.000  
G32  20842795.133   109529711.704        -186.510          23.000  
> 2021  9 12 12  0  6.9975695  0  5
C23  22554119.908   117445161.636        -260.848          21.000  
G10  21659268.201   113820234.985       -3591.016          30.000  
G26  21409361.507   112507163.2671       1999.302          30.000  
G31  21090755.874   110832488.956        -794.300          30.000  
G32  20842680.313   109529109.691        -184.920          23.000  
> 2021  9 12 12  0  7.9975690  0  5
C23  22554018.878   117444641.632        -259.393          21.000  
G10  21659801.232   113823038.943       -3592.619          30.000  
G26  21408824.879   112504376.039        1998.443          22.000  
G31  21090757.372   110832495.384        -794.793          28.000  
G32  20842564.893   109528506.416        -184.403          24.000  
> 2021  9 12 12  0  8.9975685  0  4
C23  22553918.447   117444121.345        -259.956          21.000  
G10  21660335.762   113825844.546       -3593.482          30.000  
G26  21408291.848   112501590.398        1996.043          21.000  
G32  20842448.273   109527904.155        -186.245          24.000  
> 2021  9 12 12  0  9.9975683  0  2
G10  21660958.730   113829123.151       -3594.207          34.000  
G32  20842422.491   109527773.671        -184.689          21.000  
> 2021  9 12 12  0 10.9975680  0  2
G10  21661552.319   113832244.934       -3593.563          33.000  
G31  21090918.661   110833299.6851       -793.175          27.000  
> 2021  9 12 12  0 11.9975675  0  3
G10  21662084.751   113835051.205       -3593.703          33.000  
G26  21406846.249   112493736.0541       1993.083          19.000  
G32  20842257.006   109526884.0801       -185.665          22.000  
> 2021  9 12 12  0 12.9975670  0  2
G31  21090924.956   110833309.3671       -794.163          26.000  
G32  20842142.785   109526281.544        -185.068          20.000  
> 2021  9 12 12  0 13.9975665  0  1
G31  21090925.256   110833316.338        -795.549          30.000  
> 2021  9 12 12  0 14.9975662  0  3
G10  21663745.601   113843787.4161      -3595.032          33.000  
G26  21405316.108   112485711.5631       1988.580          17.000  
G31  21090987.613   110833638.759        -794.261          29.000  
> 2021  9 12 12  0 15.9975657  0  3
C23  22553425.888   117441577.6591       -260.982          29.000  
G10  21664278.932   113846594.549       -3595.695          30.000  
G31  21090990.911   110833644.688        -791.848          26.000  
> 2021  9 12 12  0 16.9975652  0  3
C23  22553326.357   117441057.726        -260.222          28.000  
G26  21404265.335   112480163.8331       1982.736          15.000  
G31  21090993.609   110833919.411        -792.862          26.000  
> 2021  9 12 12  0 17.9975647  0  2
C23  22553225.627   117440537.742        -261.487          29.000  
G31  21090997.506   110833924.719        -793.167          26.000  
> 2021  9 12 12  0 18.9975644  0  3
C23  22553186.054   117440333.574        -265.856          23.000  
G10  21665949.675   113855336.1971      -3597.439          32.000  
G31  21091056.266   110834243.871        -792.060          23.000  
> 2021  9 12 12  0 19.9975639  0  5
C23  22553086.823   117439818.702        -265.691          23.000  
G10  21666481.507   113858145.909       -3597.707          28.000  
G26  21402751.084   112472163.2971       1986.462          10.000  
G31  21091057.765   110834249.914        -795.256          26.000  
G32  20841487.438   109522700.1441       -186.529          16.000  
> 2021  9 12 12  0 20.9975636  0  3
C23  22553048.150   117439616.272        -265.386          25.000  
G10  21667075.696   113861272.098       -3600.642          30.000  
G31  21091122.520   110834574.097        -798.890          27.000  
> 2021  9 12 12  0 21.9975631  0  3
G10  21667611.425   113864084.827       -3600.164          29.000  
G31  21091127.916   110834584.774        -798.011          27.000  
G32  20841314.458   109521809.5241       -184.161          17.000  
> 2021  9 12 12  0 22.9975626  0  3
C23  22552851.486   117438586.5401       -266.093          19.000  
G31  21091130.314   110834595.174        -797.665          31.000  
G32  20841197.539   109521206.299        -185.887          18.000  
> 2021  9 12 12  0 23.9975621  0  2
G10  21668681.984   113869710.5271      -3600.445          29.000  
G32  20841082.119   109520605.870        -189.225          23.000  
> 2021  9 12 12  0 24.9975616  0  1
G10  21669217.113   113872523.694       -3601.189          30.000  
> 2021  9 12 12  0 25.9975613  0  3
C23  22552622.145   117437354.8801       -265.739          20.000  
G10  21669812.801   113875652.220       -3601.128          28.000  
G26  21399700.695   112456135.9981       1988.804          15.000  
> 2021  9 12 12  0 26.9975611  0  4
C23  22552614.050   117437308.008        -266.440          20.000  
G10  21670437.268   113878937.906       -3600.346          31.000  
G31  21091269.418   110835421.5801       -796.186          26.000  
G32  20840885.155   109519601.8141       -193.750          18.000  
> 2021  9 12 12  0 27.9975606  0  3
E01  23375255.947   122837798.3681       -821.505          28.000  
G10  21670971.798   113881749.968       -3599.813          32.000  
G31  21091270.617   110835429.868        -796.658          29.000  
> 2021  9 12 12  0 28.9975601  0  4
C23  22552423.982   117436279.8691       -266.277          20.000  
E01  23375261.943   122837829.658        -821.122          29.000  
G10  21671506.029   113884562.201       -3600.254          33.000  
G31  21091272.716   110835439.342        -797.649          29.000  
> 2021  9 12 12  0 29.9975596  0  4
C23  22552324.451   117435764.718        -264.878          21.000  
E01  23375269.438   122837869.948        -824.091          28.000  
G10  21672040.559   113887374.775       -3600.313          32.000  
G32  20840542.493   109517821.1641       -192.234          18.000  
> 2021  9 12 12  0 30.9975593  0  3
C23  22552286.077   117435561.311        -265.139          21.000  
E01  23375336.591   122838222.322        -822.906          28.000  
G10  21672636.546   113890503.000       -3602.139          34.000  
> 2021  9 12 12  0 31.9975588  0  4
C23  22552185.347   117435046.165        -266.535          23.000  
E01  23375343.786   122838260.612        -822.671          30.000  
G31  21091339.270   110835784.9721       -797.326          28.000  
G32  20840369.213   109516944.1891       -190.385          19.000  
> 2021  9 12 12  0 32.9975583  0  5
C23  22552086.116   117434532.397        -266.282          24.000  
E01  23375350.082   122838292.902        -823.410          31.000  
G10  21673709.803   113896131.7721      -3603.299          33.000  
G26  21396151.752   112437487.4141       1985.946          17.000  
G31  21091342.567   110835795.226        -798.723          28.000  
> 2021  9 12 12  0 33.9975578  0  3
G10  21674241.035   113898944.999       -3601.089          32.000  
G31  21091345.865   110835806.432        -799.018          30.000  
G32  20840142.869   109515750.3861       -190.465          20.000  
> 2021  9 12 12  0 34.9975575  0  3
G10  21674839.421   113902075.940       -3601.437          31.000  
G26  21395154.643   112432263.5871       1980.409          17.000  
G31  21091408.222   110836133.338        -800.076          31.000  
> 2021  9 12 12  0 35.9975572  0  1
G10  21675434.809   113905205.415       -3603.518          29.000  
> 2021  9 12 12  0 36.9975567  0  3
G10  21675969.039   113908021.965       -3604.032          29.000  
G26  21394156.634   112427040.5001       1981.512          23.000  
G31  21091477.774   110836471.7831       -799.024          28.000  
> 2021  9 12 12  0 37.9975562  0  3
G10  21676504.468   113910838.651       -3605.417          31.000  
G31  21091480.172   110836483.719        -799.817          32.000  
G32  20839811.898   109513995.2601       -193.236          25.000  
> 2021  9 12 12  0 38.9975557  0  4
G10  21677039.598   113913657.563       -3607.795          28.000  
G26  21393098.666   112421503.1381       1980.647          22.000  
G31  21091481.971   110836495.701        -799.441          33.000  
G32  20839702.774   109513401.284        -194.173          25.000  
> 2021  9 12 12  0 39.9975552  0  3
G26  21392568.933   112418734.783        1981.183          26.000  
G31  21091483.770   110836507.743        -799.481          29.000  
G32  20839589.752   109512807.729        -194.389          30.000  
> 2021  9 12 12  0 40.9975549  0  2
G26  21392098.558   112416279.685        1982.949          25.000  
G32  20839535.490   109512528.610        -192.659          30.000  
> 2021  9 12 12  0 41.9975544  0  2
G10  21678711.540   113922441.3281      -3611.646          22.000  
G31  21091549.724   110836842.9741       -796.181          26.000  
> 2021  9 12 12  0 42.9975542  0  3
G10  21679340.505   113925737.535       -3612.051          21.000  
G26  21391131.128   112411211.6771       1983.332          19.000  
G32  20839391.889   109511808.4631       -191.083          23.000  
> 2021  9 12 12  0 43.9975537  0  1
G32  20839275.570   109511211.751        -191.415          23.000  
> 2021  9 12 12  0 44.9975532  0  2
G10  21680421.856   113931385.2841      -3610.507          17.000  
G32  20839158.950   109510616.422        -193.215          28.000  
> 2021  9 12 12  0 45.9975526  0  8
C06  36548209.401   190316116.6001       -298.339          23.000  
C07  37032233.918   192836709.8801        421.720          24.000  
C16  37153071.264   193465790.9881       -245.658          26.000  
C23  22551045.236   117429118.6121       -270.519          25.000  
G10  21680929.705   113934049.580       -3609.163          19.000  
G26  21389521.542   112402741.9481       1982.820          25.000  
G31  21091640.561   110837195.8071       -797.643          25.000  
G32  20839013.551   109509865.026        -194.065          27.000  
> 2021  9 12 12  0 46.9975524  0  5
C07  37032094.215   192835975.763         422.309          24.000  
C16  37153059.572   193465724.684        -247.223          24.000  
C23  22551037.442   117429075.799        -268.283          23.000  
G10  21681555.072   113937343.534       -3609.062          28.000  
G32  20838991.366   109509743.408        -192.637          26.000  
> 2021  9 12 12  0 47.9975519  0  7
C06  36548114.367   190315627.3181       -301.731          18.000  
C07  37031864.574   192834773.058         422.409          28.000  
C16  37152956.743   193465191.173        -247.235          29.000  
C23  22550937.311   117428564.002        -268.745          25.000  
E01  23375789.578   122840603.2141       -828.491          34.000  
G10  21682092.899   113940164.425       -3608.524          29.000  
G32  20838877.445   109509148.976        -194.252          30.000  
> 2021  9 12 12  0 48.9975514  0  9
C03  36497492.612   190052020.6681       -696.290          31.000  
C06  36548019.932   190315146.985        -298.474          28.000  
C07  37031633.434   192833569.839         422.476          30.000  
C16  37152853.315   193464657.621        -246.761          33.000  
C23  22550838.080   117428052.552        -270.133          24.000  
E01  23375792.875   122840620.504        -828.824          32.000  
G10  21682633.425   113942986.058       -3610.298          25.000  
G31  21091729.899   110837697.2171       -797.316          18.000  
G32  20838764.723   109508555.506        -194.664          31.000  
> 2021  9 12 12  0 49.9975508  0  8
C06  36547894.919   190314507.989        -297.375          27.000  
C07  37031373.514   192832211.455         421.591          31.000  
C16  37152720.207   193463967.367        -246.692          36.000  
E01  23375771.590   122840508.252        -830.322          31.000  
G10  21683139.175   113945650.402       -3610.004          20.000  
G31  21091698.421   110837549.748        -798.086          21.000  
G32  20838624.421   109507805.261        -195.192          30.000  
J02  38683554.632   203283412.8341      -1517.267          27.000  
> 2021  9 12 12  0 50.9975506  0 12
C03  36497519.893   190052161.1281       -697.000          27.000  
C06  36547888.923   190314492.992        -297.370          27.000  
C07  37031233.211   192831477.657         422.012          32.000  
C16  37152707.016   193463901.737        -245.804          35.000  
C23  22550694.479   117427346.4171       -272.612          23.000  
E01  23375866.624   122841008.168        -829.421          32.000  
G10  21683765.741   113948945.333       -3610.467          25.000  
G26  21387031.766   112389683.3271       1979.447          29.000  
G31  21091789.558   110838033.401        -799.267          21.000  
G32  20838603.735   109507685.291        -195.319          31.000  
J02  38683783.674   203284616.102       -1518.912          27.000  
R02  19161755.393   102250847.9641       -262.203          33.000  
> 2021  9 12 12  0 51.9975503  0  7
C06  36547855.046   190314322.511        -298.229          27.000  
C16  37152663.546   193463678.577        -243.544          29.000  
E01  23375934.078   122841362.542        -829.865          31.000  
G10  21684361.429   113952083.861       -3612.355          23.000  
J02  38683981.237   203285663.035       -1520.256          28.000  
R02  19161712.522   102250630.255        -262.386          34.000  
R03  21429740.499   114715077.8241       2833.437          24.000  
> 2021  9 12 12  0 52.9975498  0  8
C06  36547760.612   190313839.292        -296.630          28.000  
C16  37152562.216   193463141.315        -243.997          23.000  
C23  22550557.174   117426640.9431       -272.072          23.000  
E01  23375943.671   122841412.832        -827.554          33.000  
G10  21684900.456   113954908.094       -3611.761          26.000  
G26  21386032.858   112384464.0381       1978.495          28.000  
J02  38684120.341   203286395.454       -1520.302          28.000  
R02  19161611.792   102250093.283        -263.422          33.000  
> 2021  9 12 12  0 53.9975493  0 10
C06  36547665.877   190313355.820        -296.983          23.000  
C16  37152458.188   193462605.125        -244.280          25.000  
C23  22550459.742   117426132.536        -271.061          23.000  
E01  23375952.665   122841460.122        -830.931          34.000  
G10  21685438.883   113957732.608       -3612.553          28.000  
G26  21385505.822   112381697.601        1978.369          28.000  
G31  21091845.319   110838382.0471       -796.372          21.000  
G32  20838338.718   109506209.0471       -195.049          32.000  
J02  38684258.545   203287128.092       -1519.887          28.000  
R02  19161509.863   102249556.788        -263.929          34.000  
> 2021  9 12 12  0 54.9975488  0  8
C06  36547571.143   190312871.492        -296.614          26.000  
C23  22550363.208   117425623.053        -270.764          24.000  
E01  23375959.860   122841497.412        -829.163          33.000  
G10  21685978.210   113960556.709       -3610.940          27.000  
G26  21384978.787   112378931.610        1977.253          29.000  
G32  20838228.095   109505617.106        -195.353          32.000  
J02  38684396.749   203287859.902       -1519.078          28.000  
R02  19161407.933   102249021.219        -264.525          34.000  
> 2021  9 12 12  0 55.9975483  0 10
C06  36547478.207   190312386.996        -296.646          26.000  
C16  37152258.826   193461534.1601       -245.697          22.000  
C23  22550268.174   117425114.604        -273.232          25.000  
E01  23375966.455   122841532.702        -829.917          34.000  
G10  21686516.937   113963379.676       -3611.250          27.000  
G26  21384452.352   112376166.662        1976.941          29.000  
G31  21091846.818   110838400.3801       -798.234          24.000  
G32  20838111.775   109505025.490        -196.673          32.000  
J02  38684535.254   203288590.602       -1518.168          28.000  
R02  19161309.302   102248486.549        -266.486          34.000  
> 2021  9 12 12  0 56.9975478  0  9
C06  36547386.171   190311903.518        -296.717          26.000  
C16  37152158.096   193460999.222        -245.476          25.000  
C23  22550172.540   117424606.385        -272.448          27.000  
E01  23375976.648   122841585.992        -831.422          34.000  
G10  21687054.764   113966204.917       -3614.297          27.000  
G26  21383925.916   112373401.750        1977.562          29.000  
G32  20837995.456   109504434.222        -197.547          32.000  
J02  38684673.158   203289321.201       -1518.265          28.000  
R02  19161211.569   102247953.311        -267.073          34.000  
> 2021  9 12 12  0 57.9975475  0  9
C06  36547354.093   190311731.072        -294.671          27.000  
C16  37152115.226   193460776.344        -245.272          27.000  
C23  22550137.764   117424409.731        -272.149          25.000  
E01  23376045.600   122841948.366        -832.179          34.000  
G10  21687652.251   113969346.960       -3614.638          27.000  
G26  21383457.640   112370952.305        1976.286          29.000  
G32  20837946.890   109504158.675        -196.486          34.000  
J02  38684871.321   203290368.064       -1519.915          28.000  
R02  19161171.997   102247740.874        -267.603          33.000  
> 2021  9 12 12  0 58.9975473  0 10
C06  36547350.796   190311714.009        -296.132          28.000  
C16  37152101.735   193460708.893        -244.902          26.000  
C23  22550134.167   117424370.422        -273.797          28.000  
E01  23376146.031   122842476.282        -830.826          34.000  
G10  21688281.215   113972646.502       -3614.863          27.000  
G26  21383020.543   112368662.127        1974.361          29.000  
G31  21092007.207   110839227.4491       -801.938          23.000  
G32  20837919.608   109504041.218        -199.050          34.000  
J02  38685099.463   203291573.223       -1519.885          28.000  
R02  19161165.101   102247688.783        -268.229          34.000  
> 2021  9 12 12  0 59.9975468  0  9
C07  37029368.202   192821766.3591        418.143          28.000  
C16  37151998.906   193460174.279        -246.316          26.000  
C23  22550038.233   117423863.440        -273.684          25.000  
E01  23376152.027   122842507.572        -832.903          33.000  
G26  21382492.908   112365899.789        1974.958          26.000  
G31  21092012.604   110839241.879        -801.110          28.000  
G32  20837804.188   109503452.379        -197.395          34.000  
J02  38685238.267   203292305.199       -1519.069          27.000  
R02  19161064.071   102247157.259        -268.697          35.000  
> 2021  9 12 12  1  0.9975462  0  9
C07  37029107.982   192820411.136         419.540          32.000  
C16  37151864.000   193459484.360        -247.149          28.000  
C23  22549908.723   117423200.090        -273.565          25.000  
E01  23376133.440   122842410.320        -834.939          32.000  
G10  21689325.692   113978142.5461      -3614.135          26.000  
G26  21381937.992   112362978.810        1976.402          21.000  
G32  20837661.187   109502705.050        -197.374          32.000  
J02  38685344.993   203292879.056       -1519.588          25.000  
R02  19160936.360   102246466.310        -269.375          34.000  
> 2021  9 12 12  1  1.9975457  0  9
C03  36497540.878   190052231.7991       -702.220          31.000  
C06  36547047.106   190310106.6511       -297.071          16.000  
C07  37028876.842   192819211.023         419.678          35.000  
C16  37151758.173   193458950.321        -246.419          29.000  
C23  22549811.290   117422693.337        -274.161          26.000  
E01  23376146.331   122842477.610        -833.185          31.000  
G32  20837549.964   109502115.669        -197.909          31.000  
J01  36934770.490   194093528.4701        315.425          28.000  
R02  19160839.827   102245936.042        -270.032          34.000  
> 2021  9 12 12  1  2.9975455  0  9
C06  36547042.609   190310090.200        -295.104          15.000  
C07  37028737.139   192818478.056         421.512          35.000  
C16  37151742.884   193458884.719        -246.518          28.000  
C23  22549804.395   117422655.095        -274.050          28.000  
E01  23376244.962   122842995.526        -833.751          31.000  
G26  21380975.958   112357927.5541       1973.292          17.000  
G32  20837522.983   109501998.979        -199.794          29.000  
J01  36934648.475   194092897.087         316.388          28.000  
R02  19160835.330   102245886.372        -270.682          35.000  
> 2021  9 12 12  1  3.9975450  0  9
C07  37028504.200                         420.047          35.000  
C16  37151637.656   193458350.326        -245.815          28.000  
C23  22549706.663   117422148.911        -274.485          28.000  
E01  23376253.656   122843041.816        -832.725          32.000  
G10  21691031.511   113987085.7211      -3613.110          19.000  
G31  21092089.051   110839609.8921       -801.676          25.000  
J01  36934438.920   194091793.464         315.263          28.000  
J02  38685856.139   203295546.8611      -1519.031          25.000  
R02  19160739.396   102245357.486        -271.452          34.000  
> 2021  9 12 12  1  4.9975444  0 10
C06  36546822.261   190308955.5061       -286.261          14.000  
C07  37028242.481   192815780.9611        419.379          35.000  
C16  37151503.349   193457658.626        -245.028          27.000  
C23  22549580.750   117421486.325        -273.990          27.000  
E01  23376231.771   122842926.564        -835.421          31.000  
G10  21691542.657   113989753.890       -3613.903          23.000  
G32  20837262.164   109500664.3311       -199.679          27.000  
J01  36934198.486   194090533.534         314.305          27.000  
J02  38685966.163   203296120.582       -1518.854          25.000  
R02  19160613.184   102244669.393        -272.090          34.000  
> 2021  9 12 12  1  5.9975439  0  9
C07  37028012.241   192814580.527         418.599          34.000  
C16  37151401.120   193457124.103        -246.781          26.000  
C23  22549483.018   117420980.427        -274.887          27.000  
E01  23376240.166   122842970.854        -836.716          31.000  
G10  21692082.884   113992581.248       -3615.314          23.000  
G31  21092068.365   110839482.9841       -803.229          25.000  
J01  36933984.435   194089431.333         314.693          27.000  
J02  38686107.065   203296853.391       -1520.994          25.000  
R02  19160513.652   102244141.996        -272.892          33.000  
> 2021  9 12 12  1  6.9975437  0 12
C03  36497613.428   190052612.4461       -699.588          31.000  
C07  37027870.738   192813848.815         417.753          34.000  
C16  37151388.829   193457057.851        -246.246          28.000  
C23  22549475.823   117420943.591        -276.846          26.000  
E01  23376337.898   122843484.770        -836.117          31.000  
G10  21692713.947   113995883.582       -3619.048          26.000  
G26  21378944.864   112347196.4451       1972.053          23.000  
G31  21092160.701   110839971.051        -803.046          23.000  
G32  20837128.756   109499961.6451       -200.925          28.000  
J01  36933865.117   194088802.415         312.990          26.000  
J02  38686336.706   203298058.804       -1519.282          20.000  
R02  19160506.757   102244095.507        -274.042          33.000  
> 2021  9 12 12  1  7.9975432  0 12
C03  36497597.239   190052531.368        -699.639          31.000  
C06  36546626.797   190307941.9371       -288.548          14.000  
C07  37027640.498   192812648.751         418.441          34.000  
C16  37151286.899   193456523.128        -246.157          27.000  
C23  22549377.791   117420440.487        -278.203          27.000  
E01  23376347.491   122843535.060        -838.222          30.000  
E19  23881608.706                       -1028.655          29.000  
G26  21378422.326   112344437.818        1969.335          23.000  
G31  21092164.898   110839987.139        -803.495          26.000  
G32  20837018.432   109499374.675        -200.553          28.000  
J02  38686475.810   203298790.329       -1519.756          24.000  
R02  19160409.924   102243569.905        -274.817          35.000  
> 2021  9 12 12  1  8.9975429  0 12
C06  36546591.421   190307764.435        -292.138          15.000  
C07  37027468.717   192811761.172         419.507          34.000  
C16  37151243.729   193456300.304        -244.956          27.000  
C23  22549340.317   117420250.670        -279.060          27.000  
E01  23376417.943   122843904.434        -836.659          31.000  
E19  23881716.032                       -1029.102          29.000  
G10  21693856.156   114001864.6681      -3622.027          25.000  
G31  21092230.253   110840318.341        -803.886          25.000  
G32  20836965.669   109499103.732        -201.284          27.000  
J01  36933499.670   194086916.1391        313.309          26.000  
J02  38686674.872   203299837.617       -1519.237          24.000  
R02  19160372.150   102243365.052        -275.559          34.000  
> 2021  9 12 12  1  9.9975424  0 12
C07  37027241.174   192810561.379         419.575          33.000  
C16  37151140.900   193455765.096        -245.249          28.000  
C23  22549243.484   117419749.080        -278.807          28.000  
E01  23376423.639   122843934.724        -835.866          30.000  
E19  23881762.500   125499506.1421      -1029.662          29.000  
G10  21694392.784   114004697.801       -3619.831          27.000  
G26  21377443.204   112339242.4131       1965.960          21.000  
G31  21092232.351   110840335.121        -805.080          26.000  
G32  20836855.345   109498517.266        -201.439          25.000  
J01  36933287.717   194085814.874         313.922          26.000  
J02  38686814.576   203300569.635       -1519.582          27.000  
R02  19160276.517   102242841.001        -276.207          34.000  
> 2021  9 12 12  1 10.9975419  0 12
C07  37027009.135   192809361.671         420.588          33.000  
C16  37151038.971   193455230.194        -245.687          27.000  
C23  22549145.152   117419246.881        -278.238          27.000  
E01  23376433.232   122843985.014        -838.637          30.000  
E19  23881809.567   125499748.378       -1030.386          30.000  
G10  21694933.010   114007529.815       -3619.454          27.000  
G26  21376922.165   112336487.698        1967.660          22.000  
G31  21092235.649   110840352.977        -807.173          21.000  
G32  20836744.422   109497931.345        -201.486          25.000  
J01  36933074.265   194084712.730         314.621          26.000  
J02  38686953.979   203301301.718       -1521.104          26.000  
R02  19160176.985   102242317.642        -276.914          33.000  
> 2021  9 12 12  1 11.9975414  0 13
C03  36497594.541   190052518.9281       -699.551          31.000  
C06  36546310.516   190306302.8141       -291.376          16.000  
C07  37026777.395   192808162.111         418.970          33.000  
C16  37150934.943   193454694.313        -244.095          27.000  
C23  22549045.621   117418744.718        -278.476          26.000  
E01  23376442.825   122844035.304        -836.906          31.000  
E19  23881855.436   125499991.262       -1030.781          30.000  
G10  21695471.138   114010361.362       -3619.316          29.000  
G26  21376398.427   112333732.082        1968.727          24.000  
G32  20836634.098   109497344.970        -201.397          26.000  
J01  36932864.110   194083610.466         313.272          26.000  
J02  38687094.882   203302034.006       -1518.700          22.000  
R02  19160077.155   102241794.955        -277.580          34.000  
> 2021  9 12 12  1 12.9975409  0 11
C07  37026547.754   192806962.689         419.752          33.000  
C16  37150831.515   193454157.596        -244.468          28.000  
C23  22548949.687   117418242.036        -278.343          27.000  
E01  23376453.618   122844092.594        -836.482          31.000  
E19  23881901.004   125500234.679       -1031.104          31.000  
G10  21696009.265   114013192.802       -3619.141          28.000  
G26  21375875.289   112330975.178        1969.550          26.000  
G32  20836523.475   109496759.442        -203.197          27.000  
J01  36932655.155   194082509.176         313.979          25.000  
J02  38687232.786   203302764.195       -1517.240          22.000  
R02  19159977.624   102241272.975        -278.256          35.000  
> 2021  9 12 12  1 13.9975406  0 10
C07  37026378.372   192806075.532         418.932          33.000  
C16  37150788.944   193453933.975        -245.964          28.000  
C23  22548911.913   117418051.663        -277.659          27.000  
E01  23376524.069   122844462.968        -837.609          32.000  
E19  23882007.730   125500793.127       -1031.109          30.000  
G10  21696607.651   114016339.305       -3619.459          28.000  
G26  21375412.410   112328532.414        1970.190          25.000  
G32  20836469.512   109496489.862        -203.023          27.000  
J01  36932505.259   194081722.033         313.712          25.000  
R02  19159937.751   102241071.610        -278.899          34.000  
> 2021  9 12 12  1 14.9975404  0 10
C06  36546180.106   190305621.6711       -295.806          16.000  
C07  37026239.268   192805344.684         418.843          33.000  
C16  37150776.053   193453866.848        -244.043          27.000  
C23  22548905.318   117418017.210        -278.387          28.000  
E01  23376622.401   122844978.884        -839.436          31.000  
E19  23882143.236   125501509.217       -1032.689          30.000  
G10  21697237.215   114019644.024       -3620.308          27.000  
G32  20836449.726   109496378.367        -204.417          25.000  
J01  36932385.342   194081093.648         312.785          25.000  
R02  19159929.657   102241031.038        -279.984          34.000  
> 2021  9 12 12  1 15.9975398  0 11
C03  36497651.202   190052819.4081       -699.476          31.000  
C07  37025976.950   192803989.578         418.657          32.000  
C16  37150641.746   193453174.378        -244.530          26.000  
C23  22548777.906   117417359.507        -279.214          29.000  
E01  23376601.715   122844870.632        -840.914          30.000  
E19  23882159.725   125501596.031       -1031.854          29.000  
G10  21697744.164   114022319.336       -3621.597          26.000  
G26  21374425.193   112323333.8711       1967.335          24.000  
G32  20836308.824   109495637.303        -204.020          25.000  
J01  36932143.409   194079835.753         312.880          25.000  
R02  19159799.847   102240351.491        -280.981          34.000  
> 2021  9 12 12  1 16.9975393  0 10
C07  37025747.009   192802790.809         417.958          33.000  
C16  37150537.718   193452639.026        -245.261          26.000  
C23  22548680.174   117416857.832        -279.455          29.000  
E01  23376612.208   122844925.922        -842.447          30.000  
E19  23882204.694   125501840.082       -1031.628          31.000  
G10  21698281.692   114025153.135       -3621.995          27.000  
G32  20836198.200   109495054.339        -204.469          26.000  
J01  36931932.655   194078734.920         313.651          26.000  
J02  38687910.917   203306324.5961      -1522.419          20.000  
R02  19159700.315   102239832.807        -281.671          35.000  
> 2021  9 12 12  1 17.9975388  0 13
C03  36497621.223   190052657.4531       -699.840          30.000  
C07  37025518.867   192801592.103         416.525          33.000  
C16  37150435.189   193452102.326        -243.909          27.000  
C23  22548582.441   117416357.402        -280.115          27.000  
E01  23376625.399   122844995.212        -842.140          29.000  
E19  23882250.862   125502084.499       -1032.344          31.000  
G10  21698821.618   114027987.528       -3622.270          26.000  
G26  21373369.025   112317824.4581       1966.120          25.000  
G31  21092390.642   110841104.2431       -802.662          23.000  
G32  20836087.877   109494470.666        -203.454          29.000  
J01  36931723.100   194077633.459         314.729          26.000  
J02  38688050.920   203307059.486       -1521.739          24.000  
R02  19159601.984   102239314.985        -282.484          36.000  
> 2021  9 12 12  1 18.9975383  0 12
C03  36497605.933   190052576.794        -700.460          31.000  
C07  37025286.827   192800393.600         418.032          32.000  
C16  37150331.760   193451565.976        -245.349          28.000  
C23  22548485.908   117415856.514        -279.166          25.000  
E01  23376638.290   122845062.502        -842.255          30.000  
E19  23882299.128   125502329.197       -1032.577          31.000  
G10  21699359.746   114030821.839       -3622.299          26.000  
G26  21372841.690   112315070.284        1965.982          25.000  
G32  20835977.853   109493886.915        -204.500          27.000  
J01  36931512.646   194076531.971         314.805          25.000  
J02  38688189.424   203307793.144       -1521.052          21.000  
R02  19159503.951   102238797.826        -283.110          35.000  
> 2021  9 12 12  1 19.9975380  0 10
C07  37025118.644   192799507.441         418.971          33.000  
C16  37150290.389   193451342.710        -245.011          28.000  
C23  22548449.034   117415666.898        -279.595          26.000  
E01  23376709.641   122845437.876        -840.833          29.000  
E19  23882407.953                       -1032.205          31.000  
G10  21699959.631   114033971.554       -3622.625          26.000  
G26  21372378.210   112312632.175        1965.179          26.000  
J01  36931363.049   194075744.421         314.508          26.000  
J02  38688389.086   203308841.395       -1521.305          23.000  
R02  19159466.777   102238601.306        -283.843          35.000  
> 2021  9 12 12  1 20.9975375  0 11
C03  36497636.212   190052729.3251       -701.152          32.000  
C07  37024888.103   192798309.218         417.789          33.000  
C16  37150188.160   193450807.331        -244.951          28.000  
C23  22548352.500   117415166.435        -280.438          26.000  
E01  23376717.735   122845480.166        -840.853          30.000  
E19  23882454.121   125503145.7751      -1033.966          31.000  
G10  21700497.758   114036805.891       -3622.201          26.000  
G26  21371855.972   112309879.484        1965.494          26.000  
G32  20835814.466   109493035.0321       -203.730          24.000  
J01  36931154.394   194074641.616         315.415          25.000  
R02  19159370.244   102238085.673        -284.638          35.000  
> 2021  9 12 12  1 21.9975370  0 11
C07  37024658.462   192797111.291         418.230          32.000  
C16  37150085.331   193450272.061        -245.613          28.000  
C23  22548259.565   117414665.978        -280.532          28.000  
E01  23376725.530   122845521.456        -841.227          31.000  
E19  23882501.488   125503391.788       -1032.021          31.000  
G26  21371332.534   112307126.545        1965.034          23.000  
G31  21092472.485   110841476.1961       -804.562          20.000  
G32  20835704.142   109492451.694        -204.769          26.000  
J01  36930943.640   194073538.829         314.694          25.000  
J02  38688668.492   203310308.9841      -1521.764          20.000  
R02  19159272.212   102237570.774        -285.256          36.000  
> 2021  9 12 12  1 22.9975368  0  9
C07  37024519.059   192796382.154         416.307          32.000  
C16  37150074.838   193450205.073        -245.775          30.000  
C23  22548254.768   117414634.798        -280.937          26.000  
E01  23376822.662   122846031.372        -843.598          33.000  
E19  23882635.795   125504110.728       -1035.153          29.000  
G10  21701659.754   114042947.8891      -3621.714          24.000  
G32  20835686.454   109492341.977        -205.539          30.000  
J02  38688900.531   203311515.581       -1521.564          25.000  
R02  19159264.117   102237536.668        -286.586          34.000  
> 2021  9 12 12  1 23.9975363  0 10
C07  37024287.019   192795184.734         417.822          28.000  
C16  37149972.909   193449669.700        -245.279          29.000  
C23  22548162.432   117414134.238        -280.836          22.000  
E01  23376831.656   122846078.662        -844.115          28.000  
E19  23882680.464   125504358.171       -1034.706          24.000  
G10  21702196.682   114045781.378       -3621.556          27.000  
G31  21092569.618   110841988.6551       -809.419          22.000  
J01  36930618.665   194071804.7591        313.750          26.000  
J02  38689040.235   203312249.415       -1521.955          29.000  
R02  19159167.284   102237023.600        -287.376          32.000  
> 2021  9 12 12  1 24.9975357  0  7
C07  37024027.999   192793831.390         416.333          26.000  
C16  37149839.801   193448977.872        -244.938          31.000  
E01  23376812.469   122845978.410        -845.634          30.000  
G10  21702705.130   114048459.345       -3624.499          25.000  
J01  36930380.330   194070547.348         311.327          24.000  
J02  38689149.359   203312826.580       -1522.906          25.000  
R02  19159039.573   102236351.464        -288.403          33.000  
> 2021  9 12 12  1 25.9975355  0  9
C07  37023886.497   192793102.426         416.558          27.000  
C16  37149826.910   193448910.185        -244.185          31.000  
C23  22548031.123   117413449.5051       -282.851          25.000  
E01  23376914.699   122846515.326        -845.284          33.000  
G26  21369368.294   112296911.2101       1963.046          18.000  
G32  20835422.337                        -208.047          33.000  
J01  36930261.012   194069922.807         309.233          23.000  
J02  38689377.801   203314034.648       -1523.525          23.000  
R02  19159035.676   102236320.336        -289.334          33.000  
> 2021  9 12 12  1 26.9975350  0  9
C16  37149722.282   193448374.081        -244.861          30.000  
C23  22547936.988   117412951.341        -283.193          26.000  
E01  23376924.292   122846565.616        -844.673          34.000  
G26  21368842.758   112294160.238        1961.816          18.000  
G31  21092630.476   110842367.3861       -809.930          24.000  
G32  20835311.414   109490302.0371       -206.880          33.000  
J01  36930051.457   194068824.646         310.534          22.000  
J02  38689516.905   203314768.241       -1519.129          24.000  
R02  19158939.142   102235809.867        -289.743          34.000  
> 2021  9 12 12  1 27.9975345  0  9
C06  36545160.812   190300211.2591       -296.854          24.000  
C07  37023423.317   192790707.7021        417.016          25.000  
C16  37149619.154   193447838.699        -245.611          31.000  
C23  22547842.553   117412454.907        -285.364          21.000  
E01  23376936.883   122846631.906        -845.712          34.000  
G10  21704412.748   114057446.3151      -3625.712          21.000  
G32  20835200.791   109489721.471        -206.945          34.000  
J01  36929844.301   194067726.017         311.114          24.000  
R02  19158844.708   102235299.951        -290.293          33.000  
> 2021  9 12 12  1 28.9975340  0  9
C06  36545069.675   190299727.296        -296.760          25.000  
C07  37023193.676   192789510.186         416.966          27.000  
C16  37149517.524   193447303.642        -245.731          33.000  
C23  22547747.219   117411959.026        -284.429          24.000  
E01  23376948.275   122846692.196        -845.377          34.000  
G32  20835092.266   109489141.258        -207.623          33.000  
J01  36929636.245   194066626.617         311.953          23.000  
J02  38689790.915   203316229.9831      -1518.310          21.000  
R02  19158749.074   102234790.692        -290.984          32.000  
> 2021  9 12 12  1 29.9975334  0 11
C06  36544949.458   190299087.026        -296.399          26.000  
C07  37022934.656   192788157.401         415.413          27.000  
C16  37149385.615   193446612.490        -245.036          33.000  
C23  22547623.105   117411305.283        -283.182          22.000  
E01  23376928.789   122846588.944        -846.227          35.000  
G26  21367247.263   112285760.6551       1959.550          18.000  
G31  21092590.903   110842276.7011       -809.809          26.000  
G32  20834948.665   109488403.768        -205.826          30.000  
J01  36929395.511   194065368.975         312.609          23.000  
J02  38689900.339   203316804.520       -1520.254          23.000  
R02  19158625.560   102234122.225        -291.741          33.000  
> 2021  9 12 12  1 30.9975334  0 10
C06  36545008.817   190299382.548        -295.523          27.000  
C07  37022856.710   192787741.274         416.460          24.000  
C16  37149431.784   193446857.663        -244.579          30.000  
C23  22547677.668   117411589.057        -284.830          24.000  
E01  23377087.979   122847425.944        -846.119          33.000  
G31  21092741.699   110843085.879        -808.919          28.000  
G32  20834993.334   109488611.926        -208.398          27.000  
J01  36929336.452   194065056.845         311.587          24.000  
J02  38690190.838   203318326.309       -1522.894          26.000  
R02  19158680.422   102234414.248        -292.447          33.000  
> 2021  9 12 12  1 31.9975329  0 11
C06  36544914.982   190298897.690        -296.873          25.000  
C07  37022627.968   192786544.478         415.977          25.000  
C16  37149327.756   193446320.989        -243.690          31.000  
C23  22547583.533   117411093.579        -285.237          25.000  
E01  23377100.270   122847490.234        -846.491          35.000  
G26  21366354.181   112281054.5601       1959.198          19.000  
G31  21092744.097   110843107.294        -809.345          29.000  
G32  20834880.612   109488032.766        -208.128          32.000  
J01  36929127.797   194063956.987         311.713          26.000  
J02  38690333.839   203319061.137       -1522.942          24.000  
R02  19158586.886   102233906.986        -293.141          32.000  
> 2021  9 12 12  1 32.9975324  0 11
C06  36544819.348   190298413.924        -297.080          26.000  
C07  37022399.526   192785349.777         414.111          23.000  
C16  37149224.627   193445784.306        -244.236          32.000  
C23  22547490.897   117410598.497        -286.050          25.000  
E01  23377109.864   122847540.524        -847.991          35.000  
G26  21365832.542   112278306.694        1960.182          24.000  
G31  21092747.695   110843129.372        -810.962          30.000  
G32  20834769.389   109487453.822        -208.766          32.000  
J01  36928917.642   194062857.824         311.383          25.000  
J02  38690473.842   203319796.529       -1523.079          25.000  
R02  19158499.047   102233400.566        -294.026          32.000  
> 2021  9 12 12  1 33.9975319  0 12
C06  36544724.913   190297929.218        -294.667          27.000  
C07  37022171.684   192784154.895         415.127          24.000  
C09  37631501.654   195957103.3951       -355.345          25.000  
C16  37149124.196   193445247.848        -245.239          31.000  
C23  22547395.263   117410103.723        -286.119          25.000  
E01  23377120.356   122847595.814        -846.803          34.000  
G26  21365308.505   112275558.196        1961.396          22.000  
G31  21092751.592   110843152.559        -810.955          30.000  
G32  20834657.267   109486875.205        -210.780          31.000  
J01  36928710.186   194061758.920         311.065          27.000  
J02  38690613.246   203320531.890       -1522.650          26.000  
R02  19158406.111   102232895.085        -294.887          32.000  
> 2021  9 12 12  1 34.9975314  0 11
C06  36544630.779   190297442.427        -293.347          27.000  
C07  37021940.544   192782959.086         415.217          24.000  
C09  37631423.108   195956678.814        -356.463          26.000  
C16  37149021.068   193444712.051        -244.472          31.000  
C23  22547302.627   117409609.078        -286.160          26.000  
E01  23377133.547   122847665.104        -848.422          34.000  
G26  21364785.367   112272809.734        1959.601          23.000  
G31  21092755.789   110843175.391        -810.425          30.000  
G32  20834552.340   109486296.994        -209.203          31.000  
J02  38690753.549   203321266.370       -1522.243          25.000  
R02  19158314.675   102232390.528        -295.895          32.000  
> 2021  9 12 12  1 35.9975311  0 11
C06  36544595.703   190297267.701        -293.965          26.000  
C07  37021769.362   192782075.359         416.001          26.000  
C09  37631403.322   195956566.763        -357.001          25.000  
C16  37148976.099   193444488.120        -244.705          32.000  
C23  22547270.849   117409428.034        -288.009          24.000  
E01  23377203.998   122848035.478        -848.286          34.000  
G10  21708913.832   114081110.3801      -3628.117          20.000  
G32  20834500.475   109486034.682        -210.424          30.000  
J01  36928348.936   194059878.2331        310.292          23.000  
J02  38690953.210   203322315.305       -1521.742          25.000  
R02  19158279.599   102232206.752        -296.461          32.000  
> 2021  9 12 12  1 36.9975306  0 12
C06  36544502.467   190296781.717        -295.096          25.000  
C07  37021540.021   192780879.138         415.390          27.000  
C09  37631322.378   195956144.003        -359.235          23.000  
C16  37148872.071   193443952.318        -244.738          30.000  
C23  22547178.213   117408936.092        -288.390          24.000  
E01  23377218.089   122848109.768        -849.156          33.000  
G10  21709456.756   114083951.181       -3629.463          25.000  
G26  21363798.150   112267631.8181       1956.908          24.000  
G32  20834388.653   109485457.603        -210.349          30.000  
J01  36928142.379   194058780.717         308.836          26.000  
J02  38691093.214   203323049.702       -1522.589          25.000  
R02  19158189.961   102231703.697        -297.152          32.000  
> 2021  9 12 12  1 37.9975301  0 11
C06  36544408.333   190296295.667        -294.871          27.000  
C07  37021311.579   192779683.748         414.143          26.000  
C09  37631241.434   195955722.536        -357.311          25.000  
C16  37148768.643   193443416.520        -244.816          30.000  
C23  22547087.976   117408444.120        -289.126          25.000  
E01  23377228.581   122848165.058        -850.129          34.000  
G26  21363276.811   112264888.030        1955.673          23.000  
G32  20834276.530   109484880.128        -210.819          30.000  
J01  36927934.623   194057683.048         310.514          26.000  
J02  38691232.017   203323783.614       -1521.116          25.000  
R02  19158098.225   102231201.248        -297.755          32.000  
> 2021  9 12 12  1 38.9975299  0 12
C06  36544404.135   190296277.944        -294.918          27.000  
C07  37021170.377   192778957.443         414.346          26.000  
C09  37631250.727   195955767.008        -355.847          24.000  
C16  37148755.152   193443348.769        -244.734          31.000  
C23  22547084.978   117408420.729        -288.620          25.000  
E01  23377332.310   122848709.974        -850.085          33.000  
G10  21710636.739   114090108.6451      -3632.415          22.000  
G31  21092930.268   110844056.6191       -811.767          29.000  
G32  20834256.744   109484775.526        -210.288          30.000  
J01  36927813.507   194057056.784         312.158          25.000  
J02  38691461.658   203324988.401       -1519.610          25.000  
R02  19158093.128   102231179.386        -298.669          32.000  
> 2021  9 12 12  1 39.9975293  0 12
C06  36544281.221   190295635.979        -294.872          27.000  
C07  37020911.057   192777605.625         415.330          26.000  
C09  37631138.605   195955186.475        -355.971          22.000  
C16  37148621.145   193442656.593        -244.654          31.000  
C23  22546961.463   117407772.320        -287.873          26.000  
E01  23377314.922   122848618.722        -851.002          34.000  
G10  21711150.583   114092795.652       -3634.054          22.000  
G31  21092904.186   110843922.821        -811.610          31.000  
G32  20834116.441   109484040.668        -210.924          30.000  
J01  36927571.274   194055798.807         313.081          24.000  
J02  38691571.383   203325563.547       -1521.062          25.000  
R02  19157969.614   102230518.387        -299.407          34.000  
> 2021  9 12 12  1 40.9975288  0 11
C06  36544190.084   190295150.389        -295.151          26.000  
C07  37020681.116   192776410.558         412.929          25.000  
C09  37631058.860   195954762.386        -355.958          22.000  
C16  37148518.616   193442120.707        -244.768          30.000  
C23  22546867.329   117407279.836        -288.266          28.000  
E01  23377327.213   122848683.012        -851.455          33.000  
G10  21711696.805   114095642.260       -3634.522          19.000  
G32  20834005.218   109483463.837        -210.524          28.000  
J01  36927360.520   194054698.984         312.200          24.000  
J02  38691711.386   203326296.181       -1520.448          25.000  
R02  19157878.177   102230018.309        -300.398          34.000  
> 2021  9 12 12  1 41.9975286  0 10
C06  36544189.184   190295132.391        -294.436          26.000  
C07  37020542.012   192775685.715         411.945          25.000  
C09  37631066.055   195954805.364        -354.308          21.000  
C16  37148506.624   193442052.668        -244.798          30.000  
C23  22546861.932   117407256.078        -288.406          27.000  
E01  23377428.543   122849215.928        -851.294          34.000  
G32  20833984.233   109483360.432        -212.721          29.000  
J01  36927240.004   194054072.287         312.202          25.000  
J02  38691941.027   203327501.883       -1521.931          24.000  
R02  19157875.179   102229999.114        -301.297          34.000  
> 2021  9 12 12  1 42.9975281  0 10
C06  36544095.049   190294645.788        -294.464          25.000  
C07  37020312.371   192774493.053         412.024          24.000  
C16  37148402.896   193441516.599        -244.229          29.000  
C23  22546765.699   117406763.448        -287.854          27.000  
E01  23377439.935   122849275.218        -852.759          33.000  
G31  21093018.107   110844469.6861       -813.523          24.000  
G32  20833872.410   109482785.745        -213.197          28.000  
J01  36927033.447   194052973.328         310.484          24.000  
J02  38692083.128   203328235.611       -1521.692          23.000  
R02  19157780.145   102229500.889        -302.134          35.000  
> 2021  9 12 12  1 43.9975276  0 10
C06  36544000.615   190294158.151        -293.465          25.000  
C07  37020082.130   192773299.549         414.105          25.000  
C09  37630897.871   195953956.3821       -357.682          20.000  
C16  37148300.667   193440980.279        -243.960          28.000  
C23  22546669.765   117406271.244        -288.661          29.000  
E01  23377451.927   122849338.508        -852.805          33.000  
G26  21360296.874   112249219.6111       1952.340          22.000  
G31  21093024.403   110844495.389        -813.516          24.000  
G32  20833761.487   109482211.822        -214.046          28.000  
R02  19157684.811   102229003.318        -302.580          35.000  
> 2021  9 12 12  1 44.9975270  0 11
C06  36543877.400   190293514.641        -292.834          26.000  
C07  37019823.110   192771949.483         412.868          26.000  
C09  37630786.648   195953376.916        -357.716          20.000  
C16  37148167.859   193440287.720        -244.124          29.000  
C23  22546543.852   117405624.414        -290.625          29.000  
E01  23377433.939   122849244.256        -853.106          33.000  
G31  21093003.118   110844363.688        -813.729          25.000  
G32  20833620.285   109481480.384        -214.757          29.000  
J01  36926586.456   194050619.1761        310.611          24.000  
J02  38692335.553   203329545.0001      -1521.502          24.000  
R02  19157559.797   102228346.340        -303.177          35.000  
> 2021  9 12 12  1 45.9975265  0 11
C06  36543783.565   190293027.007        -293.668          24.000  
C07  37019594.968   192770755.486         414.613          26.000  
C09  37630705.105   195952953.763        -356.556          25.000  
C16  37148065.929   193439750.909        -243.489          31.000  
E01  23377446.531   122849310.546        -854.416          32.000  
G10  21714447.701   114110195.4341      -3634.972          19.000  
G26  21359229.613   112243582.1831       1952.149          25.000  
G31  21093013.311   110844388.979        -812.280          26.000  
J01  36926378.700   194049521.073         310.117          27.000  
J02  38692474.657   203330278.721       -1521.500          28.000  
R02  19157464.763   102227849.832        -303.585          34.000  
> 2021  9 12 12  1 46.9975265  0 12
C06  36543840.526   190293320.399        -294.166          21.000  
C07  37019516.122   192770339.661         416.121          22.000  
C09  37630773.458   195953309.860        -355.849          24.000  
C16  37148115.395   193439994.065        -242.461          28.000  
E01  23377608.418   122850160.546        -854.351          35.000  
G10  21715138.722   114113829.680       -3633.317          27.000  
G26  21358857.870   112241629.649        1953.099          24.000  
G31  21093169.203   110845202.080        -813.792          29.000  
G32  20833554.930   109481119.5551       -212.372          25.000  
J01  36926322.339   194049210.425         311.352          25.000  
J02  38692765.156   203331800.498       -1522.180          27.000  
R02  19157519.625   102228153.796        -304.457          34.000  
> 2021  9 12 12  1 47.9975260  0 13
C06  36543748.190   190292833.157        -293.412          19.000  
C07  37019286.481   192769143.948         415.544          22.000  
C09  37630693.413   195952885.832        -357.077          25.000  
C16  37148014.665   193439456.498        -243.644          26.000  
C23  22546400.851   117404936.7261       -293.691          25.000  
E01  23377621.010   122850226.836        -855.438          32.000  
G10  21715679.848   114116675.353       -3633.730          23.000  
G26  21358336.831   112238888.479        1953.092          26.000  
G31  21093174.599   110845228.031        -814.261          26.000  
G32  20833444.606   109480544.033        -212.030          22.000  
J01  36926113.683   194048111.489         311.375          27.000  
J02  38692904.260   203332535.353       -1522.906          28.000  
R02  19157426.390   102227658.623        -305.237          34.000  
> 2021  9 12 12  1 48.9975255  0 12
C07  37019056.540   192767948.215         414.900          28.000  
C09  37630613.668   195952462.373        -356.606          24.000  
C16  37147910.637   193438919.664        -244.142          30.000  
C23  22546306.417   117404449.253        -291.758          26.000  
E01  23377636.599   122850309.126        -854.661          31.000  
G10  21716222.172   114119521.748       -3634.419          24.000  
G26  21357815.792   112236149.858        1950.177          27.000  
