     3.03           OBSERVATION DATA    M: Mixed            RINEX VERSION / TYPE
Geo++ RINEX Logger  Geo++               20210912 103153 UTC PGM / RUN BY / DATE
************************************************************COMMENT
This file was generated by the Geo++ RINEX Logger App       COMMENT
for Android devices (Version 2.1.6). If you encounter       COMMENT
any issues, please send an email to android@geopp.de        COMMENT
Filtering Mode: MORE                                        COMMENT
************************************************************COMMENT
Geo++                                                       MARKER NAME
GEODETIC                                                    MARKER TYPE
Geo++               Geo++                                   OBSERVER / AGENCY
unknown             HUAWEI              ELS-AN00            REC # / TYPE / VERS
unknown             ELS-AN00                                ANT # / TYPE
 -2417114.6218  5385884.0621  2406622.4655                  APPROX POSITION XYZ
        0.0000        0.0000        0.0000                  ANTENNA: DELTA H/E/N
G    8 C1C L1C D1C S1C C5Q L5Q D5Q S5Q                      SYS / # / OBS TYPES
R    4 C1C L1C D1C S1C                                      SYS / # / OBS TYPES
E   12 C1B L1B D1B S1B C1C L1C D1C S1C C5Q L5Q D5Q S5Q      SYS / # / OBS TYPES
C    4 C2I L2I D2I S2I                                      SYS / # / OBS TYPES
J    8 C1C L1C D1C S1C C5Q L5Q D5Q S5Q                      SYS / # / OBS TYPES
  2021     9    12    10    32   11.9998812     GPS         TIME OF FIRST OBS
 24 R01  1 R02 -4 R03  5 R04  6 R05  1 R06 -4 R07  5 R08  6 GLONASS SLOT / FRQ #
    R09 -2 R10 -5 R11  0 R12 -1 R13 -2 R14 -7 R15  0 R16 -1 GLONASS SLOT / FRQ #
    R17  4 R18 -3 R19  3 R20  2 R21  4 R22 -3 R23  3 R24  2 GLONASS SLOT / FRQ #
G L1C                                                       SYS / PHASE SHIFT
G L5Q -0.25000                                              SYS / PHASE SHIFT
R L1C                                                       SYS / PHASE SHIFT
E L1B                                                       SYS / PHASE SHIFT
E L1C +0.50000                                              SYS / PHASE SHIFT
E L5Q -0.25000                                              SYS / PHASE SHIFT
C L2I                                                       SYS / PHASE SHIFT
J L1C                                                       SYS / PHASE SHIFT
J L5Q -0.25000                                              SYS / PHASE SHIFT
 C1C    0.000 C1P    0.000 C2C    0.000 C2P    0.000        GLONASS COD/PHS/BIS
                                                            END OF HEADER
> 2021  9 12 10 32 11.9998812  3  1
Geo++                                                       MARKER NAME
> 2021  9 12 10 32 11.9998812  0 16
C06  36694539.599   191078096.5881       -765.776          37.000  
C09  37681719.289   196218600.2031       -869.508          30.000  
C14  23085013.977   120209724.7631      -2203.883          24.000  
C16  37340968.585   194444222.0161       -741.625          26.000  
C25  21805987.529   113549499.0531       -852.013          40.000  
C33  22248600.814   115854302.3131       -933.872          37.000  
E21  24176069.955   127046104.4101      -1146.897          37.000  
G10  20151998.961   105899468.8381       -537.988          43.000    20152004.058    79080792.0151       -404.486          26.000  
G12  22415826.846   117795964.6221      -2162.044          28.000  
G23  21180849.203   111306112.9541      -2928.056          20.000  
G25  20788744.052   109245586.8291       -435.351          30.000  
G31  21819338.786   114661398.3321       1068.449          29.000  
G32  21825770.833   114695199.3341        536.253          40.000    21825778.028    85649040.3901        400.169          34.000  
J01  38053114.477   199970465.6961        466.655          36.000    38053121.372   149328620.9761        344.756          26.000  
J02  37889978.813   199113181.7131      -1350.660          27.000  
R12  19083341.677   101939785.8401      -1136.383          35.000  
> 2021  9 12 10 32 12.9998807  0 16
C06  36694535.402   191078082.603        -767.064          39.000  
C09  37681736.976   196218689.622        -870.256          30.000  
C14  23085284.390   120211147.540       -2202.474          26.000  
C16  37340960.791   194444183.316        -741.853          27.000  
C25  21806003.118   113549570.377        -852.780          43.000  
C33  22248631.693   115854456.123        -937.219          33.000  
E21  24176138.308                       -1148.933          36.000  
G10  20151950.395   105899219.436        -539.135          38.000    20151956.391    79080607.399        -403.006          28.000  
G12  22416089.164   117797339.056       -2163.293          30.000  
G23  21181256.321   111308253.381       -2927.621          29.000  
G25  20788680.796   109245234.491        -435.870          27.000  
G31  21818987.130   114659542.882        1066.998          27.000  
G32  21825522.006   114693875.750         535.517          41.000    21825526.203    85648052.003         399.749          34.000  
J01  38052878.840   199969213.691         463.251          32.000    38052881.838   149327686.945         345.571          26.000  
J02  37890088.538   199113743.722       -1349.072          23.000  
R12  19083402.535   101940110.156       -1137.590          34.000  
> 2021  9 12 10 32 13.9998802  0 16
C06  36694533.903   191078068.514        -766.010          39.000  
C09  37681753.465   196218779.976        -871.258          24.000  
C14  23085556.002   120212568.344       -2200.785          25.000  
C16  37340952.696   194444144.995        -742.200          27.000  
C23  23941843.307   124671459.9221       1655.504          23.000  
C25  21806015.709   113549642.250        -853.573          42.000  
C33  22248663.171   115854610.656        -936.036          32.000  
E21  24176206.660   127046822.6341      -1146.784          36.000  
G10  20151903.328   105898970.605        -538.778          38.000    20151906.026    79080420.963        -402.674          28.000  
G12  22416352.082   117798714.804       -2163.925          27.000  
G25  20788617.240   109244883.208        -437.067          27.000  
G31  21818636.372   114657688.357        1066.675          22.000  
G32  21825271.679   114692552.142         536.158          42.000    21825274.377    85647063.649         400.743          34.000  
J01  38052643.803   199967962.003         462.055          32.000    38052642.903   149326753.670         344.811          28.000  
J02  37890196.463   199114304.726       -1348.892          27.000  
R12  19083463.093   101940433.715       -1136.919          35.000  
> 2021  9 12 10 32 14.9998799  0 13
C06  36694590.564   191078366.714        -766.224          37.000  
C14  23085886.673   120214301.095       -2201.012          24.000  
C16  37341006.059   194444417.748        -740.957          27.000  
C23  23941439.786   124669336.920        1653.903          25.000  
C25  21806090.957   113550026.918        -852.662          39.000  
C33  22248751.910   115855077.847        -935.716          38.000  
E21  24176337.070   127047497.454       -1148.414          38.000  
G10  20151914.420   105899037.860        -538.782          37.000    20151917.118    79080473.681        -409.498          18.000  
G12  22416672.561   117800405.968       -2163.494          28.000  
G25  20788611.843   109244848.045        -437.835          31.000  
G32  21825078.013   114691543.866         535.504          41.000    21825083.109    85646310.694         400.716          34.000  
J01  38052465.127   199967025.459         466.528          33.000    38052465.426   149326055.105         347.383          30.000  
R12  19083586.908   101941095.845       -1139.367          28.000  
> 2021  9 12 10 32 15.9998794  0 15
C06  36694585.467   191078352.846        -766.551          37.000  
C09  37681849.698   196219274.2321       -873.383          17.000  
C14  23086160.384   120215721.471       -2202.726          26.000  
C16  37341000.064   194444378.668        -742.180          26.000  
C23  23940975.707   124666903.160        1653.096          22.000  
C25  21806105.947   113550100.047        -853.839          39.000  
C33  22248780.989   115855233.304        -935.543          36.000  
E21  24176403.924   127047857.901       -1148.176          37.000  
G10                                                                  20151870.350    79080293.835        -406.894          17.000  
G12  22416934.279   117801781.490       -2163.401          30.000  
G23  21182532.238   111314986.5991      -2931.655          17.000  
G25  20788547.088   109244498.661        -439.123          29.000  
G32  21824826.187   114690220.717         536.137          41.000    21824830.984    85645322.455         398.903          31.000  
J01  38052223.794   199965773.954         463.116          30.000    38052226.192   149325119.076         347.640          27.000  
R12  19083647.766   101941420.158       -1140.290          33.000  
> 2021  9 12 10 32 16.9998792  0 16
C06  36694673.006   191078807.153        -766.621          35.000  
C09  37681954.925   196219833.596        -871.481          18.000  
C14  23086522.533   120217611.657       -2203.063          26.000  
C16  37341085.504   194444808.543        -743.908          25.000  
C23  23940598.868   124664937.120        1654.161          25.000  
C25  21806204.878   113550641.952        -854.212          40.000  
C33  22248899.108   115855857.479        -935.981          36.000  
E21  24176561.914   127048691.119       -1151.543          35.000  
G10  20151915.319   105899017.1281       -541.887          34.000    20151915.020    79080464.292        -404.588          18.000  
G12  22417286.236   117803630.057       -2164.121          30.000  
G25  20788571.671   109244622.801        -439.663          32.000  
G31  21817722.005   114652913.4661       1065.924          18.000  
G32  21824664.299   114689370.129         535.243          39.000    21824668.496    85644687.415         398.246          29.000  
J01  38052072.998   199964994.853         463.569          32.000    38052075.996   149324535.486         347.562          19.000  
J02  37890664.439   199116776.6291      -1351.292          25.000  
R12  19083798.261   101942224.593       -1141.360          35.000  
> 2021  9 12 10 32 17.9998787  0 14
C06  36694670.908   191078793.272        -766.656          38.000  
C09  37681970.814   196219923.053        -868.596          27.000  
C14  23086795.044   120219034.453       -2204.011          25.000  
C16  37341079.209   194444772.762        -745.239          26.000  
C23  23940129.693   124662502.108        1654.119          29.000  
C25  21806217.470   113550716.163        -854.780          41.000  
C33  22248930.886   115856013.835        -937.327          35.000  
E21  24176632.665   127049052.891       -1150.605          29.000  
G10  20151872.449   105898771.490        -542.623          43.000    20151870.051    79080280.904        -405.196          29.000  
G12  22417546.755   117805006.836       -2165.041          29.000  
G25  20788504.518   109244275.123        -440.687          28.000  
G32  21824413.073   114688047.228         534.897          40.000    21824418.170    85643699.447         401.059          29.000  
J01  38051833.764   199963743.556         465.097          35.000    38051835.263   149323596.884         351.729          17.000  
R12  19083859.119   101942549.695       -1142.380          42.000  
> 2021  9 12 10 32 18.9998781  0 16
C06  36694639.430   191078623.402        -767.008          38.000  
C09  37681957.624   196219854.959        -869.135          27.000  
C14  23087037.876   120220302.422       -2205.944          27.000  
C16  37341042.934   194444581.539        -745.164          27.000  
C23  23939631.438   124659911.809        1653.367          27.000  
C25  21806202.180   113550634.964        -855.853          42.000  
C33  22248932.085   115856014.860        -937.996          36.000  
E21  24176669.240   127049257.680       -1150.523          33.000  
G10  20151794.803   105898369.195        -543.532          44.000  
G12  22417776.696   117806226.826       -2165.153          28.000  
G23  21183822.845   111321736.9941      -2934.351          24.000  
G25  20788409.783   109243770.624        -441.072          30.000  
G31  21816995.308   114649049.8331       1064.447          24.000  
G32  21824133.966   114686566.966         534.858          41.000    21824135.465    85642594.476         400.274          27.000  
J01  38051564.850   199962334.924         462.647          31.000  
R12  19083893.895   101942735.565       -1143.309          43.000  
> 2021  9 12 10 32 19.9998776  0 15
C06  36694638.530   191078609.752        -769.965          37.000  
C09  37681974.712   196219944.047        -869.853          25.000  
C14  23087310.388   120221727.663       -2205.296          25.000  
C16  37341039.037   194444545.008        -743.238          25.000  
C23  23939161.363   124657477.409        1653.178          24.000  
C25  21806216.570   113550710.425        -856.976          42.000  
C33  22248961.764   115856172.452        -938.748          36.000  
E21  24176739.092   127049620.543       -1152.730          34.000  
G10  20151746.836   105898125.190        -545.063          42.000  
G12  22418039.914   117807604.680       -2166.218          28.000  
G25  20788343.229   109243424.080        -441.364          31.000  
G32  21823881.841   114685244.475         533.746          41.000    21823882.740    85641606.063         398.985          26.000  
J01  38051325.615   199961083.951         462.250          31.000  
J02  37890945.944   199118307.4441      -1350.960          27.000  
R12  19083964.946   101943114.711       -1144.829          42.000  
> 2021  9 12 10 32 20.9998774  0 14
C06  36694726.370   191079065.297        -767.709          35.000  
C09  37682082.037   196220501.869        -870.256          27.000  
C16  37341121.779   194444975.432        -741.975          24.000  
C23  23938785.124   124655511.146        1654.449          27.000  
C25  21806320.598   113551255.065        -859.343          41.000  
C33  22249085.279   115856799.183        -942.248          34.000  
E21  24176895.883   127050456.265       -1150.377          32.000  
G10  20151791.505   105898354.776        -544.239          43.000  
G12  22418394.568   117809456.198       -2166.488          28.000  
G25  20788367.812   109243550.734        -442.040          29.000  
G31  21816385.830   114645819.5011       1063.601          23.000  
G32  21823719.953   114684395.700         529.277          42.000    21823719.953    85640972.467         396.777          26.000  
J02  37891142.908   199119343.282       -1351.420          27.000  
R12  19084119.639   101943941.458       -1144.605          42.000  
> 2021  9 12 10 32 21.9998769  0 16
C06  36694720.673   191079051.550        -766.522          34.000  
C09  37682100.924   196220592.355        -871.255          26.000  
C14  23087944.149   120225042.4491      -2204.608          21.000  
C16  37341115.184   194444937.756        -744.162          26.000  
C23  23938314.450   124653075.789        1655.067          23.000  
C25  21806338.586   113551332.018        -856.684          36.000  
C33  22249113.759   115856956.992        -937.416          36.000  
E21  24176965.435   127050821.335       -1151.634          39.000  
G10  20151744.737   105898112.341        -544.693          40.000  
G12  22418659.285   117810836.129       -2168.092          28.000  
G25  20788300.359   109243204.802        -442.672          26.000  
G31  21816037.172   114643968.829        1061.881          25.000  
G32  21823471.125   114683073.292         537.545          39.000    21823469.926    85639987.426         396.602          23.000  
J01  38050945.479   199959056.1631        462.768          31.000  
J02  37891249.934   199119907.168       -1351.579          30.000  
R12  19084180.197   101944264.924       -1146.110          35.000  
> 2021  9 12 10 32 22.9998766  0 17
C06  36694779.133   191079349.217        -765.993          26.000  
C09  37682178.271   196220994.703        -870.205          25.000  
C14  23088276.619   120226780.808       -2208.494          21.000  
C16  37341167.648   194445213.772        -745.205          25.000  
C23  23937904.933   124650953.074        1653.511          24.000  
C25  21806419.530   113551722.423        -857.264          34.000  
C33  22249203.697   115857427.012        -938.458          31.000  
E21  24177096.744   127051500.302       -1152.680          40.000  
G10  20151760.027   105898182.787        -543.319          40.000  
G12  22418979.763   117812530.935       -2165.982          23.000  
G23  21185605.710   111331104.8061      -2934.416          20.000  
G25  20788293.464   109243175.075        -442.548          26.000  
G31  21815747.272   114642434.529        1061.323          25.000  
G32  21823277.160   114682063.624         535.039          34.000    21823280.158    85639237.019         398.800          25.000  
J01  38050769.201   199958120.658         463.027          32.000  
J02  37891416.318   199120787.024       -1351.221          23.000  
R12  19084301.013   101944910.125       -1146.721          37.000  
> 2021  9 12 10 32 23.9998761  0 13
C06  36694776.435   191079335.127        -766.969          32.000  
C09  37682193.560   196221084.331        -870.880          28.000  
C23  23937435.758   124648520.264        1652.015          29.000  
C25  21806431.222   113551799.326        -858.105          34.000  
C33  22249233.376   115857588.180        -942.340          30.000  
E21  24177170.493   127051866.290       -1150.570          33.000  
G10  20151712.959   105897939.959        -546.969          34.000  
G23  21186011.330   111333251.521       -2934.040          21.000  
G25  20788228.709   109242830.539        -445.724          25.000  
G31  21815396.215   114640585.640        1060.859          32.000  
G32  21823026.233   114680741.448         534.323          35.000    21823029.231    85638250.780         398.430          27.000  
J01  38050531.465   199956870.312         462.062          32.000  
R12  19084364.569   101945249.913       -1148.719          34.000  
> 2021  9 12 10 32 24.9998756  0 15
C06  36694773.137   191079321.549        -766.715          34.000  
C09  37682210.648   196221175.027        -871.151          31.000  
C16  37341151.159   194445141.6101       -744.138          17.000  
C23  23936968.981   124646088.600        1650.227          29.000  
C25  21806443.213   113551877.495        -859.178          43.000  
C33  22249263.056   115857749.409        -941.639          28.000  
E21  24177235.848   127052231.426       -1152.763          22.000  
G10  20151664.093   105897699.567        -547.968          41.000    20151670.689    79079483.1511       -410.081          30.000  
G12  22419513.694   117815292.8461      -2170.291          24.000  
G23  21186416.049   111335398.880       -2935.620          26.000  
G25  20788164.253   109242489.139        -446.720          29.000  
G31  21815043.660   114638736.512        1061.380          27.000  
G32                                                                  21822777.106    85637263.037         401.660          23.000  
J01  38050298.227   199955620.828         462.366          33.000  
R12  19084425.427   101945575.088       -1149.799          38.000  
> 2021  9 12 10 32 25.9998753  0 15
C06  36694830.098                        -764.614          35.000  
C09  37682287.395   196221577.690        -871.450          30.000  
C14  23089165.803   120231380.1941      -2208.330          20.000  
C16  37341203.922   194445416.944        -742.730          23.000  
C23  23936562.762   124643970.183        1649.859          30.000  
C25  21806519.061                        -859.628          45.000  
C33  22249353.293   115858222.253        -941.029          33.000  
G10  20151678.483   105897775.569        -549.108          43.000    20151687.477    79079540.923        -410.865          26.000  
G23  21186883.426   111337862.151       -2936.593          24.000  
G25  20788160.356   109242463.155        -447.057          26.000  
G31  21814750.762   114637202.230        1061.770          26.000  
G32  21822592.733   114678412.8401        534.325          36.000    21822586.438    85636512.622         395.799          19.000  
J01  38050118.051                         462.480          37.000  
J02  37891803.350   199122793.8091      -1352.705          31.000  
R12  19084551.940   101946250.698       -1151.012          39.000  
> 2021  9 12 10 32 26.9998748  0 13
C06  36694827.999                        -768.475          35.000  
C09  37682306.882   196221668.493        -870.958          30.000  
C16  37341194.929   194445379.636        -743.884          26.000  
C23  23936096.585   124641539.853        1649.728          29.000  
C25  21806534.950                        -861.216          43.000  
C33  22249386.270   115858383.270        -941.900          35.000  
G10  20151632.015                        -549.845          41.000    20151643.108    79079360.757        -409.411          21.000  
G23  21187291.144   111340011.847       -2938.264          25.000  
G25  20788096.800   109242123.088        -448.521          29.000  
G31  21814398.206   114635353.057        1060.937          26.000  
G32  21822340.308                         533.889          38.000    21822335.511    85635527.042         398.274          17.000  
J01  38049883.913   199953469.3931        461.850          37.000  
R12  19084623.590   101946632.752       -1150.499          38.000  
> 2021  9 12 10 32 27.9998743  0 16
C06  36694825.601   191079582.6411       -766.893          34.000  
C08  37864950.940   197172735.0561      -2415.612          20.000  
C09  37682323.970   196221758.560        -870.251          31.000  
C13  36952409.679   192420893.2261      -2183.545          28.000  
C14  23089715.023   120234237.4571      -2211.099          17.000  
C16  37341187.134   194445342.443        -742.944          23.000  
C23  23935629.508   124639109.284        1651.352          30.000  
C24  24458814.115   127363463.4811      -3369.960          25.000  
C25  21806550.839   113552426.3731       -861.142          42.000  
C33  22249417.749                        -944.217          33.000  
G10  20151588.246   105897302.9501       -550.609          40.000    20151598.738    79079183.582        -411.957          23.000  
G23  21187698.861   111342162.861       -2938.615          24.000  
G25  20788032.944   109241784.383        -449.217          31.000  
G32  21822086.984   114675850.3871        533.033          36.000    21822084.285    85634542.522         397.470          15.000  
J01  38049644.379   199952219.389         461.997          35.000  
R12  19084698.538   101947033.026       -1152.329          37.000  
> 2021  9 12 10 32 28.9998738  0 14
C06  36694822.603   191079569.393        -767.492          34.000  
C09  37682341.658   196221848.841        -871.573          31.000  
C13  36952679.792   192422296.160       -2183.501          27.000  
C14  23089991.432   120235668.321       -2211.548          17.000  
C23  23935160.034   124636677.510        1651.562          26.000  
C24  24459315.069   127366053.119       -3371.670          23.000  
C25  21806565.229   113552507.194        -861.465          42.000  
C33  22249451.625   115858718.6141       -941.606          34.000  
G10  20151544.476   105897065.908        -551.034          42.000    20151554.969    79079008.633        -413.679          23.000  
G12  22420651.706   117821151.3701      -2174.022          25.000  
G25  20787969.688   109241445.731        -449.075          30.000  
G32  21821832.460   114674529.186         533.583          37.000    21821833.059    85633557.175         395.686          14.000  
J01  38049407.843   199950969.482         460.735          35.000  
R12  19084757.897   101947350.554       -1152.096          38.000  
> 2021  9 12 10 32 29.9998733  0 16
C06  36694824.102   191079556.075        -768.427          35.000  
C08  37865578.106   197176002.4651      -2414.309          20.000  
C09  37682359.645   196221939.577        -870.905          30.000  
C13  36952950.804   192423700.831       -2186.816          26.000  
C14  23090265.442   120237099.454       -2212.183          18.000  
C23  23934689.959   124634246.046        1651.093          25.000  
C24  24459814.823   127368643.856       -3371.780          25.000  
C25  21806580.518   113552588.537        -862.401          41.000  
C33  22249484.902   115858881.372        -941.426          34.000  
G10  20151501.006   105896829.622        -552.023          42.000    20151510.300    79078832.198        -411.893          24.000  
G23  21188514.597   111346469.0611      -2941.417          23.000  
G25  20787907.931   109241106.886        -448.985          29.000  
G31  21813348.033   114629810.1941       1059.844          26.000  
G32  21821578.835   114673207.994         533.091          36.000    21821581.833    85632573.355         395.732          16.000  
J01  38049169.508   199949719.661         461.061          34.000  
R12  19084826.849   101947718.909       -1154.228          38.000  
> 2021  9 12 10 32 30.9998733  0 15
C06  36694970.101   191080323.284        -766.835          34.000  
C08  37866037.987   197178417.730       -2414.108          20.000  
C09  37682526.030   196222809.898        -870.162          30.000  
C14  23090687.550   120239310.814       -2207.841          19.000  
C16  37341320.242   194446011.3741       -742.480          20.000  
C23  23934368.282   124632596.471        1649.163          24.000  
C25  21806746.304   113553450.966        -863.044          41.000  
C33  22249666.576   115859825.098        -944.687          30.000  
G10  20151604.734   105897381.715        -552.576          43.000  
G12  22421324.140   117824712.9151      -2176.800          24.000  
G23  21189073.110   111349409.486       -2940.365          24.000  
G25  20787994.571   109241556.026        -450.042          27.000  
G32  21821482.302   114672674.800         533.126          33.000    21821480.204    85632176.683         397.028          14.000  
J01  38049080.770   199949257.569         461.948          32.000  
R12  19085042.700   101948872.347       -1155.287          37.000  
> 2021  9 12 10 32 31.9998728  0 15
C06  36694966.803   191080310.247        -767.993          35.000  
C09  37682543.418   196222900.667        -872.254          31.000  
C13  36953639.128   192427295.5871      -2186.906          22.000  
C14  23090960.960   120240738.924       -2209.820          20.000  
C23  23933900.605   124630166.994        1648.246          23.000  
C24  24460953.434   127374606.9881      -3370.550          22.000  
C25  21806763.692   113553533.639        -863.805          41.000  
C33  22249698.055   115859989.019        -946.579          34.000  
G10  20151560.065   105897147.122        -553.911          43.000  
G12  22421587.058   117826101.511       -2176.467          26.000  
G23  21189480.228   111351561.817       -2939.545          26.000  
G25  20787929.216   109241219.038        -451.585          28.000  
G32  21821232.275   114671354.127         531.987          34.000    21821228.678    85631189.411         398.552          14.000  
J01  38048840.036   199948008.190         461.824          34.000  
R12  19085104.157   101949200.615       -1156.141          37.000  
> 2021  9 12 10 32 32.9998723  0 15
C06  36694965.904   191080297.050        -767.989          35.000  
C09  37682561.106   196222991.776        -870.873          30.000  
C13  36953908.941   192428701.832       -2186.369          24.000  
C23  23933433.529   124627739.470        1646.102          20.000  
C25  21806781.080   113553616.772        -864.743          41.000  
C33  22249728.633   115860153.325        -946.500          35.000  
G10  20151514.797   105896913.148        -555.036          44.000  
G12  22421852.674   117827489.638       -2176.119          26.000  
G23  21189887.346   111353714.444       -2940.421          24.000  
G25  20787868.358   109240883.297        -452.455          26.000  
G31  21812457.350   114625060.5291       1056.290          25.000  
G32  21820984.347   114670033.398         528.354          34.000    21820976.852    85630204.167         395.834          16.000  
J01  38048601.401   199946758.726         461.623          34.000  
J02  37892718.017   199127534.4161      -1352.347          29.000  
R12  19085171.611   101949560.893       -1156.021          38.000  
> 2021  9 12 10 32 33.9998717  0 15
C06  36694932.627   191080128.046        -767.339          32.000  
C09  37682548.814   196222926.281        -871.910          28.000  
C13  36954150.274   192429951.120       -2185.912          25.000  
C23  23932934.674   124625157.670        1642.225          12.000  
C24  24461910.072   127379629.5771      -3369.005          20.000  
C25  21806766.390   113553544.568        -864.206          40.000  
C33  22249727.134   115860162.209        -945.989          33.000  
G10  20151442.247   105896522.535        -555.071          44.000  
G12  22422083.814   117828722.104       -2176.934          26.000  
G23  21190265.684   111355710.413       -2942.863          25.000  
G31  21812081.410   114623059.371        1055.458          27.000  
G32  21820704.341   114668554.883         533.335          31.000    21820695.347    85629101.256         398.589          17.000  
J01  38048334.886   199945351.968         461.191          33.000  
J02  37892798.661   199127941.595       -1353.332          26.000  
R12  19085212.682   101949780.229       -1158.882          38.000  
> 2021  9 12 10 32 34.9998712  0 11
C06  36694930.228   191080114.913        -768.957          34.000  
C09  37682567.102   196223017.118        -870.808          29.000  
C13  36954419.488   192431355.511       -2185.501          23.000  
C25  21806782.878   113553628.784        -865.125          40.000  
C33  22249758.613   115860327.480        -947.128          33.000  
G10  20151398.777   105896290.030        -556.125          44.000  
G25  20787720.261   109240057.6781       -454.309          21.000  
G32                                                                  21820442.922    85628115.420         397.074          15.000  
J01  38048097.150   199944102.628         461.130          34.000  
J02  37892908.086   199128507.499       -1354.014          24.000  
R12  19085275.039   101950112.702       -1159.263          37.000  
> 2021  9 12 10 32 35.9998710  0 13
C06  36695015.669   191080570.215        -768.129          34.000  
C09  37682673.528   196223575.563        -870.305          29.000  
C13  36954778.939   192433229.190       -2186.042          23.000  
C24  24462987.826   127385273.1921      -3368.670          21.000  
C25  21806889.005   113554181.949        -865.733          39.000  
C33  22249882.427   115860962.421        -946.031          33.000  
G10  20151444.046   105896530.954        -556.364          44.000  
G12  22422693.292   117831975.5861      -2178.736          25.000  
G23  21191168.359   111360492.8851      -2942.997          22.000  
G32  21820288.229   114666386.6621        531.528          35.000    21820281.633    85627484.949         395.317          16.000  
J01  38047951.751   199943326.177         463.618          32.000  
J02  37893102.351   199129546.516       -1354.791          24.000  
R12  19085432.430   101950954.043       -1160.956          37.000  
> 2021  9 12 10 32 36.9998705  0 13
C06  36695012.971   191080557.080        -766.927          33.000  
C08  37867971.649   197188575.4351      -2424.433          16.000  
C09  37682690.017   196223665.399        -870.710          28.000  
C13  36955048.153   192434634.561       -2185.596          24.000  
C24  24463483.982   127387861.554       -3369.995          21.000  
C25  21806906.093   113554267.309        -866.488          39.000  
C33  22249913.605   115861127.463        -945.949          27.000  
G10  20151399.976   105896299.932        -557.171          45.000  
G23  21191576.677   111362647.299       -2941.275          23.000  
G32  21820036.403   114665066.535         532.291          31.000    21820029.508    85626499.318         398.988          16.000  
J01  38047714.615   199942077.049         461.437          30.000  
J02  37893207.578   199130112.519       -1353.403          24.000  
R12  19085500.483   101951317.784       -1161.054          36.000  
> 2021  9 12 10 32 37.9998700  0 13
C06  36695013.571   191080543.939        -767.716          34.000  
C09  37682706.805   196223755.654        -870.761          29.000  
C13  36955316.167   192436039.526       -2185.481          22.000  
C24  24463980.439   127390450.941       -3370.775          22.000  
C25  21806921.682   113554353.189        -867.556          40.000  
C33  22249945.084   115861292.915        -946.745          32.000  
G10  20151356.206   105896069.586        -558.018          45.000  
G25  20787611.436   109239540.4001       -455.372          17.000  
G31  21810760.525   114616162.7701       1053.641          27.000  
G32  21819783.378   114663746.428         532.417          34.000    21819778.582    85625512.907         396.007          15.000  
J01  38047475.381   199940827.999         461.810          35.000  
J02  37893315.204   199130677.594       -1353.041          24.000  
R12  19085570.934   101951693.714       -1161.890          38.000  
> 2021  9 12 10 32 38.9998697  0 12
C06  36695072.330   191080843.022        -768.405          33.000  
C09  37682783.852   196224157.433        -870.273          27.000  
C13  36955645.639   192437757.326       -2186.244          23.000  
C25  21806997.230   113554751.814        -867.320          40.000  
C33  22250037.719   115861771.706        -947.913          31.000  
G10  20151373.295   105896155.032        -558.374          45.000  
G12  22423536.908   117836466.8471      -2180.580          25.000  
G25  20787606.040   109239522.702        -455.130          16.000  
G32  21819588.213   114662741.760         531.689          34.000    21819587.314    85624763.777         396.386          24.000  
J01  38047296.705   199939894.021         456.119          33.000  
J02  37893483.088   199131558.600       -1354.442          24.000  
R12  19085697.746   101952370.635       -1163.086          39.000  
> 2021  9 12 10 32 39.9998692  0 12
C06  36695070.231   191080829.956        -769.323          33.000  
C09  37682800.040   196224246.816        -870.159          27.000  
C13  36955917.551   192439163.215       -2185.637          22.000  
C14  23093284.052   120252828.0411      -2215.579          25.000  
C25  21807012.220   113554838.831        -867.677          39.000  
C33  22250068.598   115861939.034        -948.646          27.000  
G10  20151329.825   105895926.221        -559.209          46.000  
G12  22423800.426   117837860.453       -2181.888          26.000  
G25  20787537.687   109239190.439        -456.482          26.000  
G32  21819336.987   114661422.272         532.319          24.000    21819336.088    85623778.775         396.883          24.000  
J01  38047058.070   199938645.226         461.769          30.000  
R12  19085760.703   101952707.857       -1163.679          37.000  
> 2021  9 12 10 32 40.9998689  0 16
C06  36695126.293   191081129.229        -768.634          34.000  
C08  37869353.392   197195729.5261      -2405.597          13.000  
C09  37682878.286   196224648.679        -870.160          27.000  
C13  36956247.322   192440880.347       -2185.804          21.000  
C14  23093618.621   120254575.558       -2217.000          24.000  
C23  23929882.487   124609246.9911       1645.204          17.000  
C25  21807088.966   113555238.685        -869.775          40.000  
C33  22250161.534   115862419.103        -948.489          25.000  
G10  20151345.114   105896013.301        -560.125          45.000  
G12  22424123.902   117839569.444       -2181.711          25.000  
G25  20787531.391   109239174.451        -457.421          25.000  
G31  21809820.076   114611269.9231       1052.536          31.000  
G32  21819145.720   114660417.475         531.990          26.000    21819145.120    85623028.812         397.137          22.000  
J01  38046882.391   199937711.591         460.509          32.000  
J02  37893746.006   199133006.7041      -1354.727          25.000  
R12  19085885.716   101953375.448       -1164.474          36.000  
> 2021  9 12 10 32 41.9998684  0 15
C06  36695125.693   191081116.279        -768.745          32.000  
C08  37869666.076   197197355.655       -2406.657          14.000  
C09  37682894.475   196224738.527        -870.167          27.000  
C13  36956516.836   192442285.424       -2186.179          22.000  
C14  23093895.629   120256012.191       -2217.616          24.000  
C23  23929420.207   124606821.934        1642.466          19.000  
C25  21807104.855   113555326.895        -869.093          38.000  
C33  22250194.811   115862587.584        -949.726          27.000  
G10  20151303.143   105895786.024        -560.591          45.000  
G12  22424386.820   117840964.597       -2183.349          25.000  
G25  20787467.835   109238844.733        -459.136          26.000  
G32  21818894.793   114659097.856         531.723          28.000    21818893.894    85622043.268         397.294          19.000  
J01  38046645.256   199936463.130         462.049          31.000  
J02  37893853.931   199133573.900       -1356.497          27.000  
R12  19085953.469   101953736.661       -1165.922          36.000  
> 2021  9 12 10 32 42.9998679  0 14
C06  36695124.794   191081103.232        -766.679          33.000  
C08  37869982.956   197198984.831       -2411.572          12.000  
C09  37682910.664   196224828.175        -870.132          27.000  
C13  36956787.548   192443691.136       -2187.083          21.000  
C14  23094175.035   120257450.210       -2219.257          24.000  
C23  23928957.927   124604399.175        1642.522          26.000  
C25  21807120.744   113555415.584        -869.803          38.000  
G10  20151261.472   105895559.447        -561.539          45.000  
G25  20787406.378   109238517.008        -460.873          27.000  
G31  21809118.262   114607591.3531       1050.856          30.000  
G32  21818644.767   114657778.752         531.105          26.000    21818642.368    85621057.621         397.411          24.000  
J01  38046406.621   199935214.424         460.149          29.000  
J02  37893960.657   199134142.449       -1355.761          26.000  
R12  19086017.925   101954081.339       -1166.088          36.000  
> 2021  9 12 10 32 43.9998674  0 13
C06  36695119.397   191081090.485        -768.565          32.000  
C09  37682929.551   196224918.457        -871.958          26.000  
C14  23094454.442   120258889.474       -2220.163          25.000  
C23  23928496.547   124601976.430        1641.219          23.000  
C25  21807136.633   113555505.139        -870.473          38.000  
C33  22250263.463   115862926.6441       -950.648          25.000  
G10  20151217.402   105895333.860        -562.599          45.000  
G23  21194571.304   111378387.0711      -2952.070          19.000  
G25  20787345.220   109238190.572        -461.951          29.000  
G32  21818394.440   114656459.548         531.141          23.000    21818391.442    85620071.847         397.399          26.000  
J01  38046167.087   199933966.256         460.404          31.000  
J02  37894067.083   199134710.591       -1355.393          28.000  
R12  19086091.973   101954477.076       -1167.788          36.000  
> 2021  9 12 10 32 44.9998669  0 15
C06  36695119.397   191081077.659        -768.323          33.000  
C09  37682953.534   196225010.615        -873.987          23.000  
C13  36957334.969   192446506.3051      -2189.139          26.000  
C14  23094733.549   120260328.922       -2219.878          26.000  
C23  23928031.269   124599555.408        1639.669          20.000  
C25  21807156.420   113555595.013        -871.018          36.000  
C33  22250298.239   115863097.044        -950.511          28.000  
G10  20151173.933   105895108.856        -563.034          45.000  
G23  21194984.118   111380550.948       -2951.394          26.000  
G25  20787281.365   109237865.216        -462.792          32.000  
G31  21808419.146   114603914.8621       1050.058          29.000  
G32                                                                  21818140.216    85619086.388         397.087          29.000  
J01  38045924.854   199932718.447         460.927          30.000  
J02  37894174.409   199135277.773       -1355.491          30.000  
R12  19086160.026   101954840.814       -1168.622          36.000  
> 2021  9 12 10 32 45.9998666  0 15
C06  36695176.658   191081377.197        -767.533          36.000  
C09  37683034.778   196225415.672        -873.126          26.000  
C13  36957665.940   192448229.419       -2193.335          23.000  
C14  23095070.815   120262080.573       -2220.983          25.000  
C23  23927627.748   124597447.398        1639.486          27.000  
C25  21807235.865   113555997.928        -870.869          37.000  
C33  22250385.778   115863579.808        -952.446          23.000  
G10  20151190.421   105895199.934        -564.205          44.000  
G23  21195454.192   111383029.142       -2950.889          25.000  
G25  20787278.966   109237855.374        -463.097          30.000  
G31  21808127.747   114602392.291        1049.366          31.000  
G32                                                                  21817948.948    85618336.487         396.855          28.000  
J01  38045751.274   199931784.841         461.712          28.000  
J02  37894343.792   199136160.793       -1355.526          26.000  
R12  19086285.340   101955509.861       -1168.767          34.000  
> 2021  9 12 10 32 46.9998664  0 12
C06  36695262.698   191081832.991        -767.082          37.000  
C09  37683143.003   196225976.241        -872.647          27.000  
C14  23095436.562   120263987.620       -2218.722          23.000  
C23  23927253.907   124595495.949        1638.980          25.000  
C25  21807344.689   113556557.592        -872.113          40.000  
C33  22250506.295   115864221.335        -954.343          24.000  
G10  20151238.688   105895449.395        -565.048          45.000  
G25  20787307.746   109238003.626        -463.404          29.000  
G32  21817779.865                         531.510          34.000  
J01  38045605.575   199931008.079         460.888          29.000  
J02  37894541.055   199137200.269       -1353.293          26.000  
R12  19086442.131   101956347.730       -1170.003          39.000  
> 2021  9 12 10 32 47.9998659  0 13
C06  36695259.101   191081820.594        -767.156          37.000  
C09  37683160.391   196226067.866        -870.866          25.000  
C14  23095712.371   120265425.962       -2218.972          25.000  
C23  23926791.027   124593075.290        1640.219          27.000  
C25  21807361.178   113556649.630        -872.328          40.000  
C33  22250538.673   115864393.108        -950.590          25.000  
G10  20151197.017   105895227.045        -565.385          45.000  
G12  22426134.010   117850139.1941      -2187.299          23.000  
G23  21196363.763   111387826.0551      -2949.668          16.000  
G25  20787247.788   109237679.628        -464.402          27.000  
G32  21817527.740   114651887.8021        530.756          35.000  
J01  38045369.938   199929760.356         459.168          29.000  
R12  19086510.484   101956712.262       -1171.182          40.000  
> 2021  9 12 10 32 48.9998653  0 13
C06  36695226.423   191081651.935        -767.966          36.000  
C09  37683148.999   196226003.260        -871.997          26.000  
C14  23095959.100   120266708.321       -2220.141          25.000  
C23  23926298.168   124590497.917        1640.538          26.000  
C25  21807348.587   113556585.950        -872.928          40.000  
G10  20151124.767   105894847.717        -566.419          45.000  
G23  21196745.099   111389830.669       -2950.334          19.000  
G25  20787157.550   109237199.614        -466.760          28.000  
G31  21807136.034   114597198.7921       1046.836          29.000  
G32  21817249.832   114650411.807         530.928          35.000  
J01  38045106.421   199928355.841         459.413          28.000  
J02  37894732.622   199138178.2961      -1355.636          27.000  
R12  19086566.545   101957011.968       -1172.296          39.000  
> 2021  9 12 10 32 49.9998648  0 12
C06  36695224.325   191081639.725        -768.629          37.000  
C09  37683166.087   196226094.501        -871.848          26.000  
C14  23096235.509   120268148.399       -2221.220          24.000  
C23  23925833.490   124588076.954        1639.239          30.000  
C25  21807365.375   113556679.252        -874.491          40.000  
G10  20151083.395   105894627.025        -567.471          45.000  
G25  20787095.493   109236879.091        -468.333          29.000  
G31  21806786.176   114595365.227        1045.663          29.000  
G32  21817001.904   114649093.832         529.294          35.000  
J01  38044871.983   199927108.724         459.284          25.000  
J02  37894842.646   199138746.703       -1356.272          26.000  
R12  19086630.401   101957353.393       -1173.735          38.000  
> 2021  9 12 10 32 50.9998646  0 13
C06  36695312.164   191082096.094        -767.358          37.000  
C09  37683271.614   196226653.831        -870.669          25.000  
C13  36959167.900   192456082.5471      -2194.750          18.000  
C14  23096603.054   120270057.442       -2221.065          23.000  
C23  23925459.049   124586125.985        1638.274          30.000  
C25  21807474.799   113557241.689        -875.054          41.000  
C33  22250702.359   115865219.4521       -954.794          19.000  
G10  20151130.762   105894879.929        -568.399          45.000  
G31  21806524.757   114594004.225        1046.484          28.000  
G32  21816840.016   114648248.909         528.932          37.000  
J01  38044725.385   199926333.853         459.695          27.000  
J02  37895039.910   199139788.118       -1356.628          26.000  
R12  19086795.586   101958235.276       -1175.123          38.000  
> 2021  9 12 10 32 51.9998641  0 15
C06  36695309.166   191082084.033        -768.398          36.000  
C09  37683287.503   196226744.807        -870.868          24.000  
C13  36959438.313   192457495.537       -2193.967          18.000  
C14  23096879.763   120271497.354       -2220.199          23.000  
C23  23924995.870   124583706.920        1638.514          30.000  
C25  21807490.389   113557336.221        -874.966          39.000  
E01  24350992.559                        1339.172          32.000  
G10  20151089.091   105894660.824        -569.240          45.000  
G23  21198080.374   111396798.1151      -2955.939          24.000  
G25  20787065.214   109236712.7421       -468.869          28.000  
G31  21806175.199   114592170.118        1045.839          27.000  
G32  21816587.291   114646931.359         530.427          37.000  
J01  38044488.549   199925086.217         459.296          29.000  
J02  37895146.936   199140357.942       -1358.345          27.000  
R12  19086864.539   101958603.696       -1174.708          37.000  
> 2021  9 12 10 32 52.9998636  0 14
C06  36695309.766   191082072.242        -768.587          36.000  
C09  37683302.792   196226834.956        -872.327          22.000  
C14  23097156.771   120272936.908       -2220.660          22.000  
C23  23924532.990   124581288.055        1637.890          28.000  
C25  21807507.777   113557431.597        -876.013          38.000  
C33  22250769.213   115865572.8681       -958.633          19.000  
E01  24350586.640                        1339.525          32.000  
G10  20151047.120   105894442.762        -569.909          45.000  
G25  20787005.256   109236393.705        -468.784          28.000  
G31  21805826.540   114590337.751        1044.095          28.000  
G32  21816338.163   114645614.153         529.977          37.000  
J01  38044251.413   199923839.694         458.613          30.000  
J02  37895255.161   199140928.010       -1357.942          27.000  
R12  19086930.193   101958954.138       -1177.276          38.000  
> 2021  9 12 10 32 53.9998630  0 12
C06  36695276.489   191081904.902        -768.985          35.000  
C09  37683289.002   196226771.198        -873.026          22.000  
C23  23924038.932   124578713.578        1637.426          28.000  
C25  21807496.984   113557371.910        -877.162          38.000  
C33  22250772.211   115865595.216        -959.764          25.000  
G10  20150975.770   105894068.439        -571.936          44.000  
G12  22427782.569   117858719.1921      -2194.149          21.000  
G23  21198879.321   111400976.2681      -2955.334          22.000  
G25  20786914.718   109235918.022        -470.054          31.000  
G31  21805448.502   114588348.577        1043.321          30.000  
G32  21816052.761   114644140.155         526.837          36.000  
R12  19086978.160   101959210.583       -1178.120          38.000  
> 2021  9 12 10 32 54.9998628  0 13
C06  36695363.429   191082362.306        -769.060          37.000  
C09  37683395.428   196227332.776        -873.926          24.000  
C13  36960305.313   192462054.7131      -2193.433          18.000  
C23  23923665.391   124576764.274        1636.426          29.000  
C25  21807605.509   113557937.491        -877.865          38.000  
C33  22250895.725   115866241.787        -959.030          24.000  
G10  20151023.737   105894325.249        -572.437          44.000    20151026.135    79076946.5001       -427.761          27.000  
G12  22428142.020   117860599.999       -2196.863          22.000  
G23  21199379.975   111403617.473       -2958.025          23.000  
G25  20786947.696   109236074.322        -472.233          31.000  
G31  21805188.582   114586990.270        1042.865          33.000  
G32                                                                  21815904.364    85610304.3441        395.391          27.000  
R12  19087136.750   101960058.310       -1179.030          37.000  
> 2021  9 12 10 32 55.9998623  0 12
C06  36695360.131   191082351.698        -770.062          36.000  
C09  37683412.816   196227426.975        -874.827          28.000  
C13  36960573.028   192463465.327       -2189.637          18.000  
C23  23923203.111   124574348.166        1634.949          29.000  
C25  21807623.796   113558035.640        -879.606          38.000  
C33  22250929.602   115866421.283        -960.289          28.000  
G10  20150983.265   105894110.517        -574.044          45.000    20150985.663    79076786.424        -428.754          30.000  
G25  20786889.236   109235759.927        -474.214          31.000  
G31  21804839.324   114585160.077        1041.500          34.000  
G32  21815632.452   114641979.7461        529.998          25.000    21815654.637    85609320.886         395.410          27.000  
J01  38043598.765   199920418.5251        456.792          32.000  
R12  19087205.103   101960423.415       -1180.993          38.000  
> 2021  9 12 10 32 56.9998620  0 13
C06  36695420.089   191082653.583        -771.363          35.000  
C09  37683491.062   196227832.996        -874.288          28.000  
C23  23922801.689   124572245.584        1633.702          31.000  
C25  21807702.642   113558446.873        -879.393          39.000  
C33  22251022.837   115866913.958        -961.361          27.000  
G10  20151002.751   105894211.844        -574.237          45.000    20151005.149    79076861.584        -429.473          32.000  
G23  21200274.555   111408274.7381      -2957.900          20.000  
G25  20786891.934   109235761.346        -474.305          31.000  
G31  21804549.425   114583645.614        1042.315          34.000  
G32  21815443.882   114640977.160         529.575          22.000    21815463.669    85608573.124         393.935          28.000  
J01  38043418.290                         457.904          33.000  
J02  37895827.165   199143845.8761      -1361.864          22.000  
R12  19087336.412   101961124.584       -1182.242          38.000  
> 2021  9 12 10 32 57.9998615  0 14
C06  36695415.892   191082643.152        -771.344          36.000  
C09  37683508.750   196227925.746        -872.631          28.000  
C23  23922340.908   124569831.256        1633.011          28.000  
C25  21807723.028   113558546.395        -880.214          37.000  
E01  24348677.861   127953165.2461       1334.697          28.000  
G10  20150962.279   105893998.873        -575.371          45.000    20150964.078    79076703.147        -430.131          30.000  
G12  22429007.221   117865148.0131      -2199.785          19.000  
G23  21200688.569   111410445.235       -2959.518          23.000  
G25  20786833.475   109235448.647        -475.909          31.000  
G31  21804201.965                        1040.153          32.000  
G32  21815196.853   114639660.517         528.401          31.000    21815213.042    85607590.669         392.965          27.000  
J01  38043182.952   199918266.7041        455.495          30.000  
R02  20970135.577   111900660.7281       1956.672          32.000  
R12  19087408.962   101961512.608       -1183.420          37.000  
> 2021  9 12 10 32 58.9998610  0 15
C06  36695413.194   191082633.319        -771.025          33.000  
C09  37683526.437   196228018.373        -874.387          25.000  
C23  23921878.028   124567417.855        1632.206          27.000  
C25  21807744.313   113558646.924        -881.130          40.000  
C33  22251087.293   115867273.8201       -960.748          25.000  
E01  24348273.441   127951039.536        1332.967          23.000  
G10  20150922.107   105893787.101        -576.222          46.000    20150925.704    79076547.258        -432.941          24.000  
G12  22429274.037   117866560.956       -2201.124          26.000  
G23  21201101.683   111412617.437       -2959.978          22.000  
G25  20786775.015   109235136.878        -476.534          31.000  
G31  21803850.009   114580026.7021       1039.984          34.000  
G32  21814949.225   114638344.859         527.282          35.000    21814961.217    85606609.855         393.795          21.000  
J01  38042948.815   199917023.315         456.275          26.000  
R02  20969617.236   111897904.303        1956.100          32.000  
R12  19087481.512   101961899.959       -1184.671          40.000  
> 2021  9 12 10 32 59.9998605  0 12
C06  36695411.096   191082623.541        -771.739          34.000  
C09  37683545.324   196228111.887        -873.667          25.000  
C14  23099208.551   120283667.2921      -2226.856          24.000  
C23  23921415.748   124565004.878        1632.754          29.000  
C25  21807762.600   113558748.088        -881.912          41.000  
C33  22251120.570   115867453.810        -960.079          23.000  
G10  20150880.736   105893576.088        -576.803          45.000    20150886.132    79076390.996        -431.748          25.000  
G12  22429543.850   117867973.360       -2199.675          26.000  
G25  20786716.256   109234826.035        -477.853          31.000  
G31  21803502.549   114578199.575        1038.607          33.000  
G32                                                                  21814710.890    85605627.973         393.839          24.000  
R12  19087552.862   101962280.927       -1185.686          40.000  
> 2021  9 12 10 33  0.9998600  0 14
C06  36695411.995   191082613.913        -770.420          35.000  
C13  36961979.354   192470831.6691      -2193.637          19.000  
C14  23099490.056   120285114.037       -2228.307          24.000  
C23  23920954.068   124562592.241        1631.284          31.000  
C25  21807782.386   113558849.935        -882.393          43.000  
C33  22251155.046   115867633.241        -961.023          21.000  
G10  20150840.863   105893365.972        -577.581          46.000  
G12  22429813.064   117869385.161       -2199.095          27.000  
G23  21201936.605   111416963.0761      -2961.418          22.000  
G25  20786657.197   109234516.526        -478.302          30.000  
G31  21803155.689   114576373.030        1037.987          35.000  
G32  21814460.263   114635715.4751        526.185          38.000  
R02  20968587.449   111892393.7911       1954.543          28.000  
R12  19087625.412   101962668.672       -1186.809          40.000  
> 2021  9 12 10 33  1.9998597  0 15
C06  36695469.255   191082916.812        -771.779          35.000  
C09  37683645.155   196228612.6341       -873.958          22.000  
C23  23920551.747   124560492.350        1631.287          31.000  
C25  21807861.831   113559264.803        -884.030          41.000  
C33  22251249.780   115868126.133        -963.048          20.000  
G10  20150860.949   105893471.989        -579.203          44.000  
G12  22430143.735   117871111.527       -2198.822          26.000  
G23  21202412.375   111419452.446       -2962.239          21.000  
G25  20786658.396   109234522.284        -478.639          28.000  
G31  21802870.887   114574862.306        1037.375          33.000  
G32  21814272.893                         525.669          37.000  
J01  38042293.168   199913608.5281        452.793          23.000  
J02  37896442.039   199147031.4831      -1361.117          22.000  
R02  20968128.467   111889958.562        1955.770          30.000  
R12  19087757.321   101963372.528       -1187.865          40.000  
> 2021  9 12 10 33  2.9998595  0 15
C06  36695558.593   191083375.834        -770.940          35.000  
C09  37683753.680   196229174.126        -872.340          22.000  
C13  36962676.971   192474441.8001      -2196.629          24.000  
C14  23100204.761   120288789.1991      -2227.810          24.000  
C23  23920179.704   124558548.931        1630.313          30.000  
C25  21807971.555   113559836.379        -884.245          41.000  
C33  22251374.194   115868777.214        -963.360          26.000  
G10  20150911.914   105893736.238        -579.724          43.000  
G23  21202917.825   111422099.537       -2962.963          20.000  
G25  20786693.472   109234686.272        -479.435          28.000  
G31  21802609.767   114573509.664        1036.945          33.000  
G32  21814111.905   114633936.4291        526.504          37.000  
J01  38042150.767   199912840.780         453.013          23.000  
R02  20967699.464   111887682.319        1957.198          29.000  
R12  19087919.508   101964239.597       -1188.902          38.000  
> 2021  9 12 10 33  3.9998589  0 14
C06  36695524.417   191083210.506        -770.855          33.000  
C14  23100454.788   120290081.740       -2231.513          23.000  
C16  37341721.064   194448037.9831       -747.773          23.000  
C23  23919686.845   124555982.071        1630.107          30.000  
C25  21807961.063   113559784.211        -884.550          41.000  
C33  22251378.691   115868803.331        -963.416          20.000  
G10  20150842.362   105893371.219        -580.617          45.000  
G12  22430745.418   117874252.4241      -2201.322          27.000  
G23  21203301.560   111424117.199       -2962.021          22.000  
G25  20786605.632   109234221.056        -480.732          30.000  
G31  21802233.228   114571527.566        1037.015          33.000  
G32  21813834.297   114632465.519         525.718          39.000  
J01  38041881.853   199911442.176         454.030          24.000  
R12  19087968.075   101964498.453       -1190.894          39.000  
> 2021  9 12 10 33  4.9998584  0 13
