     3.03           OBSERVATION DATA    M: Mixed            RINEX VERSION / TYPE
Geo++ RINEX Logger  Geo++               20210912 105942 UTC PGM / RUN BY / DATE
************************************************************COMMENT
This file was generated by the Geo++ RINEX Logger App       COMMENT
for Android devices (Version 2.1.6). If you encounter       COMMENT
any issues, please send an email to android@geopp.de        COMMENT
Filtering Mode: MORE                                        COMMENT
************************************************************COMMENT
Geo++                                                       MARKER NAME
GEODETIC                                                    MARKER TYPE
Geo++               Geo++                                   OBSERVER / AGENCY
unknown             HUAWEI              ELS-AN00            REC # / TYPE / VERS
unknown             ELS-AN00                                ANT # / TYPE
 -2417115.6465  5385880.5857  2406595.9940                  APPROX POSITION XYZ
        0.0000        0.0000        0.0000                  ANTENNA: DELTA H/E/N
G    8 C1C L1C D1C S1C C5Q L5Q D5Q S5Q                      SYS / # / OBS TYPES
R    4 C1C L1C D1C S1C                                      SYS / # / OBS TYPES
E   12 C1B L1B D1B S1B C1C L1C D1C S1C C5Q L5Q D5Q S5Q      SYS / # / OBS TYPES
C    4 C2I L2I D2I S2I                                      SYS / # / OBS TYPES
J    8 C1C L1C D1C S1C C5Q L5Q D5Q S5Q                      SYS / # / OBS TYPES
  2021     9    12    11     0    0.9991560     GPS         TIME OF FIRST OBS
 24 R01  1 R02 -4 R03  5 R04  6 R05  1 R06 -4 R07  5 R08  6 GLONASS SLOT / FRQ #
    R09 -2 R10 -5 R11  0 R12 -1 R13 -2 R14 -7 R15  0 R16 -1 GLONASS SLOT / FRQ #
    R17  4 R18 -3 R19  3 R20  2 R21  4 R22 -3 R23  3 R24  2 GLONASS SLOT / FRQ #
G L1C                                                       SYS / PHASE SHIFT
G L5Q -0.25000                                              SYS / PHASE SHIFT
R L1C                                                       SYS / PHASE SHIFT
E L1B                                                       SYS / PHASE SHIFT
E L1C +0.50000                                              SYS / PHASE SHIFT
E L5Q -0.25000                                              SYS / PHASE SHIFT
C L2I                                                       SYS / PHASE SHIFT
J L1C                                                       SYS / PHASE SHIFT
J L5Q -0.25000                                              SYS / PHASE SHIFT
 C1C    0.000 C1P    0.000 C2C    0.000 C2P    0.000        GLONASS COD/PHS/BIS
                                                            END OF HEADER
> 2021  9 12 11  0  0.9991560  0 11
C08  38440422.349   200169436.959       -2549.199          23.000  
C09  37723659.354   196436884.0171       -739.692          21.000  
C33  22441504.670   116858820.174       -1631.601          21.000  
E01  23816313.909   125155573.436         719.829          36.000  
E21  24443174.542   128449759.318       -1887.634          28.000  
G10  20280499.302   106574743.269       -1640.747          32.000  
G25  20895441.687   109806215.289       -1598.987          23.000  
G32  21450128.785   112721151.719         447.138          31.000  
J01  37690318.535   198063944.250         447.958          31.000  
J02  38118778.319   200315523.677       -1452.110          31.000  
R02  20202931.302   107806912.458        1638.805          31.000  
> 2021  9 12 11  0  1.9991555  0 10
C08  38440762.314   200171205.973       -2550.290          24.000  
C09  37723653.058   196436844.015        -741.774          23.000  
E01  23816028.207   125154072.726         719.153          36.000  
E21  24443385.296   128450859.493       -1886.272          28.000  
G10  20280665.987   106575596.335       -1640.028          31.000  
G25  20895600.577   109807028.232       -1601.284          23.000  
G32  21449892.548   112719916.998         446.146          31.000  
J01  37690081.699   198062709.249         448.664          31.000  
J02  38118903.932   200316189.309       -1452.440          31.000  
R02  20202474.118   107804473.468        1638.636          32.000  
> 2021  9 12 11  0  2.9991549  0 10
C09  37723614.685   196436648.857        -741.220          26.000  
C33  22441805.961   116860368.4571      -1633.125          22.000  
E01  23815711.326   125152407.474         719.023          36.000  
E21  24443565.772   128451800.204       -1886.793          28.000  
G10  20280796.996   106576292.465       -1640.719          32.000  
G25  20895730.387   109807684.651       -1602.047          22.000  
G32  21449631.129   112718524.992         445.705          32.000  
J01  37689817.582   198061316.734         446.950          31.000  
J02  38119002.863   200316697.412       -1452.697          31.000  
R02  20201988.454   107801875.681        1637.864          33.000  
> 2021  9 12 11  0  3.9991547  0 10
C08  38441505.500   200175058.8731      -2550.570          24.000  
C09  37723700.126   196437077.105        -740.092          25.000  
E01  23815515.562   125151378.390         717.976          36.000  
E21  24443864.964   128453372.972       -1888.490          27.000  
G10  20281052.420   106577619.560       -1642.857          32.000  
G25  20895975.917   109808972.121       -1603.148          23.000  
G32  21449479.135                         444.813          32.000  
J01  37689667.686   198060554.538         448.154          31.000  
J02  38119218.714   200317835.837       -1453.861          31.000  
R02  20201622.708   107799917.938        1637.285          33.000  
> 2021  9 12 11  0  4.9991542  0 12
C08  38441844.565   200176828.515       -2549.687          24.000  
C09  37723693.231   196437036.108        -739.512          24.000  
C33  22442228.668   116862544.6541      -1636.431          22.000  
E01  23815226.262   125149858.680         717.896          36.000  
E21  24444073.920   128454473.593       -1888.808          26.000  
G10  20281214.008   106578474.645       -1643.668          32.000  
G25  20896133.908   109809787.571       -1603.380          23.000  
G32  21449241.999   112716538.9171        447.474          31.000  
J01  37689439.244   198059319.618         447.047          30.000  
J02  38119344.627   200318501.549       -1454.477          32.000  
R02  20201168.522   107797480.534        1637.626          32.000  
R12  19432282.711   103803767.2481      -2434.354          13.000  
> 2021  9 12 11  0  5.9991537  0 11
C08  38442187.527   200178597.330       -2549.314          22.000  
C09  37723684.237   196436995.176        -740.328          25.000  
C25  21981315.152   114462469.0741      -1566.891          18.000  
E01  23814940.260   125148354.970         717.502          36.000  
G10  20281370.200   106579330.371       -1646.454          31.000  
G25  20896293.097   109810602.997       -1603.411          23.000  
G32  21449004.863   112715304.812         447.419          31.000  
J01  37689200.010   198058084.728         447.133          31.000  
J02  38119473.238   200319167.396       -1453.361          33.000  
R02  20200717.634   107795043.365        1636.759          32.000  
R12  19432581.903   103805365.515       -2434.345          15.000  
> 2021  9 12 11  0  6.9991534  0 10
C08  38442588.949   200180678.194       -2549.626          23.000  
C09  37723739.099   196437267.117        -740.694          24.000  
C25  21981525.606   114463568.733       -1569.000          19.000  
E01  23814713.317   125147162.344         715.956          36.000  
G10  20281596.843   106580501.941       -1642.754          31.000  
G32  21448835.480   112714386.035         443.677          31.000  
J01  37689032.426   198057165.052         447.803          31.000  
J02  38119659.109   200320148.475       -1453.936          32.000    38119666.904   149589730.6611      -1086.794          25.000  
R02  20200326.405   107792926.528        1637.231          33.000  
R12  19432943.753   103807298.389       -2434.295          16.000  
> 2021  9 12 11  0  7.9991529  0 12
C08  38442931.013   200182448.734       -2552.209          22.000  
C09  37723731.304   196437226.923        -740.068          24.000  
C25  21981676.102   114464358.843       -1571.724          20.000  
C33  22442786.282   116865422.6281      -1636.220          20.000  
E01  23814427.015   125145657.634         715.357          36.000  
G10  20281760.529   106581359.145       -1645.499          31.000  
G25  20896662.142   109812551.8311      -1605.753          25.000  
G31  21376008.997   112331685.0081        351.217          20.000  
G32  21448598.944   112713152.271         446.208          30.000  
J01  37688786.896   198055930.372         446.587          30.000  
J02  38119785.322   200320814.591       -1452.763          31.000    38119792.817   149590227.999       -1085.105          24.000  
R02  20199873.718   107790489.451        1637.391          33.000  
> 2021  9 12 11  0  8.9991524  0 12
C08  38443271.577   200184220.370       -2552.476          23.000  
C09  37723723.510   196437186.520        -740.087          22.000  
C25  21981825.399   114465151.169       -1573.136          25.000  
C33  22442951.468   116866278.291       -1636.312          20.000  
E01  23814141.313   125144156.924         716.030          36.000  
G10  20281923.616   106582217.013       -1646.855          31.000  
G25  20896812.638   109813369.808       -1606.279          24.000  
G32  21448362.707   112711918.635         445.664          31.000  
J01  37688553.058   198054695.724         447.603          31.000  
J02  38119912.734   200321480.745       -1453.824          32.000    38119918.729   149590725.195       -1084.876          25.000  
R02  20199421.032   107788052.459        1637.090          34.000  
R12  19433550.833   103810540.4581      -2436.138          17.000  
> 2021  9 12 11  0  9.9991519  0 13
C03  36476293.088   189941603.0541       -720.204          31.000  
C08  38443612.741   200185992.889       -2554.056          23.000  
C09  37723716.614   196437144.739        -739.169          20.000  
C25  21981977.694   114465943.803       -1574.020          25.000  
C33  22443119.352   116867134.133       -1637.734          23.000  
E01  23813856.210   125142658.214         715.330          37.000  
G10  20282087.603   106583075.749       -1647.115          30.000  
G25  20896966.731   109814188.721       -1606.999          26.000  
G31  21375580.893   112329409.3401        350.162          17.000  
G32  21448123.773   112710685.108         446.638          31.000  
J01  37688323.716   198053461.171         448.188          31.000  
J02  38120036.248   200322147.065       -1453.413          32.000    38120044.342   149591221.429       -1084.865          26.000  
R02  20198969.844   107785615.385        1636.680          34.000  
> 2021  9 12 11  0 10.9991514  0 10
C08  38443952.705   200187766.071       -2553.707          22.000  
C09  37723707.321   196437103.174        -739.421          25.000  
C33  22443284.837   116867990.952       -1636.281          22.000  
E01  23813570.508   125141157.504         715.413          36.000    23813564.512    93449541.6761        535.649          28.000  
G10  20282248.591   106583934.802       -1644.699          31.000  
G25  20897123.522   109815008.422       -1607.810          24.000  
G32  21447889.935   112709451.682         446.231          30.000  
J01  37688083.882   198052226.628         447.339          31.000  
J02  38120167.257   200322813.401       -1452.233          32.000    38120172.054   149591717.620       -1084.181          25.000  
R02  20198515.958   107783179.264        1636.295          33.000  
> 2021  9 12 11  0 11.9991511  0 11
C08  38444352.029   200189851.204       -2553.210          23.000  
C09  37723758.286   196437374.266        -740.170          26.000  
C25  21982343.141   114467842.0701      -1573.724          24.000  
E01  23813343.565   125139964.878         714.567          36.000    23813338.469    93448654.741         534.412          26.000  
G10  20282470.138   106585109.714       -1648.385          30.000  
G25  20897338.174   109816143.990       -1608.573          25.000  
G32  21447712.458   112708533.451         445.409          31.000  
J01  37687909.103   198051307.289         445.433          31.000  
J02  38120359.125   200323794.832       -1451.820          31.000    38120359.125   149592449.109       -1085.813          23.000  
R02  20198119.033   107781063.863        1634.946          33.000  
R12  19434526.357   103815752.0471      -2438.875          17.000  
> 2021  9 12 11  0 12.9991506  0 11
C08  38444692.593   200191623.137       -2551.803          23.000  
C09  37723751.390   196437335.965        -743.968          22.000  
C25  21982495.135   114468634.921       -1573.139          24.000  
C33  22443676.066   116870019.1001      -1639.585          21.000  
E01  23813057.563   125138461.168         713.474          34.000    23813053.066    93447534.516         532.400          27.000  
G10  20282632.925   106585970.413       -1648.528          30.000  
G25  20897495.565   109816964.965       -1608.986          24.000  
G31  21374998.696   112326311.8011        348.368          18.000  
G32  21447480.118   112707300.200         447.217          31.000  
J01  37687675.565   198050072.707         445.419          31.000  
R02  20197660.351   107778628.806        1635.568          31.000  
> 2021  9 12 11  0 13.9991503  0 11
C08  38445092.816   200193706.828       -2551.685          21.000  
C09  37723803.254   196437611.253        -742.942          19.000  
C25  21982709.487   114469738.274       -1571.625          24.000  
E01  23812831.820   125137275.542         715.029          36.000    23812827.922    93446650.581         532.153          27.000  
G10  20282855.072   106587146.480       -1649.125          29.000  
G25  20897713.514   109818101.650       -1610.078          25.000  
G32  21447304.140   112706382.211         443.805          32.000  
J01  37687500.187   198049153.302         446.944          30.000  
J02  38120666.112   200325442.8691      -1454.213          33.000  
R02  20197264.924   107776513.707        1634.475          33.000  
R12  19435198.492   103819342.0171      -2440.635          22.000  
> 2021  9 12 11  0 14.9991498  0 10
C08  38445430.682   200195477.363       -2551.706          21.000  
C09  37723795.760   196437572.088        -739.416          19.000  
C25  21982864.480   114470529.576       -1571.734          25.000  
C33  22444061.300   116872052.8311      -1641.201          28.000  
E01  23812544.319   125135764.832         712.365          33.000    23812541.620    93445527.356         530.232          22.000  
G10  20283019.358   106588008.022       -1649.698          30.000  
G25  20897869.406   109818924.110       -1609.559          24.000  
G32  21447073.300   112705149.194         444.379          30.000  
J01  37687271.745   198047918.934         445.915          33.000  
J02  38120792.624   200326109.518       -1455.193          30.000  
> 2021  9 12 11  0 15.9991493  0 11
C09  37723787.665   196437530.897        -738.396          26.000  
C25  21983017.074   114471321.108       -1572.232          24.000  
C33  22444224.687   116872913.710       -1641.464          28.000  
E01  23812259.216   125134266.122         712.634          29.000    23812255.618    93444405.131         532.010          26.000  
G10  20283183.644   106588870.335       -1650.547          29.000  
G25  20898024.699   109819746.468       -1610.834          23.000  
G32  21446839.162   112703915.196         446.154          27.000  
J01  37687035.508   198046684.712         444.695          34.000  
J02  38120918.237   200326776.505       -1457.694          31.000  
R02  20196356.553   107771642.1661       1636.202          19.000  
R12  19435812.767   103822623.3251      -2442.503          26.000  
> 2021  9 12 11  0 16.9991488  0 10
C08  38446108.213   200199022.2641      -2554.584          19.000  
C09  37723773.875   196437488.925        -739.194          24.000  
C25  21983170.268   114472113.186       -1573.616          23.000  
C33  22444388.973   116873775.146       -1643.766          24.000  
E01  23811972.614   125132760.412         714.050          30.000    23811969.916    93443283.906         532.544          22.000  
G10  20283349.429   106589733.332       -1650.987          30.000  
G25  20898181.190   109820569.900       -1611.514          25.000  
G32  21446605.024   112702682.576         444.780          29.000  
J01  37686798.073                         445.722          29.000  
J02  38121045.349   200327442.500       -1455.816          26.000  
> 2021  9 12 11  0 17.9991483  0 11
C08  38446448.478   200200794.291       -2553.088          20.000  
C09  37723765.481   196437445.996        -737.875          23.000  
C25  21983323.162   114472906.109       -1574.248          20.000  
C33  22444550.861   116874638.270       -1643.978          22.000  
E01  23811687.512   125131261.702         712.987          26.000    23811685.113    93442166.681         534.446          22.000  
G10  20283513.716   106590597.432       -1652.214          28.000  
G25  20898339.181   109821394.197       -1612.483          27.000  
G32  21446371.186   112701450.787         443.238          30.000  
J01  37686564.534   198044217.4451        446.020          30.000  
J02  38121170.962   200328110.659       -1455.709          32.000  
R02  20195442.786   107766772.1401       1635.257          19.000  
> 2021  9 12 11  0 18.9991478  0 10
C09  37723758.885   196437404.019        -739.519          22.000  
C25  21983478.155   114473701.053       -1576.646          21.000  
C33  22444715.147   116875500.403       -1643.204          24.000  
E01  23811402.109   125129761.992         713.076          26.000    23811398.812    93441042.456         529.877          22.000  
G10  20283680.400   106591462.311       -1652.934          29.000  
G25  20898494.773   109822219.663       -1613.905          22.000  
G32  21446139.447   112700219.709         443.502          29.000  
J01  37686332.495   198042983.207         447.375          33.000  
J02  38121295.376   200328778.221       -1455.210          33.000  
R02  20194985.902   107764338.005        1632.983          23.000  
> 2021  9 12 11  0 19.9991478  0 11
C09  37723900.087   196438144.007        -739.814          25.000  
C25  21983779.746   114475276.798       -1575.366          25.000  
C33  22445029.629   116877143.975       -1643.452          22.000  
E01                                                                                                                                  23811263.006    93440509.456         530.003          23.000  
E21  24447549.414   128472764.1681      -1895.631          23.000  
G10  20283996.681   106593115.325       -1652.819          27.000  
G25  20898802.660   109823834.412       -1615.516          22.000  
G32  21446055.805   112699775.468         443.861          28.000  
J01  37686246.454                         447.195          36.000  
J02  38121572.385   200330233.251       -1455.242          33.000  
R02  20194681.613   107762704.804        1633.534          31.000  
> 2021  9 12 11  0 20.9991473  0 11
C08  38447619.167   200206889.2801      -2554.792          19.000  
C09  37723893.792   196438103.532        -739.211          24.000  
C25  21983931.441   114476071.599       -1574.909          24.000  
C33  22445193.316   116878007.714       -1646.029          23.000  
E21  24447759.568   128473873.180       -1897.785          23.000  
G10  20284160.968   106593980.958       -1654.027          31.000  
G25  20898963.049   109824661.771       -1615.611          24.000  
G32  21445822.866   112698543.787         444.625          29.000  
J01  37686014.715   198041301.9241        446.686          36.000  
J02  38121699.497   200330900.350       -1453.973          32.000  
R02  20194222.930   107760270.757        1632.584          28.000  
> 2021  9 12 11  0 21.9991468  0  9
C08  38447960.331   200208663.129       -2554.585          23.000  
C25  21984084.035   114476864.983       -1572.832          21.000  
C33  22445359.401   116878876.183       -1649.600          10.000  
G10  20284325.254   106594847.226       -1654.507          34.000  
G32  21445586.629   112697311.334         443.269          28.000  
J01  37685777.579   198040067.781         446.504          34.000  
J02  38121823.910                       -1453.991          30.000  
R02  20193766.946   107757838.969        1631.310          28.000  
R12  19437831.269   103833406.1061      -2448.681          28.000  
> 2021  9 12 11  0 22.9991462  0  8
C08  38448271.216   200210280.013       -2553.190          25.000  
C25  21984204.852   114477499.761       -1571.751          10.000  
G10  20284460.160   106595556.771       -1655.066          31.000  
G25  20899250.250   109826158.3421      -1614.856          23.000  
J01  37685510.464   198038676.076         445.806          35.000  
J02  38121915.647   200332045.7391      -1454.547          27.000  
R02  20193279.783   107755247.887        1630.667          28.000  
R12  19438113.674   103834914.904       -2448.434          30.000  
> 2021  9 12 11  0 23.9991457  0  9
C08  38448610.881   200212052.950       -2554.304          21.000  
C25  21984357.446   114478291.853       -1573.246          16.000  
C33  22445661.892   116880462.6731      -1647.179          13.000  
G10  20284625.046   106596425.243       -1656.825          29.000  
G25  20899408.541   109826986.425       -1616.049          24.000  
G32  21445081.779   112694691.3561        441.040          20.000  
J01  37685277.525   198037441.938         446.495          34.000  
J02  38122043.059   200332713.117       -1455.128          30.000  
R12  19438421.261   103836557.741       -2449.722          25.000  
> 2021  9 12 11  0 24.9991452  0  9
C08  38448950.845   200213826.950       -2555.543          21.000  
C09  37723828.437   196437791.0071       -740.839          17.000  
C25  21984508.242   114479083.122       -1572.123          16.000  
C33  22445827.377   116881328.960       -1646.882          17.000  
G10  20284790.232   106597294.488       -1657.137          34.000  
J01  37685038.591   198036207.673         445.916          34.000  
J02  38122170.171   200333380.902       -1455.579          28.000  
R02  20192360.620   107750385.8271       1632.047          24.000  
R12  19438733.345   103838224.972       -2450.610          26.000  
> 2021  9 12 11  0 25.9991450  0  7
C33  22446082.201   116882662.385       -1644.975          17.000  
G25  20899812.061   109829118.2391      -1616.965          20.000  
G32  21444700.143   112692705.7721        443.521          22.000  
J01  37684891.093   198035446.256         446.539          35.000  
J02  38122386.021   200334520.664       -1454.212          28.000  
R02  20191993.674   107748433.903        1631.129          25.000  
R12  19439132.968   103840360.016       -2452.046          25.000  
> 2021  9 12 11  0 26.9991444  0  9
C08  38449690.433   200217685.6251      -2553.101          22.000  
C25  21984872.489   114480980.3511      -1572.316          15.000  
G10  20285187.157                       -1656.944          34.000  
G25  20899940.372   109829790.736       -1618.466          19.000  
G32  21444433.927   112691317.215         443.805          22.000  
J01  37684629.074   198034055.031         445.572          35.000  
J02  38122483.154   200335030.160       -1455.971          30.000  
R02  20191505.612   107745843.333        1630.585          27.000  
R12  19439412.375   103841852.148       -2451.080          27.000  
> 2021  9 12 11  0 27.9991442  0  6
C16  37338366.087   194430563.2231       -593.755          22.000  
G10  20285444.379   106600720.7641      -1657.334          34.000  
G32  21444287.029   112690557.750         443.808          25.000  
J01  37684487.272   198033293.969         447.622          34.000  
R02  20191141.064   107743893.178        1629.964          24.000  
R12  19439812.298   103843988.607       -2452.521          28.000  
> 2021  9 12 11  0 28.9991437  0  8
C08  38450459.101   200221698.6861      -2552.953          22.000  
C16  37338330.412   194430375.237        -591.985          22.000  
G10  20285605.068   106601592.293       -1660.097          31.000  
G32  21444053.790   112689326.166         443.043          25.000  
J01  37684251.336   198032060.228         445.571          34.000  
J02  38122829.714   200336839.1011      -1455.818          31.000  
R02  20190675.186   107741462.926        1630.279          24.000  
R12  19440123.483   103845650.441       -2451.096          29.000  
> 2021  9 12 11  0 29.9991432  0  8
C16  37338294.736   194430186.666        -591.728          21.000  
G10  20285768.755   106602464.461       -1661.517          34.000  
G25  20900496.188   109832761.7181      -1622.048          16.000  
G32  21443819.952   112688095.760         443.306          24.000  
J01  37684018.697   198030826.556         445.922          36.000  
J02  38122956.526   200337507.262       -1455.196          28.000  
R02  20190215.005   107739033.542        1630.362          22.000  
R12  19440433.468   103847306.209       -2453.714          27.000  
> 2021  9 12 11  0 30.9991427  0  7
C09  37723921.672   196438339.1011       -736.693          17.000  
G10  20285938.737   106603337.158       -1660.062          33.000  
G32  21443587.913   112686864.702         442.913          25.000  
J01  37683783.659   198029592.772         445.263          36.000  
J02  38123082.439   200338174.780       -1455.186          27.000  
R02  20189759.920   107736604.618        1627.573          24.000  
R12  19440751.848   103849007.822       -2452.674          20.000  
> 2021  9 12 11  0 31.9991421  0  9
C08  38451451.114   200226858.1001      -2551.747          23.000  
C16  37338188.010   194429653.8221       -593.242          22.000  
E21  24450184.589   128486552.5961      -1901.346          26.000  
G10  20286076.342   106604052.880       -1660.077          34.000  
G32  21443324.695   112685476.128         443.677          26.000  
J01  37683519.842   198028201.388         447.699          36.000  
J02  38123178.972   200338683.593       -1453.796          29.000  
R02  20189275.755   107734016.914        1628.130          27.000  
R12  19441030.655   103850497.213       -2454.067          19.000  
> 2021  9 12 11  0 32.9991419  0 10
C08  38451880.417   200229098.174       -2553.642          23.000  
C16  37338240.774   194429934.641        -593.038          24.000  
C33  22447347.025   116889294.1261      -1645.649          12.000  
E21  24450487.680   128488138.224       -1898.870          24.000  
G10  20286329.666   106605399.442       -1662.878          34.000  
G32  21443179.895   112684717.280         443.838          25.000  
J01  37683375.342   198027440.210         445.987          36.000  
J02  38123396.022   200339823.439       -1455.052          29.000  
R02  20188910.308   107732067.793        1629.738          26.000  
R12  19441431.177   103852636.387       -2455.180          24.000  
> 2021  9 12 11  0 33.9991414  0  8
C16  37338205.098   194429747.735        -593.916          23.000  
G10  20286492.753   106606274.169       -1663.873          34.000  
G25  20901197.702   109836431.4081      -1625.691          16.000  
G32  21442946.657   112683485.935         443.794          27.000  
J01  37683138.206   198026206.485         446.076          36.000  
J02  38123521.335   200340490.991       -1455.240          27.000  
R02  20188459.121   107729638.788        1628.475          25.000  
R12  19441738.764   103854279.079       -2455.711          22.000  
> 2021  9 12 11  0 34.9991409  0  9
C08  38452565.443   200232645.9631      -2554.768          22.000  
C16  37338167.624   194429561.332        -595.625          23.000  
G10  20286659.438   106607149.384       -1662.542          31.000  
G25  20901359.590   109837269.340       -1625.334          17.000  
G32  21442714.018   112682254.381         443.760          28.000  
J01  37682904.368   198024972.729         445.576          36.000  
J02  38123650.546   200341158.592       -1454.943          31.000  
R02  20188006.434   107727210.347        1628.501          27.000  
R12  19442046.651   103855924.404       -2456.583          22.000  
> 2021  9 12 11  0 35.9991406  0  8
C16  37338191.308   194429688.416        -595.508          24.000  
G10  20286888.479   106608340.395       -1664.466          33.000  
G25  20901580.237   109838421.735       -1624.965          24.000  
G32  21442537.740   112681337.797         443.778          25.000  
J01  37682727.790   198024054.097         444.975          35.000  
J02  38123839.715   200342141.569       -1456.061          30.000  
R02  20187611.008   107725102.662        1627.002          29.000  
R12  19442417.195   103857903.807       -2457.174          27.000  
> 2021  9 12 11  0 36.9991401  0 10
C08  38453309.228   200236506.5411      -2556.080          22.000  
C09  37724005.315   196438696.0321       -739.408          21.000  
C16  37338155.033   194429503.481        -595.296          24.000  
G10  20287053.665   106609216.983       -1664.145          34.000  
G25  20901741.226   109839258.930       -1625.212          24.000  
G32  21442304.501   112680106.573         443.341          27.000  
J01  37682495.451   198022820.358         445.257          34.000  
J02  38123969.525   200342809.487       -1455.625          30.000  
R02  20187155.323   107722676.022        1627.340          27.000  
R12  19442724.182   103859543.235       -2457.580          27.000  
> 2021  9 12 11  0 37.9991396  0 10
C08  38453650.392   200238281.410       -2555.761          23.000  
C09  37723998.120   196438654.293        -739.333          20.000  
C16  37338118.458   194429317.347        -594.520          22.000  
G10  20287223.348   106610093.933       -1664.956          33.000  
G25  20901902.214   109840096.598       -1625.807          23.000  
G32  21442071.863   112678875.449         443.364          27.000  
J01  37682258.016   198021586.411         445.944          35.000  
J02  38124098.736   200343477.530       -1455.928          27.000  
R02  20186704.136   107720247.860        1628.581          28.000  
R12  19443029.671   103861175.446       -2458.261          24.000  
> 2021  9 12 11  0 38.9991393  0 10
C08  38454051.514   200240368.733       -2555.264          22.000  
C09  37724052.682   196438924.586        -739.086          21.000  
C16  37338142.142   194429442.946        -594.335          22.000  
G10  20287450.290   106611286.682       -1665.564          34.000  
G25  20902123.461   109841250.220       -1627.049          19.000  
G32  21441898.283   112677959.422         443.468          27.000  
J01  37682082.637   198020667.688         445.758          35.000  
J02  38124287.005   200344460.455       -1455.135          30.000  
R02  20186311.108   107718140.249        1626.486          29.000  
R12  19443392.420   103863113.303       -2458.806          24.000  
> 2021  9 12 11  0 39.9991388  0  9
C08  38454391.479   200242141.721       -2554.140          23.000  
C09  37724045.187   196438882.376        -738.367          21.000  
C16  37338107.666   194429255.799        -592.617          22.000  
G10  20287619.074   106612164.976       -1667.085          31.000  
G25  20902283.850   109842090.377       -1628.216          17.000  
J01  37681849.698   198019433.714         446.332          36.000  
J02  38124414.117   200345128.483       -1456.210          29.000  
R02  20185854.524   107715715.035        1624.972          29.000  
R12  19443711.698   103864818.442       -2459.390          26.000  
> 2021  9 12 11  0 40.9991383  0  8
C08  38454732.942   200243915.925       -2555.084          25.000  
G10  20287788.756   106613043.940       -1667.452          33.000  
G25  20902447.836   109842931.101       -1628.882          24.000  
G32  21441422.512   112675497.6371        443.033          26.000  
J01  37681616.760   198018199.823         446.611          36.000  
J02  38124540.630   200345797.091       -1456.427          28.000  
R02  20185402.137   107713290.364        1625.218          28.000  
R12  19444022.883   103866480.464       -2460.405          27.000  
> 2021  9 12 11  0 41.9991378  0  8
C08  38455075.305   200245690.393       -2554.056          25.000  
C16  37338037.215   194428878.9491       -594.040          23.000  
G10  20287950.944   106613923.498       -1667.990          34.000  
G25  20902609.125   109843772.285       -1628.784          23.000  
G32  21441184.777   112674266.928         443.071          24.000  
J01  37681382.022   198016965.916         446.129          35.000  
J02  38124667.442   200346465.740       -1456.634          30.000  
R02  20184943.454   107710864.362        1626.233          26.000  
> 2021  9 12 11  0 42.9991373  0  9
C08  38455417.668   200247462.773       -2552.488          23.000  
C16  37338000.940   194428692.043        -593.415          23.000  
G10  20288121.526   106614803.729       -1667.708          34.000  
G25  20902768.914   109844613.595       -1629.332          21.000  
G32  21440950.939   112673036.107         443.088          23.000  
J01  37681146.085   198015732.125         446.678          35.000  
J02  38124793.954   200347134.282       -1456.094          30.000  
R02  20184490.768   107708438.732        1625.798          26.000  
R12  19444643.154   103869794.4341      -2461.690          19.000  
> 2021  9 12 11  0 43.9991370  0 10
C08  38455818.191   200249547.115       -2552.254          22.000  
C09  37724079.963   196439031.2271       -738.271          18.000  
C16  37338026.422   194428817.265        -593.291          23.000  
G10  20288348.469   106615999.805       -1667.990          33.000  
G25  20902990.761   109845770.492       -1630.354          21.000  
G32  21440777.658   112672120.385         442.936          24.000  
J01  37680969.208   198014813.404         446.635          34.000  
J02  38124981.624   200348117.258       -1455.058          28.000  
R02  20184095.641   107706333.619        1625.072          26.000  
R12  19445001.406   103871707.898       -2462.613          18.000  
> 2021  9 12 11  0 44.9991365  0 10
C08  38456160.554   200251320.148       -2554.345          23.000  
C09  37724071.569   196438988.187        -737.656          17.000  
C16  37337991.946   194428629.050        -592.092          23.000  
G10  20288517.252   106616881.358       -1669.827          34.000  
G25  20903152.349   109846613.286       -1631.030          22.000  
G32  21440545.020   112670889.425         443.451          26.000  
J01  37680738.667   198013579.620         445.490          35.000  
J02  38125110.235   200348785.217       -1455.652          27.000  
R02  20183639.957   107703907.431        1625.601          26.000  
R12  19445314.389   103873379.965       -2463.910          17.000  
> 2021  9 12 11  0 45.9991363  0 12
C08  38456591.356   200253562.532       -2554.492          24.000  
C09  37724152.213   196439413.802        -738.534          17.000  
C16  37338050.106   194428908.848        -591.999          25.000  
C23  23275207.409   121200111.9111       1032.597          23.000  
C25  21988220.871   114498352.7801      -1583.929          24.000  
G10  20288774.773   106618236.072       -1670.465          33.000  
G25  20903402.076   109847929.410       -1631.762          24.000  
G32  21440402.019   112670131.074         442.995          27.000  
J01  37680592.968   198012818.272         445.911          37.000  
J02  38125327.285   200349925.826       -1455.031          30.000  
R02  20183275.409   107701962.578        1625.579          25.000  
R12  19445715.511   103875522.027       -2463.743          23.000  
> 2021  9 12 11  0 46.9991357  0 11
C08  38456902.840   200255180.788       -2555.230          24.000  
C09  37724111.141   196439215.056        -736.927          16.000  
C16  37337985.950   194428564.017        -592.640          24.000  
C23  23274828.172   121198142.156        1033.111          19.000  
C25  21988342.887   114499001.666       -1586.909          23.000  
G10  20288914.177   106618961.184       -1669.679          33.000  
G25  20903532.186   109848615.872       -1632.032          24.000  
G32  21440137.602   112668742.918         442.608          28.000  
J01  37680327.352   198011426.764         446.453          36.000  
J02  38125423.818   200350435.619       -1455.243          32.000  
R02  20182788.246   107699376.745        1625.699          28.000  
> 2021  9 12 11  0 47.9991352  0 11
C08  38457244.604   200256954.743       -2554.756          24.000  
C16  37337949.975   194428376.034        -593.068          23.000  
C23  23274480.113   121196327.906        1033.529          22.000  
C25  21988499.079   114499808.503       -1587.141          24.000  
G10  20289081.161   106619844.514       -1669.697          34.000  
G25  20903692.575   109849460.454       -1632.630          24.000  
G32  21439905.262   112667512.399         442.818          28.000  
J01  37680091.116   198010192.733         446.533          36.000  
J02  38125551.230   200351103.406       -1455.539          28.000  
R02  20182334.660   107696950.959        1625.815          26.000  
R12  19446315.696   103878728.7191      -2464.628          18.000  
> 2021  9 12 11  0 48.9991347  0  9
C16  37337913.400   194428186.310        -588.292          21.000  
C25  21988654.671   114500614.567       -1586.827          21.000  
G10  20289247.246   106620727.853       -1670.368          32.000  
G25  20903852.964   109850306.568       -1635.474          22.000  
G32  21439671.724   112666282.746         441.447          25.000  
J01  37679856.078   198008958.861         446.351          32.000  
J02  38125681.040   200351771.543       -1455.854          29.000  
R02  20181881.374   107694526.152        1623.569          28.000  
R12  19446631.677   103880415.924       -2465.572          28.000  
> 2021  9 12 11  0 49.9991342  0  7
C23  23273781.596   121192702.2631       1032.009          21.000  
C25  21988808.764   114501420.533       -1586.410          23.000  
G10  20289414.231   106621611.288       -1672.394          33.000  
G25  20904012.453   109851154.378       -1636.047          21.000  
J01  37679621.641   198007725.102         446.385          35.000  
J02  38125808.752   200352439.442       -1455.483          31.000  
R12  19446945.860   103882094.987       -2466.039          29.000  
> 2021  9 12 11  0 50.9991340  0  8
C09  37724158.509   196439500.2881       -734.441          20.000  
C23  23273522.576   121191358.205        1030.055          21.000  
C25  21989052.496   114502695.315       -1587.668          26.000  
G32  21439299.382   112664296.1621        442.260          30.000  
J01  37679478.640   198006964.298         443.878          32.000  
J02  38126027.001   200353579.588       -1455.494          32.000  
R02  20181055.146   107690159.1651       1623.107          27.000  
R12  19447349.680   103884251.468       -2466.587          31.000  
> 2021  9 12 11  0 51.9991334  0  8
C09  37724119.236   196439299.580        -736.811          20.000  
C25  21989178.109   114503347.121       -1588.787          28.000  
C33  22450849.800   116907451.8781      -1654.526          28.000  
G10  20289807.259   106623697.7961      -1673.671          24.000  
G32  21439036.464   112662908.705         442.116          31.000  
J01  37679209.726   198005571.864         446.642          23.000  
J02  38126123.234   200354089.998       -1456.311          34.000  
R12  19447630.286   103885750.459       -2467.781          28.000  
> 2021  9 12 11  0 52.9991332  0  9
C08  38459098.520   200266606.9011      -2555.429          19.000  
C23  23272883.118   121188051.9791       1028.106          21.000  
C25  21989423.939   114504622.617       -1586.233          23.000  
C33  22451108.521   116908794.214       -1654.508          24.000  
G10  20290066.579   106625056.776       -1674.567          30.000  
J01  37679064.626   198004810.473         446.057          34.000  
J02  38126337.886                       -1455.813          30.000  
R02  20180215.727   107685633.5441       1622.288          26.000  
R12  19448028.410   103887877.647       -2468.200          26.000  
> 2021  9 12 11  0 53.9991327  0  9
C08  38459437.585   200268380.273       -2552.689          25.000  
C09  37724189.987   196439679.7651       -736.390          20.000  
C23  23272537.158   121186243.894        1027.728          23.000  
C25  21989579.831   114505429.165       -1586.057          14.000  
G25  20904814.098   109855345.4661      -1637.711          18.000  
J01  37678829.589   198003576.805         445.780          36.000  
J02  38126460.201   200355925.1641      -1457.680          27.000  
R02  20179761.242   107683211.977        1622.656          23.000  
R12  19448342.892   103889557.757       -2469.763          27.000  
> 2021  9 12 11  0 54.9991322  0  9
C08  38459776.051   200270153.708       -2553.951          23.000  
C09  37724181.593   196439636.228        -736.443          20.000  
C23  23272192.696   121184435.644        1027.440          22.000  
C33  22451445.788   116910545.9071      -1656.553          22.000  
G10  20290405.644   106626831.6171      -1675.610          35.000  
G32  21438429.384   112659691.4941        442.689          29.000  
J01  37678594.852   198002342.495         446.502          35.000  
J02  38126587.912   200356594.546       -1457.011          27.000    38126602.302   149616940.0461      -1087.537          26.000  
R12  19448659.173   103891247.029       -2470.939          29.000  
> 2021  9 12 11  0 55.9991316  0  9
C08  38460084.837   200271771.048       -2554.109          21.000  
C16  37337771.898   194427464.8691       -591.327          18.000  
C33  22451585.791   116911266.169       -1657.099          20.000  
G10  20290551.943   106627562.904       -1677.566          35.000  
G32  21438166.766   112658303.605         442.902          31.000  
J01  37678331.034   198000951.112         445.445          35.000  
J02  38126686.244   200357106.164       -1456.897          26.000    38126700.035   149617320.698       -1086.912          27.000  
R02  20178830.386   107678205.0191       1624.854          19.000  
R12  19448943.676   103892766.297       -2471.146          28.000  
> 2021  9 12 11  0 56.9991311  0  6
C08  38460426.001   200273545.734       -2556.448          23.000  
G10  20290717.429                       -1677.193          35.000  
J01  37678098.395   197999717.849         445.205          34.000  
J02  38126811.558   200357774.691       -1457.895          26.000    38126827.746   149617819.343       -1088.133          27.000  
R02  20178375.301   107675780.918        1623.672          24.000  
R12  19449255.461   103894431.754       -2472.623          25.000  
> 2021  9 12 11  0 57.9991306  0  9
C08  38460765.366   200275321.407       -2556.304          23.000  
C16  37337698.449   194427087.8771       -594.179          20.000  
C23  23271124.536   121178861.1831       1022.067          22.000  
G10  20290889.210   106629329.7741      -1676.956          36.000  
G32  21437699.689   112655843.9491        441.030          32.000  
J01  37677865.457                         442.239          34.000  
J02  38126939.269   200358444.777       -1457.810          26.000    38126955.158   149618320.055       -1090.395          27.000  
R02  20177920.816   107673358.587        1622.124          24.000  
R12  19449572.941   103896128.281       -2474.224          23.000  
> 2021  9 12 11  0 58.9991304  0  6
C08  38461196.168   200277564.338       -2553.357          21.000  
C23  23270869.712   121177525.160        1027.646          23.000  
G10  20291149.430   106630692.941       -1679.636          35.000  
G32  21437554.890                         441.667          33.000  
J02  38127156.919   200359586.733       -1456.530          28.000    38127171.608   149619173.790       -1088.259          27.000  
R02  20177557.767   107671417.155        1620.784          25.000  
> 2021  9 12 11  0 59.9991301  0  9
C08  38461597.290   200279650.077       -2554.547          22.000  
C09  37724248.746   196440038.3411       -740.088          15.000  
C23  23270583.111   121176028.627        1028.172          23.000  
G10  20291376.672   106631899.103       -1678.749          34.000  
G32  21437382.809   112654196.3261        440.796          33.000  
J01  37677541.681   197996838.7071        446.332          34.000  
J02  38127343.689   200360570.728       -1456.145          27.000    38127358.379   149619907.241       -1085.206          28.000  
R02  20177171.635   107669316.257        1621.630          25.000  
R12  19450351.202   103900285.7041      -2472.377          21.000  
> 2021  9 12 11  1  0.9991296  0  8
C08  38461937.255   200281424.748       -2555.362          23.000  
C23  23270233.253   121174219.126        1029.204          21.000  
G10  20291546.055   106632790.952       -1680.081          34.000  
G32  21437148.071   112652967.030         439.171          32.000  
J01  37677307.243   197995605.070         446.119          34.000  
J02                                                                  38127484.891   149620404.450       -1086.492          27.000  
R02  20176720.747   107666895.442        1621.358          26.000  
R12  19450662.686   103901949.617       -2472.966          24.000  
> 2021  9 12 11  1  1.9991291  0 10
C08  38462277.220   200283200.054       -2555.162          21.000  
C09  37724230.758   196439956.1861       -737.352          17.000  
C16  37337697.550   194427116.9141       -588.767          20.000  
C25  21990938.190   114512538.5411      -1592.106          16.000  
C33  22452743.289   116917324.5801      -1664.659          19.000  
G10  20291714.239   106633683.579       -1680.636          34.000  
G32  21436912.434   112651737.845         441.697          29.000  
J01  37677072.805   197994371.394         445.165          35.000  
J02  38127596.714   200361908.6951      -1457.529          25.000    38127612.003   149620902.505       -1086.903          27.000  
R12  19450984.364   103903667.266       -2474.027          28.000  
> 2021  9 12 11  1  2.9991286  0  7
G10  20291889.018   106634576.477       -1681.398          32.000  
G31  21365107.944   112274637.0681        333.312          23.000  
G32  21436673.200   112650508.504         439.295          30.000  
J01  37676840.166   197993137.569         444.889          34.000  
J02                                                                  38127739.415   149621401.916       -1088.188          27.000  
R02  20175806.680   107662053.9331       1620.186          23.000  
R12  19451300.045   103905353.834       -2475.166          25.000  
> 2021  9 12 11  1  3.9991283  0  7
G10  20292112.063   106635785.037       -1681.076          33.000  
G31  21364959.546   112273832.242         331.184          24.000  
G32  21436493.025   112649594.207         439.158          31.000  
J01  37676665.387   197992218.810         445.519          34.000  
J02  38127915.693   200363561.7981      -1456.069          31.000    38127926.186   149622135.775       -1086.623          26.000  
R02  20175417.249   107659955.407        1618.887          21.000  
R12  19451679.283   103907380.231       -2474.793          24.000  
> 2021  9 12 11  1  4.9991278  0  4
G10  20292282.045   106636679.471       -1683.418          31.000  
G32  21436266.981   112648365.176         441.539          30.000  
J01  37676423.755   197990985.193         445.922          33.000  
J02  38128041.906   200364230.275       -1456.493          30.000    38128053.898   149622633.681       -1086.166          26.000  
> 2021  9 12 11  1  5.9991273  0  8
C25  21991615.721   114516101.5081      -1591.522          24.000  
C33  22453483.777   116921178.3541      -1671.779          15.000  
G10  20292456.225   106637574.611       -1682.924          33.000  
G31  21364542.235   112271596.0461        330.097          27.000  
G32  21436029.246   112647136.283         442.696          28.000  
J01  37676195.013   197989751.564         445.395          31.000  
J02  38128171.416   200364899.179       -1456.775          29.000    38128180.410   149623132.868       -1088.044          24.000  
R02  20174504.681   107655115.4671       1620.283          22.000  
> 2021  9 12 11  1  6.9991268  0  7
C09  37724258.339   196440038.8521       -735.310          25.000  
G10  20292627.706   106638470.295       -1684.256          35.000  
G31  21364332.680   112270478.823         327.973          28.000  
G32  21435796.307   112645907.112         440.670          26.000  
J01  37675959.376   197988518.044         446.725          33.000  
J02  38128300.927   200365567.680       -1456.260          29.000    38128307.522   149623630.888       -1086.678          24.000  
R02  20174050.495   107652695.503        1619.608          26.000  
> 2021  9 12 11  1  7.9991265  0  7
C09  37724311.702   196440305.953        -734.083          22.000  
C33  22453884.000   116923267.1741      -1671.281          14.000  
G10  20292859.146   106639681.659       -1684.408          36.000  
G31  21364182.184   112269678.333         327.348          27.000  
G32  21435626.025   112644993.516         441.128          25.000  
J01  37675783.098   197987599.436         446.952          32.000  
J02  38128487.098   200366551.589       -1456.925          31.000    38128496.391   149624365.762       -1089.226          24.000  
> 2021  9 12 11  1  8.9991260  0 10
C09  37724304.208   196440259.829        -734.934          20.000  
C16  37337582.729   194426412.5531       -589.069          21.000  
C33  22454055.181   116924156.972       -1669.243          13.000  
G10  20293027.929   106640578.693       -1684.794          34.000  
G25  20907485.249   109869385.2011      -1646.777          16.000  
G31  21363972.929   112268563.031         327.578          26.000  
G32  21435395.484   112643764.661         440.941          26.000  
J01  37675546.562   197986365.888         445.992          32.000  
J02  38128614.210   200367221.135       -1457.291          30.000    38128623.803   149624866.810       -1090.665          22.000  
R02  20173205.081   107648175.7991       1620.559          25.000  
> 2021  9 12 11  1  9.9991255  0  8
C08  38465127.946   200298030.0311      -2558.958          22.000  
C16  37337549.452   194426219.929        -587.562          21.000  
G10  20293201.209   106641476.293       -1686.014          35.000  
G31  21363763.374   112267447.381         327.898          24.000  
G32  21435164.345   112642535.586         441.369          27.000  
J01  37675308.227   197985132.348         447.167          31.000  
J02  38128744.619   200367890.832       -1457.173          30.000    38128751.814   149625367.645       -1088.172          24.000  
R02  20172745.499   107645755.676        1620.342          26.000  
> 2021  9 12 11  1 10.9991252  0  5
G10  20293429.951   106642689.523       -1685.567          35.000  
G31  21363615.876   112266647.393         327.116          26.000  
G32  21434991.664   112641621.534         441.341          27.000  
J01  37675139.444   197984213.638         446.235          32.000  
J02  38128931.390   200368875.083       -1456.291          30.000    38128939.784   149626103.925       -1088.773          23.000  
> 2021  9 12 11  1 11.9991247  0  8
C08  38465870.232   200301899.3191      -2557.314          22.000  
G10  20293602.631   106643588.400       -1687.066          35.000  
G25  20908044.062   109872280.9691      -1648.813          18.000  
G31  21363406.621   112265532.362         326.827          26.000  
G32  21434760.524   112640392.854         440.589          28.000  
J01  37674910.102   197982980.054         447.041          31.000  
J02  38129058.202   200369543.103       -1455.770          30.000    38129066.297   149626603.927       -1088.370          24.000  
R02  20171898.585   107641238.0391       1618.541          27.000  
> 2021  9 12 11  1 12.9991242  0  8
C08  38466211.396   200303676.000       -2556.275          23.000  
C16  37337499.687   194425948.3411       -586.543          21.000  
G10  20293766.618   106644487.974       -1687.546          34.000  
G31  21363194.668   112264417.442         326.763          27.000  
G32  21434528.784   112639164.867         440.160          27.000  
J01  37674672.367   197981746.489         446.441          33.000  
J02  38129186.513   200370212.040       -1457.110          30.000    38129193.708   149627105.613       -1088.228          23.000  
R02  20171445.899   107638821.757        1614.514          28.000  
> 2021  9 12 11  1 13.9991237  0  7
C08  38466551.960   200305450.807       -2554.536          23.000  
E01  23796846.886   125053274.3701        690.343          31.000  
G10  20293938.099   106645387.964       -1685.713          34.000  
G32  21434295.546   112637936.943         440.046          25.000  
J01  37674429.235   197980512.864         445.557          31.000  
J02  38129313.625   200370881.480       -1457.452          32.000    38129320.820   149627604.847       -1085.774          24.000  
R02  20170987.516   107636406.804        1615.025          24.000  
> 2021  9 12 11  1 14.9991235  0  8
C08  38466979.764   200307692.624       -2553.442          22.000  
E01  23796652.620   125052253.286         689.063          26.000  
G10  20294200.118   106646761.667       -1689.073          31.000  
G25  20908634.054   109875612.9421      -1650.833          18.000  
G31  21362861.599   112262661.6161        326.742          27.000  
J01  37674291.331   197979752.077         446.263          34.000  
J02  38129531.275   200372023.898       -1457.757          30.000    38129536.971   149628456.297       -1087.702          22.000  
R02  20170623.568   107634471.050        1616.243          24.000  
> 2021  9 12 11  1 15.9991229  0  9
C08  38467290.349   200309309.858       -2554.065          24.000  
C25  21993354.517   114525164.3721      -1594.805          19.000  
E01  23796341.436   125050618.034         688.367          33.000  
G10  20294347.016   106647505.638       -1688.457          33.000  
G31  21362621.165   112261389.330         327.587          24.000  
G32  21433880.034   112635796.8771        440.126          22.000  
J01  37674028.113   197978361.010         447.166          34.000  
J02  38129629.607   200372536.163       -1458.027          29.000    38129635.003   149628838.162       -1087.535          24.000  
R02  20170136.405   107631895.243        1616.303          24.000  
> 2021  9 12 11  1 16.9991227  0  8
C08  38467722.350   200311552.191       -2554.552          23.000  
E01  23796151.367   125049618.950         687.120          33.000  
G10  20294607.536   106648880.502       -1689.782          33.000  
G31  21362500.649   112260747.438         326.398          24.000  
G32  21433735.534   112635041.154         440.933          25.000  
J01  37673884.512   197977600.231         445.279          35.000  
J02  38129847.856   200373678.648       -1457.131          29.000    38129851.753   149629690.977       -1088.219          25.000  
R02  20169784.149   107629959.855        1614.438          26.000  
> 2021  9 12 11  1 17.9991222  0 10
C08  38468063.514   200313326.904       -2556.518          22.000  
C16  37337478.402   194426047.6831       -591.793          15.000  
C25  21993759.537   114527264.6621      -1598.168          23.000  
E01  23795871.061   125048146.240         687.561          33.000  
G10  20294777.518   106649783.462       -1691.067          32.000  
G31  21362289.595   112259633.626         325.548          25.000  
G32  21433498.997   112633813.096         440.018          24.000  
J01  37673649.175   197976366.901         447.208          34.000  
J02  38129974.668   200374348.088       -1456.612          29.000    38129979.764   149630192.251       -1091.108          23.000  
R02  20169328.464   107627544.157        1616.049          24.000  
> 2021  9 12 11  1 18.9991217  0 10
C08  38468404.977   200315102.303       -2556.038          21.000  
C16  37337444.825   194425856.883        -586.997          13.000  
C25  21993918.727   114528082.468       -1599.242          24.000  
E01  23795589.556   125046666.530         686.469          33.000  
G10  20294950.498   106650687.196       -1694.321          30.000  
G31  21362077.641   112258520.696         324.909          25.000  
G32  21433266.958   112632585.508         440.189          25.000  
J01  37673412.040   197975133.645         446.110          34.000  
J02  38130100.880   200375016.926       -1456.834          29.000  
R02  20168877.876   107625128.881        1613.951          25.000  
> 2021  9 12 11  1 19.9991212  0  5
E01  23795308.351   125045188.820         686.945          34.000  
G10  20295120.480   106651591.076       -1691.466          29.000  
J01  37673172.805   197973900.347         445.224          34.000  
J02  38130227.992   200375685.847       -1456.710          29.000  
R02  20168430.586   107622714.185        1614.904          26.000  
> 2021  9 12 11  1 20.9991206  0 10
C08  38469058.225   200318497.6351      -2557.561          22.000  
C25  21994207.127   114529561.9871      -1598.407          22.000  
E01  23795000.164   125043569.568         685.218          34.000  
G10  20295261.083   106652336.975       -1691.026          28.000  
G31  21361625.554   112256141.1301        323.518          20.000  
G32  21432771.401   112629971.2021        441.203          24.000  
J01  37672909.587   197972509.446         443.873          32.000  
J02  38130324.825   200376197.658       -1457.196          30.000  
R02  20167952.717   107620139.094        1616.435          26.000  
R12  19457249.726   103937136.5421      -2486.810          30.000  
> 2021  9 12 11  1 21.9991201  0  9
C08  38469400.288   200320275.190       -2557.652          22.000  
C33  22456437.332   116936629.3031      -1668.255          24.000  
E01  23794720.158   125042097.858         684.590          32.000  
G10  20295431.365   106653241.669       -1693.285          28.000  
G32  21432539.062   112628742.633         440.249          31.000  
J01  37672674.850   197971276.241         445.959          33.000  
J02  38130451.038   200376867.471       -1458.097          28.000  
R02  20167500.030   107617723.970        1614.153          26.000  
R12  19457564.209   103938815.985       -2487.998          31.000  
> 2021  9 12 11  1 22.9991199  0 10
C08  38469831.090   200322519.847       -2556.658          25.000  
C33  22456697.552   116937985.457       -1668.453          26.000  
E01  23794529.190   125041094.774         685.312          32.000  
G10  20295693.084   106654619.852       -1694.385          26.000  
G25  20910093.444   109883170.7031      -1662.582          17.000  
G32  21432396.361   112627988.425         437.857          31.000  
J01  37672526.153   197970515.630         445.171          33.000  
J02  38130669.287   200378010.063       -1457.108          26.000  
R02  20167130.986   107615789.498        1614.343          26.000  
R12  19457972.526   103940996.924       -2488.224          30.000  
> 2021  9 12 11  1 23.9991196  0 10
C08  38470233.112   200324607.846       -2555.898          24.000  
C25  21994836.691   114532796.4771      -1599.213          26.000  
C33  22456927.493   116939185.652       -1669.537          25.000  
E01  23794310.642   125039946.148         683.998          32.000  
G10  20295924.524   106655842.220       -1695.427          28.000  
G32  21432223.680   112627077.550         438.741          31.000  
J01  37672349.275   197969597.462         447.133          32.000  
J02  38130855.458   200378995.123       -1457.301          25.000  
