     3.03           OBSERVATION DATA    M: Mixed            RINEX VERSION / TYPE
Geo++ RINEX Logger  Geo++               20210930 115942 UTC PGM / RUN BY / DATE
************************************************************COMMENT
This file was generated by the Geo++ RINEX Logger App       COMMENT
for Android devices (Version 2.1.6). If you encounter       COMMENT
any issues, please send an email to android@geopp.de        COMMENT
Filtering Mode: MORE                                        COMMENT
************************************************************COMMENT
Geo++                                                       MARKER NAME
GEODETIC                                                    MARKER TYPE
Geo++               Geo++                                   OBSERVER / AGENCY
unknown             HUAWEI              ELS-AN00            REC # / TYPE / VERS
unknown             ELS-AN00                                ANT # / TYPE
 -2411123.9707  5386090.4759  2412221.0353                  APPROX POSITION XYZ
        0.0000        0.0000        0.0000                  ANTENNA: DELTA H/E/N
G    8 C1C L1C D1C S1C C5Q L5Q D5Q S5Q                      SYS / # / OBS TYPES
R    4 C1C L1C D1C S1C                                      SYS / # / OBS TYPES
E   12 C1B L1B D1B S1B C1C L1C D1C S1C C5Q L5Q D5Q S5Q      SYS / # / OBS TYPES
C    4 C2I L2I D2I S2I                                      SYS / # / OBS TYPES
J    8 C1C L1C D1C S1C C5Q L5Q D5Q S5Q                      SYS / # / OBS TYPES
  2021     9    30    12     0    0.9989274     GPS         TIME OF FIRST OBS
 24 R01  1 R02 -4 R03  5 R04  6 R05  1 R06 -4 R07  5 R08  6 GLONASS SLOT / FRQ #
    R09 -2 R10 -5 R11  0 R12 -1 R13 -2 R14 -7 R15  0 R16 -1 GLONASS SLOT / FRQ #
    R17  4 R18 -3 R19  3 R20  2 R21  4 R22 -3 R23  3 R24  2 GLONASS SLOT / FRQ #
G L1C                                                       SYS / PHASE SHIFT
G L5Q -0.25000                                              SYS / PHASE SHIFT
R L1C                                                       SYS / PHASE SHIFT
E L1B                                                       SYS / PHASE SHIFT
E L1C +0.50000                                              SYS / PHASE SHIFT
E L5Q -0.25000                                              SYS / PHASE SHIFT
C L2I                                                       SYS / PHASE SHIFT
J L1C                                                       SYS / PHASE SHIFT
J L5Q -0.25000                                              SYS / PHASE SHIFT
 C1C    0.000 C1P    0.000 C2C    0.000 C2P    0.000        GLONASS COD/PHS/BIS
                                                            END OF HEADER
> 2021  9 30 12  0  0.9989274  0 15
C07  36329557.271   189177504.199        -151.292          24.000  
C10  37074000.703   193054016.119         -72.556          32.000  
C16  36681687.196   191011128.966         -78.181          26.000  
C22  22166716.402   115427950.9631       -787.787          18.000  
E07  24067562.173   126475914.2961        742.480          27.000  
E08  22070888.642   115983285.358       -1717.488          32.000  
E30  22865653.138   120159833.486       -1850.135          33.000  
G16  21871183.994   114933855.9511       2082.382          17.000  
G22  23017265.978   120956622.2981       -261.790          21.000  
G29  23724512.062   124673083.6701      -1228.274          18.000  
G32  21111113.280   110939659.778       -2006.185          21.000  
J01  36252046.830   190505821.5361       -123.119          20.000  
J02  39266795.763   206348402.135       -1443.533          36.000  
R04  20461864.746   109572355.7311      -3736.439          25.000  
R05  19238283.713   102839651.6731        163.051          24.000  
> 2021  9 30 12  0  1.9989271  0 12
C07  36329495.514   189177186.716        -149.825          24.000  
C10  37073923.057   193053620.797         -73.198          32.000  
C16  36681614.047   191010738.373         -77.558          27.000  
E08  22071125.478   115984530.103       -1717.821          32.000  
E30  22865914.557   120161211.343       -1853.051          33.000  
G16  21870698.331   114931301.353        2080.402          16.000  
G26  20116273.594   105711742.3761       -454.814          24.000  
G31  21476823.804   112861501.2621      -1399.406          21.000  
J01  36251979.976   190505471.230        -123.113          24.000  
J02  39266981.634   206349372.130       -1442.064          36.000  
R04  20462470.327   109575598.704       -3737.164          26.000  
R05  19238164.096   102839012.310         161.373          26.000  
> 2021  9 30 12  0  2.9989266  0 13
C07  36329371.699   189176555.832        -149.286          25.000  
C10  37073786.052   193052913.462         -72.856          30.000  
C16  36681479.440   191010035.142         -77.255          26.000  
E08  22071301.156   115985460.222       -1715.721          31.000  
E30  22866113.619   120162274.380       -1850.096          30.000  
G16  21870155.107   114928434.431        2078.291          26.000  
G22  23017117.281   120955886.2221       -262.567          22.000  
G26  20116209.138   105711409.890        -455.784          23.000  
G31  21476941.023   112862112.153       -1398.182          21.000  
J01  36251852.864   190504807.756        -126.006          17.000  
J02  39267105.748   206350027.022       -1442.820          37.000  
R04  20463016.249   109578522.562       -3738.143          29.000  
R05  19237984.221   102838050.945         160.330          26.000  
> 2021  9 30 12  0  3.9989261  0 12
C07  36329246.986   189175924.042        -148.824          26.000  
C10  37073649.347   193052206.422         -74.015          29.000  
C16  36681343.634   191009331.831         -77.493          27.000  
E08  22071479.832   115986391.131       -1719.711          31.000  
E30  22866315.679   120163335.498       -1848.660          26.000  
G16  21869614.881   114925570.390        2075.207          29.000  
G26  20116145.582   105711077.999        -456.140          22.000  
G31  21477056.143   112862721.678       -1397.249          20.000  
J01  36251727.251   190504147.000        -127.211          23.000  
J02  39267232.860   206350682.035       -1443.716          37.000  
R04  20463558.873   109581428.155       -3738.676          29.000  
R05  19237803.746   102837085.769         160.686          28.000  
> 2021  9 30 12  0  4.9989256  0  7
C07  36329124.371   189175292.548        -149.200          27.000  
C10  37073515.939   193051499.638         -72.978          29.000  
C16  36681207.528   191008628.205         -76.930          26.000  
E08  22071654.911   115987322.438       -1721.810          32.000  
G16  21869071.057   114922707.429        2075.470          27.000  
J02  39267354.276   206351336.936       -1441.896          37.000  
R04  20464105.095   109584353.544       -3739.548          29.000  
> 2021  9 30 12  0  5.9989253  0 11
C07  36329065.311   189174974.489        -150.366          29.000  
C10  37073441.291   193051104.654         -75.013          28.000  
C16  36681132.580   191008236.440         -77.051          26.000  
E08  22071889.949   115988569.291       -1718.955          27.000  
G16  21868587.192   114920159.455        2075.488          30.000  
G26  20116080.827   105710728.1851       -454.727          26.000  
G31  21477345.743   112864253.8381      -1396.129          24.000  
G32  21112401.189   110946390.0471      -2009.455          28.000  
J01  36251535.084   190503138.4281       -124.445          28.000  
J02  39267544.944   206352307.106       -1442.733          35.000  
R05  19237495.559   102835438.4221        157.732          25.000  
> 2021  9 30 12  0  6.9989248  0 10
C07  36328943.596   189174343.507        -148.844          26.000  
C10  37073306.384   193050399.385         -74.907          23.000  
C16  36680996.475   191007533.604         -78.026          25.000  
G16  21868044.568   114917295.332        2076.640          22.000  
G26  20116017.871   105710396.243        -456.431          26.000  
G32  21112635.327   110947611.733       -2008.841          28.000  
J01  36251407.073   190502474.616        -123.279          32.000  
J02  39267663.662   206352962.838       -1443.093          30.000  
R04  20465259.596   109590535.3611      -3741.606          26.000  
R05  19237313.285   102834464.290         156.220          26.000  
> 2021  9 30 12  0  7.9989243  0 10
C07  36328823.079   189173712.185        -148.834          27.000  
C10  37073169.379   193049693.322         -73.877          30.000  
C16  36680859.170   191006832.060         -78.974          22.000  
G16  21867500.145   114914431.465        2074.959          22.000  
G26  20115952.516   105710065.442        -457.076          25.000  
G32  21112867.066   110948831.316       -2006.699          25.000  
J01  36251279.961   190501810.242        -123.519          29.000  
J02  39267793.772   206353618.791       -1443.742          34.000  
R04  20465806.117   109593462.161       -3741.708          33.000  
R05  19237131.311   102833491.456         158.493          29.000  
> 2021  9 30 12  0  8.9989238  0 11
C07  36328701.363   189173081.727        -150.208          25.000  
C10  37073033.273   193048986.665         -73.280          31.000  
C16  36680726.362   191006129.837         -79.413          21.000  
C22  22166863.899   115428645.8761       -789.917          19.000  
G16  21866957.520   114911567.859        2076.415          26.000  
G31  21477697.399   112866072.4141      -1396.857          18.000  
G32  21113097.906   110950050.997       -2008.417          33.000  
J01  36251152.549   190501146.317        -124.207          30.000  
J02  39267910.092   206354274.106       -1445.971          31.000  
R04  20466352.939   109596390.425       -3742.618          32.000  
R05  19236957.431   102832561.790         157.483          27.000  
> 2021  9 30 12  0  9.9989233  0  7
C07  36328581.147   189172452.208        -151.453          29.000  
C16  36680590.556   191005428.262         -78.156          19.000  
G31  21477815.518   112866681.524       -1397.823          19.000  
G32  21113329.046   110951272.287       -2009.993          37.000  
J02  39268036.604   206354929.794       -1443.619          28.000  
R04  20466897.961   109599308.595       -3743.370          31.000  
R05  19236770.061   102831560.515         156.857          26.000  
> 2021  9 30 12  0 10.9989230  0  8
C07  36328521.188   189172135.637        -151.914          30.000  
C10  37072819.821   193047889.0151        -76.415          20.000  
C16  36680517.106   191005037.943         -77.732          25.000  
G26  20115827.203   105709390.9451       -457.808          22.000  
G32  21113620.445   110952810.030       -2010.184          34.000  
J01  36250961.282   190500133.8971       -124.662          25.000  
J02  39268221.876   206355900.165       -1443.780          28.000  
R04  20467505.940   109602564.398       -3744.042          28.000  
> 2021  9 30 12  0 11.9989225  0  9
C07  36328402.171   189171507.118        -150.490          26.000  
C10  37072683.415   193047185.349         -77.534          27.000  
C16  36680383.099   191004336.151         -80.816          23.000  
G16  21865380.612   114903301.2641       2068.539          25.000  
G32  21113850.386   110954032.337       -2009.971          35.000  
J01  36250835.968   190499471.648        -126.597          27.000  
J02  39268342.992   206356557.071       -1445.010          29.000  
R04  20468052.462   109605490.971       -3745.142          26.000  
R05  19236466.371   102829936.8621        153.103          26.000  
> 2021  9 30 12  0 12.9989220  0 10
C07  36328278.056   189170876.631        -149.009          23.000  
C10  37072549.708   193046481.792         -76.827          22.000  
C16  36680249.092   191003635.842         -80.864          19.000  
G16  21864836.189   114900444.484        2070.116          23.000  
G26  20115707.885   105708733.9311       -460.630          25.000  
G31  21478231.630   112868826.4731      -1396.853          20.000  
J01  36250710.056   190498810.221        -125.835          31.000  
J02  39268462.309   206357213.057       -1442.594          24.000  
R04  20468605.879   109608454.481       -3745.567          27.000  
R05  19236287.096   102828978.892         149.396          25.000  
> 2021  9 30 12  0 13.9989217  0  9
C07  36328216.899   189170557.686        -149.755          23.000  
C10  37072473.261   193046089.537         -75.398          24.000  
C16  36680176.542   191003248.382         -80.291          21.000  
G16  21864352.024   114897901.197        2071.189          27.000  
G31  21478409.706   112869751.010       -1397.197          21.000  
G32  21114378.620   110956794.2981      -2012.549          32.000  
J01  36250643.802   190498464.277        -126.773          28.000  
R04  20469217.456   109611729.511       -3746.248          27.000  
R05  19236169.577   102828350.541         149.390          26.000  
> 2021  9 30 12  0 14.9989212  0 11
C07  36328097.581   189169927.582        -150.667          24.000  
C10  37072340.153   193045383.719         -74.216          26.000  
C16  36680039.537   191002547.971         -80.687          24.000  
G16  21863807.301   114895042.511        2069.044          24.000  
G26  20115653.623   105708400.9881       -466.513          15.000  
G31  21478528.424   112870359.852       -1397.360          21.000  
G32  21114610.060                       -2012.970          35.000  
J01  36250517.289   190497803.035        -126.470          32.000  
J02  39268774.393   206358837.8971      -1441.836          23.000  
R04  20469766.975   109614672.131       -3746.938          31.000  
R05  19235996.297   102827424.108         150.500          23.000  
> 2021  9 30 12  0 15.9989207  0 10
C07  36327977.365   189169298.751        -152.399          26.000  
C10  37072204.947   193044679.163         -78.303          27.000  
C16  36679907.029   191001847.558         -79.721          24.000  
G16  21863263.777   114892186.620        2067.564          26.000  
G22  23016037.729   120950064.1891       -272.517          22.000  
G32  21114843.298   110959250.3561      -2020.094          35.000  
J01  36250390.777   190497141.705        -126.296          32.000  
J02  39268897.308   206359492.819       -1443.570          22.000  
R04  20470313.497   109617598.672       -3747.967          29.000  
R05  19235809.526   102826425.908         147.833          19.000  
> 2021  9 30 12  0 16.9989202  0  9
C07  36327856.548   189168670.956        -153.225          22.000  
C10  37072073.937   193043979.021         -80.089          22.000  
G16  21862722.352   114889329.945        2070.121          25.000  
G22  23015938.797   120949549.113        -272.708          27.000  
G31  21478765.260   112871580.4481      -1399.383          23.000  
G32  21115074.138   110960477.196       -2012.019          27.000  
J01  36250267.262   190496480.460        -127.203          30.000  
J02  39269025.020   206360149.627       -1443.963          23.000  
R04  20470863.016   109620541.018       -3748.633          29.000  
> 2021  9 30 12  0 17.9989197  0 11
C07  36327738.430   189168043.235        -152.279          27.000  
C10  37071939.330   193043278.250         -79.060          25.000  
C16  36679637.815   191000443.4831        -78.301          24.000  
G22  23015838.966   120949034.936        -274.723          33.000  
G26  20115461.756   105707429.0401       -460.484          26.000  
G31  21478882.779   112872191.441       -1398.655          23.000  
G32  21115308.576   110961701.994       -2014.058          30.000  
J01  36250140.750   190495818.818        -129.237          32.000  
J02  39269149.434   206360805.382       -1442.764          26.000  
R04  20471414.035   109623492.543       -3750.310          33.000  
R05  19235468.063   102824599.9121        146.960          28.000  
> 2021  9 30 12  0 18.9989192  0  9
C07  36327621.211   189167414.818        -152.361          24.000  
C10  37071808.921   193042577.061         -78.858          23.000  
G16  21861637.703   114883613.3801       2069.963          32.000  
G22  23015737.337   120948521.400        -273.354          34.000  
G26  20115396.401   105707102.375        -462.327          27.000  
G31  21478998.499   112872801.066       -1397.320          24.000  
J01  36250012.738   190495159.017        -128.329          23.000  
R04  20471969.251   109626465.155       -3750.152          32.000  
R05  19235288.187   102823638.556         146.279          31.000  
> 2021  9 30 12  0 19.9989189  0 12
C07  36327560.053   189167098.792        -152.967          24.000  
C16  36679432.158   190999351.6281        -77.912          21.000  
E07  24062343.686   126448478.3541        736.122          33.000  
E08  22074557.502   116002605.7201      -1726.831          33.000  
G16  21861155.937   114881071.842        2068.319          31.000  
G22  23015701.961                        -275.929          32.000  
G26  20115392.504   105707092.511        -463.260          26.000  
G31  21479175.077   112873726.592       -1399.176          23.000  
G32  21115835.311   110964471.3591      -2015.062          32.000  
J01  36249945.585   190494814.271        -127.544          28.000  
R04  20472581.427   109629743.633       -3750.133          34.000  
R05  19235168.270   102822997.337         146.265          30.000  
> 2021  9 30 12  0 20.9989187  0 12
C07  36327529.774   189166939.750        -155.014          20.000  
C10  37071690.203   193041954.7851        -78.576          16.000  
E07  24062144.024   126447427.469         736.589          28.000  
E08  22074824.917   116004016.806       -1728.386          29.000  
G16  21860702.051   114878687.960        2069.096          30.000  
G22  23015691.169   120948290.7021       -275.970          32.000  
G26  20115419.785   105707240.910        -464.165          19.000  
G32  21116158.188   110966170.929       -2015.450          30.000  
J01  36249909.010   190494627.044        -127.655          29.000  
J02  39269674.070   206363557.7131      -1442.923          29.000  
R04  20473219.685   109633160.871       -3751.154          34.000  
R05  19235081.030   102822531.596         146.347          30.000  
> 2021  9 30 12  0 21.9989181  0  9
C10  37071526.516   193041098.447         -82.004          17.000  
C16  36679220.504   190998258.0921        -78.446          20.000  
G16  21860127.349   114875673.324        2069.537          30.000  
G22  23015561.658   120947621.186        -275.783          27.000  
G26  20115328.648   105706760.699        -466.680          23.000  
G32  21116361.747   110967242.735       -2018.749          28.000  
J02  39269768.205   206364055.619       -1443.387          22.000  
R04  20473740.724   109635951.319       -3754.278          32.000  
R05  19234875.972   102821435.224         145.084          28.000  
> 2021  9 30 12  0 22.9989176  0 10
C04  38367523.316   199789762.0911       -695.679          27.000  
C07  36327261.160   189165534.8531       -158.163          19.000  
C16  36679086.797   190997557.220         -82.025          19.000  
G16  21859585.324   114872816.714        2067.623          25.000  
G22  23015463.626   120947110.768        -278.236          23.000  
G26  20115265.392   105706440.194        -467.581          24.000  
J01  36249626.606   190493151.4791       -128.902          24.000  
J02  39269892.619   206364712.019       -1444.445          27.000  
R04  20474293.841   109638913.021       -3756.038          27.000  
R05  19234702.692   102820509.279         143.494          24.000  
> 2021  9 30 12  0 23.9989171  0  7
G16  21859043.899   114869961.845        2066.391          27.000  
G22  23015364.994   120946601.944        -278.016          27.000  
G26  20115201.536   105706119.308        -466.784          25.000  
J01  36249500.993   190492493.575        -130.288          28.000  
J02  39270017.333   206365368.080       -1443.261          26.000  
R04  20474844.260   109641860.672       -3753.061          31.000  
R05  19234531.211   102819591.749         142.126          26.000  
> 2021  9 30 12  0 24.9989166  0  7
C07  36327025.524   189164293.6901       -157.941          17.000  
C10  37071118.798   193038996.5571        -78.107          15.000  
G16  21858500.975   114867107.837        2065.751          30.000  
G22  23015267.562   120946093.138        -279.513          27.000  
G26  20115138.280   105705798.845        -467.426          26.000  
G31  21479810.936   112877106.9511      -1400.162          19.000  
R04  20475397.377   109644822.858       -3752.045          26.000  
> 2021  9 30 12  0 25.9989161  0  8
C16  36678684.775   190995473.3361        -87.434          17.000  
G16  21857957.451   114864254.388        2065.663          28.000  
G22  23015171.628   120945585.148        -281.550          26.000  
G31  21479924.857   112877720.024       -1400.487          20.000  
G32  21117302.795   110972176.7031      -2022.080          30.000  
J01  36249250.966   190491177.8151       -131.118          22.000  
R04  20475946.897   109647765.003       -3755.675          24.000  
R05  19234185.251   102817742.5761        143.011          26.000  
> 2021  9 30 12  0 26.9989156  0  7
C16  36678553.166   190994780.366         -87.088          15.000  
G16  21857414.527   114861401.474        2064.489          22.000  
G22  23015075.095   120945078.982        -282.416          26.000  
G26  20115016.864   105705158.6651       -469.153          25.000  
J01  36249124.753   190490521.519        -131.039          24.000  
R04  20476498.215   109650717.270       -3757.846          26.000  
R05  19234009.272   102816801.735         140.963          30.000  
> 2021  9 30 12  0 27.9989153  0  7
C07  36326728.129   189162736.5891       -159.225          18.000  
G16  21856931.561   114858864.969        2064.400          23.000  
G22  23015038.820   120944888.402        -281.095          26.000  
G26  20115011.767   105705155.149        -469.972          23.000  
G32  21117834.627   110974962.0631      -2024.049          30.000  
J01  36249059.698   190490178.972        -129.543          22.000  
R04  20477114.888   109654019.864       -3757.422          24.000  
> 2021  9 30 12  0 28.9989151  0  7
C07  36326699.349   189162584.546        -158.535          17.000  
G16  21856479.174   114856486.362        2063.245          28.000  
G26  20115041.147   105705308.224        -467.025          22.000  
G32  21118160.202   110976671.763       -2024.909          29.000  
J01  36249028.220   190489993.451        -130.411          20.000  
R04  20477770.534   109657531.135       -3760.346          25.000  
R05  19233806.313   102815717.2011        137.491          24.000  
> 2021  9 30 12  0 29.9989146  0  9
C16  36678295.944   190993471.9311        -80.717          19.000  
G16  21855937.449   114853635.726        2062.413          25.000  
G22  23014929.396   120944343.0161       -277.607          22.000  
G26  20114981.488   105704987.922        -467.880          23.000  
G31  21480529.239   112880967.9361      -1407.117          19.000  
G32  21118398.537   110977908.899       -2024.097          31.000  
J02  39270936.496   206370110.7011      -1447.629          18.000  
R04  20478325.150   109660500.668       -3759.447          24.000  
R05  19233629.136   102814769.584         135.560          26.000  
> 2021  9 30 12  0 30.9989140  0  8
C16  36678129.559   190992615.686         -79.990          24.000  
G16  21855365.745   114850627.259        2063.641          24.000  
G22  23014802.584   120943676.125        -279.316          22.000  
G26  20114887.653   105704510.774        -468.504          22.000  
G32  21118604.494   110978988.248       -2024.521          27.000  
J02  39271030.032   206370611.152       -1445.501          19.000  
R04  20478863.878   109663385.560       -3757.705          22.000  
R05  19233419.581   102813650.240         136.076          27.000  
> 2021  9 30 12  0 31.9989135  0  8
C16  36677993.154   190991916.072         -82.248          21.000  
G16  21854824.320   114847775.539        2063.097          22.000  
G22  23014707.250   120943170.706        -281.751          19.000  
G31  21480728.601   112882045.7971      -1401.543          18.000  
G32  21118840.731   110980224.997       -2024.883          31.000  
J02  39271150.548   206371267.922       -1443.739          24.000  
R04  20479421.192   109666370.337       -3757.313          22.000  
R05  19233243.603   102812708.824         135.110          28.000  
> 2021  9 30 12  0 32.9989130  0  7
G16  21854278.997   114844927.413        2058.877          22.000  
G22  23014605.620   120942663.514        -280.554          21.000  
G26  20114770.434   105703876.4031       -472.879          22.000  
G31  21480844.921   112882658.546       -1399.051          19.000  
G32  21119076.068   110981462.001       -2024.718          27.000  
J02  39271273.463   206371924.668       -1444.561          22.000  
R05  19233064.926   102811754.377         135.157          28.000  
> 2021  9 30 12  0 33.9989125  0  7
G16  21853735.774   114842080.582        2058.828          29.000  
G22  23014506.689   120942156.900        -281.537          21.000  
G26  20114710.775   105703561.802        -473.691          26.000  
G32  21119310.506   110982700.057       -2026.886          29.000  
J02  39271399.676   206372581.588       -1445.739          20.000  
R04  20480519.931   109672253.3851      -3758.759          27.000  
R05  19232889.847   102810818.269         132.594          27.000  
> 2021  9 30 12  0 34.9989120  0  7
G16  21853193.449   114839234.428        2057.989          26.000  
G22  23014407.157   120941650.389        -281.260          22.000  
G26  20114652.316   105703248.629        -475.285          26.000  
G31  21481073.962   112883876.1381      -1396.704          27.000  
G32  21119545.843   110983939.630       -2027.581          35.000  
R04  20481075.746   109675229.723       -3760.360          22.000  
R05  19232713.869   102809877.893         130.393          26.000  
> 2021  9 30 12  0 35.9989117  0  5
G16  21852712.282   114836704.173        2056.934          25.000  
G26  20114654.115   105703251.305        -475.767          28.000  
G31  21481246.043   112884799.811       -1396.204          30.000  
G32  21119840.539   110985494.706       -2028.364          33.000  
R05  19232598.449   102809260.599         132.881          27.000  
> 2021  9 30 12  0 36.9989115  0  7
G16  21852258.396   114834331.827        2057.147          25.000  
G22  23014362.788   120941425.3061       -282.494          21.000  
G26  20114684.394   105703410.959        -474.097          29.000  
G31  21481447.803   112885881.080       -1397.030          26.000  
G32  21120168.212                       -2025.926          33.000  
R04  20482326.480   109681928.1181      -3764.117          26.000  
R05  19232509.711   102808786.594         131.901          28.000  
> 2021  9 30 12  0 37.9989110  0  7
G16  21851716.072   114831486.781        2056.936          22.000  
G22  23014259.660   120940919.753        -281.514          21.000  
G26  20114625.335   105703097.786        -474.885          26.000  
G31  21481560.525   112886491.118       -1398.309          21.000  
G32  21120405.348   110988472.2921      -2027.575          33.000  
R04  20482873.602   109684857.761       -3765.980          25.000  
R05  19232335.231   102807853.166         131.932          28.000  
> 2021  9 30 12  0 38.9989105  0  7
G16  21851174.347   114828641.952        2057.902          23.000  
G22  23014162.527   120940415.032        -284.149          24.000  
G26  20114564.777   105702785.369        -475.351          25.000  
G31  21481675.945   112887102.042       -1400.232          20.000  
G32  21120639.785   110989712.084       -2027.580          31.000  
R04  20483426.119   109687816.428       -3766.117          26.000  
R05  19232157.754   102806904.864         130.650          30.000  
> 2021  9 30 12  0 39.9989100  0  6
G16  21850632.322   114825794.622        2059.370          23.000  
G26  20114504.518   105702473.158        -475.922          23.000  
G31  21481793.764   112887714.656       -1400.737          25.000  
G32  21120874.523   110990950.736       -2026.243          31.000  
R04  20483975.339   109690756.844       -3766.468          23.000  
R05  19231984.774   102805980.435         130.186          31.000  
> 2021  9 30 12  0 40.9989094  0  6
G16  21850060.018   114822791.130        2058.074          22.000  
G26  20114419.077   105702004.325        -477.884          22.000  
G31  21481881.303   112888171.087       -1402.159          25.000  
G32  21121079.881   110992032.760       -2028.408          32.000  
R04  20484495.479   109693542.489       -3767.556          27.000  
R05  19231778.517   102804877.165         128.325          26.000  
> 2021  9 30 12  0 41.9989089  0  5
G16  21849517.094   114819946.289        2055.806          25.000  
G22  23013851.342   120938751.6001       -287.238          21.000  
G31  21481994.625   112888785.394       -1402.322          22.000  
R04  20485046.497   109696493.640       -3767.752          27.000  
R05  19231604.937   102803949.954         130.042          25.000  
> 2021  9 30 12  0 42.9989084  0  3
G32  21121554.452   110994516.7011      -2030.490          32.000  
R04  20485595.717   109699433.936       -3768.282          25.000  
R05  19231432.856   102803029.215         127.108          27.000  
> 2021  9 30 12  0 43.9989082  0  5
G16  21848523.282   114814730.6961       2056.652          20.000  
G22  23013741.918   120938221.6431       -286.003          21.000  
G32  21121881.825   110996230.070       -2029.183          31.000  
R04  20486241.770   109702893.617       -3769.738          27.000  
R05  19231347.415   102802572.924         124.581          28.000  
> 2021  9 30 12  0 44.9989076  0  6
G16  21847951.578   114811727.984        2057.922          22.000  
G22  23013614.806   120937563.899        -288.623          24.000  
G26  20114243.999   105701082.2051       -479.687          21.000  
G32  21122088.083   110997313.950       -2029.333          30.000  
R04  20486766.107   109705701.882       -3769.798          28.000  
R05  19231138.760   102801457.521         125.410          26.000  
> 2021  9 30 12  0 45.9989071  0  6
G16  21847409.253   114808883.654        2055.123          21.000  
G22  23013515.275   120937065.019        -290.348          22.000  
G26  20114184.940   105700774.533        -480.907          20.000  
G32  21122323.720   110998556.390       -2031.092          30.000  
R04  20487317.125   109708651.966       -3770.314          27.000  
R05  19230962.182   102800513.364         126.414          29.000  
> 2021  9 30 12  0 46.9989069  0  6
G16  21846960.164   114806512.287        2055.689          22.000  
G22  23013509.579   120937040.227        -288.997          20.000  
G26  20114216.418   105700939.180        -478.924          18.000  
G32  21122648.095   111000273.422       -2032.749          30.000  
R04  20487966.476   109712129.919       -3770.370          26.000  
R05  19230880.339   102800076.411         124.576          28.000  
> 2021  9 30 12  0 47.9989064  0  4
G16  21846420.238   114803669.425        2054.969          21.000  
G22  23013412.746   120936540.785        -287.594          18.000  
R04  20488523.490   109715112.612       -3767.921          20.000  
R05  19230705.859   102799143.804         122.618          29.000  
> 2021  9 30 12  0 48.9989059  0  5
G16  21845880.612   114800828.579        2051.029          22.000  
G22  23013316.512   120936040.130        -286.897          21.000  
G31  21482968.051   112893857.4081      -1399.928          18.000  
R04  20489078.406   109718083.920       -3767.528          23.000  
R05  19230537.976   102798246.045         120.391          28.000  
> 2021  9 30 12  0 49.9989053  0  5
G26  20114012.259   105699861.8661       -484.115          19.000  
G31  21483056.489   112894312.018       -1400.047          18.000  
G32  21123331.322   111003854.9771      -2034.658          33.000  
R04  20489603.043   109720893.335       -3771.362          24.000  
R05  19230339.213   102797183.459         118.206          27.000  
> 2021  9 30 12  0 50.9989048  0  4
G16  21844770.480   114794992.2761       2051.562          18.000  
G26  20113956.198   105699557.699        -481.559          19.000  
G32  21123569.657   111005102.263       -2036.232          33.000  
R04  20490156.460   109723857.032       -3774.320          26.000  
> 2021  9 30 12  0 51.9989046  0  6
G16  21844319.592   114792625.585        2052.971          20.000  
G22  23013085.672   120934581.0681       -287.971          21.000  
G26  20113988.276   105699723.680        -481.262          20.000  
G31  21483380.865   112896013.4381      -1402.561          18.000  
G32  21123895.531   111006822.507       -2035.633          32.000  
R04  20490800.114   109727303.391       -3774.716          27.000  
> 2021  9 30 12  0 52.9989041  0  3
G26  20113930.416   105699417.618        -481.896          21.000  
G32  21124131.768   111008070.062       -2032.987          31.000  
R04  20491352.932   109730263.712       -3773.742          28.000  
> 2021  9 30 12  0 53.9989036  0  3
G22  23012894.105   120933584.0511       -290.776          24.000  
G26  20113874.355   105699114.093        -486.606          22.000  
R04  20491904.250   109733216.735       -3773.782          27.000  
> 2021  9 30 12  0 54.9989033  0  4
G16  21842754.076   114784412.2641       2054.938          18.000  
G22  23012859.029   120933402.044        -290.406          25.000  
G26  20113879.451   105699128.134        -487.960          24.000  
R04  20492515.826   109736491.187       -3775.801          27.000  
> 2021  9 30 12  0 55.9989028  0  4
G22  23012766.693   120932906.676        -291.894          24.000  
G26  20113822.490   105698830.090        -491.366          21.000  
G32  21124904.933   111012130.9871      -2036.600          31.000  
R04  20493068.944   109739453.056       -3774.743          29.000  
> 2021  9 30 12  0 56.9989023  0  4
G22  23012673.458   120932410.594        -291.256          24.000  
G26  20113765.230   105698533.401        -489.561          21.000  
G32  21125143.268   111013379.860       -2036.068          30.000  
R04  20493628.656   109742450.212       -3776.181          27.000  
> 2021  9 30 12  0 57.9989018  0  5
E07  24051912.707   126393692.1571        725.959          25.000  
G16  21841136.396   114775894.2771       2049.868          17.000  
G26  20113709.768   105698235.163        -489.840          20.000  
G32  21125381.603   111014628.318       -2036.596          30.000  
R04  20494179.974   109745402.594       -3778.055          29.000  
> 2021  9 30 12  0 58.9989012  0  2
G22  23012458.806   120931263.5011       -294.587          23.000  
G32  21125589.359   111015719.592       -2037.034          32.000  
> 2021  9 30 12  0 59.9989010  0  2
G22  23012458.806   120931243.945        -295.531          22.000  
G32  21125914.634   111017442.001       -2038.535          34.000  
> 2021  9 30 12  1  0.9989005  0  4
G22  23012363.772   120930751.938        -295.204          22.000  
G26  20113601.543   105697647.1061       -484.960          20.000  
G31  21484556.651   112902137.6511      -1393.286          17.000  
G32  21126153.568   111018693.323       -2039.673          35.000  
> 2021  9 30 12  1  1.9989000  0  1
G32  21126391.004   111019944.172       -2037.427          33.000  
> 2021  9 30 12  1  2.9988995  0  2
G22  23012169.507   120929766.7261       -294.827          24.000  
G32  21126628.739   111021192.402       -2036.810          30.000  
> 2021  9 30 12  1  3.9988992  0  3
G22  23012130.534   120929588.173        -294.722          23.000  
G26  20113482.226   105697047.0401       -487.945          20.000  
G32  21126927.932   111022757.922       -2039.786          31.000  
> 2021  9 30 12  1  4.9988987  0  1
G26  20113423.467   105696747.533        -489.236          21.000  
> 2021  9 30 12  1  5.9988982  0  4
G22  23011935.369   120928604.3421       -297.174          23.000  
G26  20113364.707   105696449.323        -490.134          21.000  
G31  21485191.012   112905512.7861      -1398.980          18.000  
G32  21127405.202   111025266.5531      -2043.605          32.000  
> 2021  9 30 12  1  6.9988977  0  4
G16  21836417.363   114750978.9201       2041.974          12.000  
G22  23011839.735   120928114.369        -298.902          26.000  
G26  20113304.149   105696153.061        -493.056          22.000  
G31  21485307.031   112906123.893       -1399.063          18.000  
> 2021  9 30 12  1  7.9988974  0  1
G22  23011808.556   120927940.874        -298.984          25.000  
> 2021  9 30 12  1  8.9988969  0  3
G22  23011714.422   120927453.159        -299.930          25.000  
G26  20113245.690   105695876.4991       -489.709          21.000  
G32  21128181.664   111029344.5691      -2042.544          31.000  
> 2021  9 30 12  1  9.9988964  0  3
G22  23011619.387   120926965.479        -301.405          24.000  
G26  20113187.830   105695578.802        -489.963          21.000  
G32  21128419.699   111030601.094       -2042.141          31.000  
> 2021  9 30 12  1 10.9988959  0  3
G22  23011527.051   120926480.219        -303.351          24.000  
G26  20113131.469   105695281.746        -490.957          21.000  
G32  21128658.934   111031855.635       -2042.505          28.000  
> 2021  9 30 12  1 11.9988954  0  1
G22  23011434.116   120925995.832        -302.445          24.000  
> 2021  9 30 12  1 12.9988951  0  4
G22  23011398.141   120925823.787        -299.378          24.000  
G26  20113079.605   105695005.2721       -494.125          21.000  
G31  21486128.163   112910433.3111      -1401.803          17.000  
G32  21129196.162   111034680.1331      -2042.963          33.000  
> 2021  9 30 12  1 13.9988946  0  2
G22  23011299.809   120925334.896        -296.750          24.000  
G26  20113022.344   105694711.717        -493.412          21.000  
> 2021  9 30 12  1 14.9988943  0  3
G22  23011263.234   120925158.854        -298.107          23.000  
G26  20113025.942   105694733.110        -492.957          20.000  
G32  21129737.287   111037507.8351      -2044.144          30.000  
> 2021  9 30 12  1 15.9988938  0  4
E07  24047023.392   126368018.5271        723.250          31.000  
G22  23011169.399   120924670.341        -299.523          26.000  
G26  20112967.482   105694438.460        -493.711          24.000  
G32  21129974.423   111038764.544       -2044.424          35.000  
> 2021  9 30 12  1 16.9988933  0  5
E07  24046735.292   126366507.459         722.673          31.000  
G22  23011075.564   120924184.281        -302.513          22.000  
G26  20112910.222   105694144.741        -494.889          22.000  
G31  21486656.098   112913200.7011      -1400.543          19.000  
G32  21130214.557   111040021.540       -2045.195          33.000  
> 2021  9 30 12  1 17.9988928  0  1
G31  21486772.417   112913812.366       -1398.711          20.000  
> 2021  9 30 12  1 18.9988923  0  1
G32  21130693.925   111042535.1611      -2045.984          33.000  
> 2021  9 30 12  1 19.9988918  0  3
G22  23010806.650   120922735.7171       -304.924          22.000  
G26  20112745.936   105693270.4731       -498.702          20.000  
G32  21130938.556   111043793.644       -2046.537          33.000  
> 2021  9 30 12  1 20.9988915  0  2
G31  21487184.931   112915971.9941      -1404.831          19.000  
G32  21131237.749   111045367.656       -2046.898          33.000  
> 2021  9 30 12  1 21.9988910  0  2
G26  20112696.770   105693012.4781       -503.249          20.000  
G32  21131476.084   111046628.241       -2048.148          34.000  
> 2021  9 30 12  1 22.9988908  0  3
G26  20112735.743   105693200.335        -501.065          17.000  
G31  21487515.003   112917681.7591      -1408.649          18.000  
G32  21131804.956   111048361.214       -2048.347          31.000  
> 2021  9 30 12  1 23.9988902  0  3
G22  23010568.915   120921434.8121       -303.264          24.000  
G26  20112653.300   105692755.307        -501.108          19.000  
G32  21132016.609   111049464.401       -2049.159          35.000  
> 2021  9 30 12  1 24.9988897  0  4
G22  23010474.180   120920951.403        -305.368          22.000  
G26  20112598.738   105692467.398        -499.094          19.000  
G31  21487712.866   112918761.0321      -1405.231          18.000  
G32  21132254.944                       -2056.151          35.000  
> 2021  9 30 12  1 25.9988892  0  2
G22  23010380.945   120920468.956        -305.038          24.000  
G32  21132496.277   111052014.5051      -2052.516          33.000  
> 2021  9 30 12  1 26.9988887  0  2
G22  23010290.108   120919986.527        -306.243          23.000  
G32  21132737.610   111053278.919       -2051.296          32.000  
> 2021  9 30 12  1 27.9988882  0  4
G22  23010195.973   120919506.193        -308.503          24.000  
G26  20112434.751   105691601.3601       -500.998          19.000  
G31  21488057.927   112920599.8931      -1397.290          17.000  
G32  21132975.945   111054540.968       -2048.949          34.000  
> 2021  9 30 12  1 28.9988877  0  1
G32  21133213.681   111055803.123       -2050.511          28.000  
> 2021  9 30 12  1 29.9988874  0  2
G26  20112383.786   105691345.5191       -503.789          20.000  
G32  21133512.873   111057381.714       -2052.083          35.000  
> 2021  9 30 12  1 30.9988872  0  2
G22  23010060.467   120918853.1941       -305.954          23.000  
G32  21133840.846   111059118.958       -2052.020          33.000  
> 2021  9 30 12  1 31.9988867  0  3
G22  23009966.632   120918372.696        -308.023          22.000  
G31  21488663.208   112923826.7051      -1402.718          17.000  
G32  21134080.680   111060383.302       -2052.594          31.000  
> 2021  9 30 12  1 32.9988861  0  2
G22  23009848.513   120917737.008        -310.453          23.000  
G26  20112271.364   105690806.5331       -504.564          21.000  
> 2021  9 30 12  1 33.9988856  0  4
G22  23009755.578   120917259.869        -311.518          22.000  
G26  20112218.301   105690524.570        -506.560          21.000  
G31  21488864.669   112924902.2231      -1402.331          17.000  
G32  21134532.168   111062755.8611      -2053.787          31.000  
> 2021  9 30 12  1 34.9988851  0  2
G22  23009662.642   120916785.096        -313.534          25.000  
G31  21488981.887   112925516.402       -1401.322          17.000  
> 2021  9 30 12  1 35.9988846  0  3
G22  23009572.704   120916311.217        -313.870          25.000  
G26  20112115.772   105689961.7441       -505.817          24.000  
G31  21489097.008   112926130.400       -1402.841          17.000  
> 2021  9 30 12  1 36.9988841  0  3
G22  23009482.167   120915838.281        -316.060          25.000  
G26  20112063.908   105689680.693        -506.713          24.000  
G31  21489211.828   112926745.406       -1402.580          18.000  
> 2021  9 30 12  1 37.9988838  0  4
G22  23009450.389   120915681.338        -316.322          22.000  
G26  20112068.405   105689713.775        -505.580          24.000  
G31  21489386.907   112927674.741       -1401.221          23.000  
G32  21135554.160   111068132.9741      -2052.895          34.000  
> 2021  9 30 12  1 38.9988836  0  3
G26  20112102.581   105689904.649        -505.931          29.000  
G31  21489591.965   112928761.272       -1401.418          23.000  
G32  21135883.932   111069872.039       -2055.195          27.000  
> 2021  9 30 12  1 39.9988831  0  2
G22  23009364.349   120915213.3241       -318.291          22.000  
G32  21136124.366   111071140.032       -2056.389          31.000  
> 2021  9 30 12  1 40.9988826  0  3
G22  23009271.713   120914742.484        -314.755          25.000  
G26  20111991.058   105689341.6161       -505.946          30.000  
G32  21136366.598   111072408.575       -2056.665          29.000  
> 2021  9 30 12  1 41.9988820  0  3
G22  23009147.599   120914110.679        -313.661          26.000  
G26  20111906.817   105688902.877        -506.842          29.000  
G31  21489902.550   112930441.7471      -1400.425          27.000  
> 2021  9 30 12  1 42.9988815  0  3
G22  23009057.061   120913636.389        -313.648          26.000  
G26  20111851.955   105688622.578        -507.829          29.000  
G31  21490014.373   112930786.832       -1400.872          23.000  
> 2021  9 30 12  1 43.9988810  0  4
G22  23008965.625   120913162.817        -315.282          22.000  
G26  20111796.493   105688343.378        -508.381          28.000  
G31  21490129.793   112931400.020       -1402.791          23.000  
G32  21137062.416   111076057.0441      -2054.809          32.000  
> 2021  9 30 12  1 44.9988805  0  3
G22  23008876.586   120912690.697        -316.780          24.000  
G26  20111742.231   105688064.400        -509.537          26.000  
G32  21137303.150   111077326.217       -2058.045          31.000  
> 2021  9 30 12  1 45.9988803  0  2
G22  23008874.787   120912692.552        -316.495          24.000  
G26  20111780.604   105688259.282        -509.577          27.000  
> 2021  9 30 12  1 46.9988800  0  3
G22  23008843.309   120912535.658        -315.348          23.000  
G26  20111786.300   105688296.344        -509.247          30.000  
G32  21137941.108   111080655.2041      -2059.029          31.000  
> 2021  9 30 12  1 47.9988795  0  3
G22  23008753.971   120912062.759        -313.602          22.000  
G26  20111732.937   105688018.137        -510.178          32.000  
G32  21138184.539   111081926.328       -2058.405          32.000  
> 2021  9 30 12  1 48.9988790  0  2
G26  20111679.574   105687740.772        -510.872          27.000  
G32  21138426.772   111083197.022       -2058.962          30.000  
> 2021  9 30 12  1 49.9988785  0  2
G22  23008567.800   120910839.5061       -317.441          22.000  
G26  20111627.410   105687464.959        -512.259          26.000  
> 2021  9 30 12  1 50.9988780  0  3
G22  23008477.562   120910370.456        -318.639          25.000  
G31  21491104.718   112936490.9141      -1407.264          19.000  
G32  21138911.536   111085740.0101      -2059.121          33.000  
> 2021  9 30 12  1 51.9988774  0  2
G26  20111497.900   105686761.4771       -515.874          21.000  
G32  21139123.190   111086854.224       -2059.820          30.000  
> 2021  9 30 12  1 52.9988769  0  3
G26  20111444.836   105686489.667        -515.945          25.000  
G31  21491314.573   112937571.2521      -1405.927          20.000  
G32  21139365.722   111088126.384       -2060.461          30.000  
> 2021  9 30 12  1 53.9988767  0  1
G32  21139697.292   111089871.818       -2060.805          33.000  
> 2021  9 30 12  1 54.9988764  0  1
G32  21140000.082   111091460.212       -2061.665          29.000  
> 2021  9 30 12  1 55.9988759  0  4
G22  23008162.181   120908672.2781       -322.777          16.000  
G26  20111444.537   105686467.9261       -518.028          21.000  
G31  21491810.129   112940212.7201      -1407.246          20.000  
G32  21140242.015   111092733.744       -2060.869          30.000  
> 2021  9 30 12  1 56.9988754  0  2
G26  20111391.174   105686196.107        -513.439          22.000  
G32  21140485.147   111094007.824       -2062.440          29.000  
> 2021  9 30 12  1 57.9988749  0  2
G26  20111336.012   105685921.922        -513.035          22.000  
G32  21140726.779   111095282.962       -2063.450          27.000  
> 2021  9 30 12  1 58.9988744  0  2
G26  20111283.248   105685646.559        -513.685          21.000  
G32  21140970.810   111096557.779       -2062.613          31.000  
> 2021  9 30 12  1 59.9988739  0  1
G32  21141214.842   111097833.424       -2064.145          28.000  
> 2021  9 30 12  2  0.9988736  0  2
G22  23007778.147   120906658.6541       -321.575          18.000  
G32  21141517.032   111099425.297       -2064.825          33.000  
> 2021  9 30 12  2  1.9988731  0  2
G26  20111184.017   105685145.3971       -518.308          23.000  
G32  21141759.864   111100702.582       -2065.513          31.000  
> 2021  9 30 12  2  2.9988728  0  3
G22  23007653.433   120906043.2891       -320.758          19.000  
G26  20111195.409   105685191.137        -518.655          24.000  
G32  21142062.954   111102294.154       -2064.787          33.000  
> 2021  9 30 12  2  3.9988723  0  2
G26  20111142.945   105684921.231        -517.858          23.000  
G32  21142304.287   111103571.311       -2065.329          35.000  
> 2021  9 30 12  2  4.9988718  0  2
G26  20111092.580   105684650.749        -516.856          25.000  
G31  21492982.018   112946361.6541      -1402.871          15.000  
> 2021  9 30 12  2  5.9988713  0  3
G22  23007390.815   120904645.7241       -325.839          17.000  
G26  20111040.716   105684380.738        -518.856          22.000  
G32  21142792.949   111106128.0011      -2065.229          30.000  
> 2021  9 30 12  2  6.9988708  0  3
G22  23007303.275   120904185.521        -328.933          18.000  
G26  20110990.651   105684112.442        -520.232          24.000  
G32  21143033.083   111107405.738       -2064.727          28.000  
> 2021  9 30 12  2  7.9988703  0  1
G26  20110940.586   105683845.683        -521.599          21.000  
> 2021  9 30 12  2  8.9988700  0  4
G22  23007188.155   120903587.0481       -331.115          20.000  
G26  20110949.879   105683895.230        -522.855          24.000  
G31  21493521.645   112949118.3881      -1399.275          16.000  
G32  21143579.305   111110276.9791      -2067.710          32.000  
> 2021  9 30 12  2  9.9988695  0  3
C19  23172139.062   120663407.9311      -3497.965          33.000  
G26  20110897.116   105683630.245        -522.773          28.000  
G32  21143822.736   111111558.851       -2069.433          31.000  
> 2021  9 30 12  2 10.9988690  0  3
C19  23172660.701   120666122.881       -3494.299          27.000  
G22  23007018.173   120902676.5371       -335.457          21.000  
G26  20110849.149   105683364.045        -521.445          27.000  
> 2021  9 30 12  2 11.9988687  0  3
C19  23173240.200   120669146.482       -3491.549          30.000  
G26  20110860.841   105683413.923        -523.381          26.000  
G32  21144369.857   111114436.3521      -2068.449          30.000  
> 2021  9 30 12  2 12.9988682  0  3
C19  23173759.740   120671856.806       -3490.799          32.000  
G22  23006904.551   120902085.2481       -334.604          20.000  
G26  20110810.176   105683149.947        -525.112          22.000  
> 2021  9 30 12  2 13.9988677  0  5
C19  23174279.280   120674566.979       -3491.064          33.000  
G22  23006818.511   120901631.852        -333.827          21.000  
G26  20110764.008   105682888.322        -525.527          23.000  
G31  21494154.506   112952470.2071      -1395.730          17.000  
G32  21144859.119   111116998.9411      -2069.831          29.000  
> 2021  9 30 12  2 14.9988672  0  1
C19  23174801.219   120677276.873       -3489.671          31.000  
> 2021  9 30 12  2 15.9988667  0  5
C19  23175321.059   120679987.716       -3492.653          31.000  
G22  23006638.036   120900719.0531       -330.658          21.000  
G26  20110662.378   105682363.9101       -526.440          27.000  
G31  21494385.646   112953691.7721      -1398.689          19.000  
G32  21145351.078   111119563.9611      -2069.755          29.000  
> 2021  9 30 12  2 16.9988664  0  5
C19  23175901.157   120683012.630       -3494.201          28.000  
G22  23006606.857   120900577.614        -333.368          21.000  
G26  20110671.672   105682417.650        -526.038          25.000  
G31  21494563.124   112954618.796       -1401.408          26.000  
G32  21145653.868   111121160.800       -2069.539          28.000  
> 2021  9 30 12  2 17.9988659  0  4
C19  23176423.396   120685727.149       -3495.884          27.000  
G22  23006518.719   120900123.929        -336.313          20.000  
G26  20110621.007   105682155.277        -525.308          28.000  
G32  21145899.698   111122443.321       -2071.188          30.000  
> 2021  9 30 12  2 18.9988654  0  5
C19  23176947.133   120688442.115       -3495.607          29.000  
G22  23006430.280   120899673.109        -337.212          20.000  
G26  20110569.742   105681892.238        -524.912          26.000  
G31  21494790.366   112955844.4391      -1400.600          23.000  
G32  21146148.226   111123727.415       -2072.377          30.000  
> 2021  9 30 12  2 19.9988649  0  4
C19  23177469.672   120691155.862       -3494.248          28.000  
G26  20110518.478   105681629.167        -525.600          26.000  
G32  21146395.555   111125012.928       -2074.108          30.000  
J01  36236848.852   190425834.1241       -137.590          30.000  
> 2021  9 30 12  2 20.9988646  0  5
C19  23178050.969   120694181.290       -3493.814          30.000  
G26  20110528.371   105681682.351        -526.298          28.000  
G31  21495076.668   112957385.3581      -1400.684          24.000  
G32  21146701.043   111126614.319       -2074.068          32.000  
J01  36236784.696   190425499.580        -138.368          28.000  
> 2021  9 30 12  2 21.9988641  0  6
C19  23178572.908   120696894.620       -3494.079          28.000  
G22  23006233.616   120898641.7061       -337.588          19.000  
G26  20110479.505   105681421.839        -527.726          25.000  
G31  21495192.088   112957997.606       -1400.183          24.000  
G32  21146946.873   111127900.920       -2074.724          32.000  
J01  36236662.081   190424850.189        -138.668          24.000  
> 2021  9 30 12  2 22.9988636  0  6
C19  23179094.847   120699608.033       -3493.742          22.000  
G22  23006144.877   120898190.779        -337.010          19.000  
G26  20110428.540   105681162.620        -528.204          28.000  
G31  21495306.009   112958611.310       -1402.385          24.000  
G32  21147187.906   111129188.712       -2075.675          29.000  
J01  36236539.166   190424200.864        -139.405          30.000  
> 2021  9 30 12  2 23.9988631  0  5
C19  23179615.886   120702320.619       -3494.622          25.000  
G26  20110380.573   105680903.155        -528.503          25.000  
G31  21495419.930   112959224.386       -1401.270          23.000  
G32  21147431.638   111130474.412       -2073.754          29.000  
J01  36236415.651   190423552.811        -139.288          25.000  
> 2021  9 30 12  2 24.9988628  0  5
C19  23180200.181   120705347.428       -3495.319          27.000  
G26  20110389.267   105680959.682        -530.367          26.000  
G31  21495594.110   112960151.622       -1398.678          25.000  
G32  21147735.327   111132076.038       -2075.276          31.000  
J01  36236352.395   190423219.582        -139.597          30.000  
> 2021  9 30 12  2 25.9988623  0  6
C19  23180721.520   120708062.511       -3495.976          28.000  
G26  20110343.399   105680702.671        -530.905          27.000  
G31  21495706.832   112960763.099       -1400.684          25.000  
G32  21147979.059   111133363.862       -2076.551          28.000  
J01  36236230.380   190422572.324        -142.234          27.000  
J035058322594.991                        -554.345          30.000  
> 2021  9 30 12  2 26.9988621  0  6
C19  23181332.198   120711246.527       -3495.580          30.000  
G26  20110383.571   105680918.047        -530.029          27.000  
G31  21495911.890   112961849.866       -1403.286          24.000  
G32  21148313.927   111135125.730       -2077.178          30.000  
J01  36236196.803   190422399.173        -141.534          24.000  
J03  37269026.490                        -607.938          27.000  
> 2021  9 30 12  2 27.9988616  0  6
C19  23181852.637   120713960.825       -3494.661          27.000  
G22  23005870.267   120896722.9271       -340.750          20.000  
G26  20110333.806   105680660.946        -531.339          28.000  
G31  21496027.310   112962465.064       -1402.825          25.000  
G32  21148557.658   111136415.064       -2076.969          35.000  
J01  36236073.588   190421752.942        -141.289          25.000  
> 2021  9 30 12  2 28.9988611  0  5
C01  37489047.173   195215306.0611       -709.730          31.000  
C19  23182373.677   120716674.734       -3494.714          27.000  
G26  20110284.040   105680404.029        -531.139          22.000  
G32  21148802.888   111137704.456       -2077.863          38.000  
J03  37268950.043   195849654.1621       -603.689          24.000  
> 2021  9 30 12  2 29.9988605  0  6
C19  23182864.137   120719233.588       -3496.397          32.000  
G22  23005676.302   120895672.5931       -343.077          19.000  
G26  20110206.394   105679989.694        -531.482          27.000  
G31  21496234.167   112963538.3741      -1402.574          24.000  
J01  36235797.779   190420300.4851       -140.071          24.000  
J03  37268883.189   195849313.128        -604.250          21.000  
> 2021  9 30 12  2 30.9988600  0  4
C19  23183384.877   120721950.039       -3497.366          33.000  
G26  20110157.827   105679734.501        -533.187          25.000  
G31  21496348.987   112964152.948       -1400.512          23.000  
J01  36235675.464   190419653.287        -141.132          30.000  
> 2021  9 30 12  2 31.9988595  0  5
C19  23183904.717   120724667.615       -3498.078          29.000  
G22  23005512.015   120894784.3911       -343.006          20.000  
G26  20110107.762   105679480.781        -535.290          25.000  
G31  21496462.908   112964765.122       -1398.601          27.000  
J01  36235552.849   190419007.239        -142.062          29.000  
> 2021  9 30 12  2 32.9988593  0  5
C19  23184516.593   120727853.555       -3497.970          27.000  
G22  23005518.011   120894811.715        -343.235          19.000  
G26  20110148.234   105679701.633        -536.958          27.000  
G31  21496668.266   112965848.873       -1398.849          34.000  
G32  21149842.868   111143177.4581      -2078.933          30.000  
> 2021  9 30 12  2 33.9988588  0  5
C07  36313693.753   189094987.0711       -170.736          26.000  
C19  23185037.033   120730571.962       -3499.822          27.000  
G26  20110099.068   105679450.352        -536.112          24.000  
G31  21496783.686   112966460.459       -1399.789          32.000  
J01  36235407.749   190418188.6401       -142.689          23.000  
> 2021  9 30 12  2 34.9988585  0  4
C19  23185618.031   120733603.339       -3499.706          30.000  
G22  23005402.291   120894240.4311       -346.265          25.000  
G26  20110110.460   105679514.891        -538.338          24.000  
G31  21496959.664   112967386.905       -1399.295          30.000  
> 2021  9 30 12  2 35.9988580  0  6
C07  36313516.576   189094080.7871       -172.054          14.000  
C19  23186141.468   120736322.291       -3500.233          29.000  
G22  23005316.251   120893800.129        -347.210          26.000  
G26  20110063.992   105679265.560        -538.567          25.000  
G31  21497076.584   112968000.022       -1400.922          30.000  
J01  36235222.777   190417210.4931       -141.680          22.000  
> 2021  9 30 12  2 36.9988575  0  4
C19  23186663.407   120739041.548       -3498.417          30.000  
G26  20110017.225   105679016.848        -538.963          25.000  
G31  21497193.503   112968613.783       -1402.737          30.000  
J01  36235100.762   190416565.274        -142.248          22.000  
> 2021  9 30 12  2 37.9988570  0  7
C19  23187184.746   120741759.095       -3497.494          30.000  
G22  23005151.365   120892916.9951       -345.323          17.000  
G26  20109966.560   105678768.490        -539.707          23.000  
G31  21497309.822   112969227.732       -1400.852          30.000  
G32  21151136.173   111149962.9971      -2082.303          30.000  
J01  36234978.147   190415919.233        -141.601          25.000  
