$GPGGA,135800.000,2217.980183,N,11410.657933,E,1,19,0.8,-9.2,M,,M,,*6E
$GPRMC,135800.000,A,2217.980183,N,11410.657933,E,0.0,0.0,120721,,E,A*26
$GPGGA,135801.000,2217.980152,N,11410.657944,E,1,19,0.8,-9.2,M,,M,,*63
$GPRMC,135801.000,A,2217.980152,N,11410.657944,E,0.0,0.0,120721,,E,A*2B
$GPGGA,135802.000,2217.980159,N,11410.657962,E,1,19,0.8,-9.2,M,,M,,*6F
$GPRMC,135802.000,A,2217.980159,N,11410.657962,E,0.0,0.0,120721,,E,A*27
$GPGGA,135803.000,2217.980193,N,11410.657984,E,1,19,0.8,-9.2,M,,M,,*60
$GPRMC,135803.000,A,2217.980193,N,11410.657984,E,0.0,0.0,120721,,E,A*28
$GPGGA,135804.000,2217.980201,N,11410.658029,E,1,19,0.8,-9.2,M,,M,,*6E
$GPRMC,135804.000,A,2217.980201,N,11410.658029,E,0.0,0.0,120721,,E,A*26
$GPGGA,135805.000,2217.980219,N,11410.658037,E,1,19,0.8,-9.3,M,,M,,*68
$GPRMC,135805.000,A,2217.980219,N,11410.658037,E,0.0,0.0,120721,,E,A*21
$GPGGA,135806.000,2217.980229,N,11410.658021,E,1,19,0.8,-9.3,M,,M,,*6F
$GPRMC,135806.000,A,2217.980229,N,11410.658021,E,0.0,0.0,120721,,E,A*26
$GPGGA,135807.000,2217.980216,N,11410.658017,E,1,19,0.8,-9.2,M,,M,,*66
$GPRMC,135807.000,A,2217.980216,N,11410.658017,E,0.0,0.0,120721,,E,A*2E
$GPGGA,135808.000,2217.980234,N,11410.658031,E,1,19,0.8,-9.2,M,,M,,*6D
$GPRMC,135808.000,A,2217.980234,N,11410.658031,E,0.0,0.0,120721,,E,A*25
$GPGGA,135809.000,2217.980215,N,11410.658040,E,1,19,0.8,-9.2,M,,M,,*69
$GPRMC,135809.000,A,2217.980215,N,11410.658040,E,0.0,0.0,120721,,E,A*21
$GPGGA,135810.000,2217.980213,N,11410.658032,E,1,19,0.8,-9.2,M,,M,,*62
$GPRMC,135810.000,A,2217.980213,N,11410.658032,E,0.0,0.0,120721,,E,A*2A
$GPGGA,135811.000,2217.980203,N,11410.657988,E,1,19,0.8,-9.2,M,,M,,*65
$GPRMC,135811.000,A,2217.980203,N,11410.657988,E,0.0,0.0,120721,,E,A*2D
$GPGGA,135812.000,2217.980213,N,11410.657965,E,1,19,0.8,-9.2,M,,M,,*64
$GPRMC,135812.000,A,2217.980213,N,11410.657965,E,0.0,0.0,120721,,E,A*2C
$GPGGA,135813.000,2217.980191,N,11410.657951,E,1,19,0.8,-9.2,M,,M,,*6B
$GPRMC,135813.000,A,2217.980191,N,11410.657951,E,0.0,0.0,120721,,E,A*23
$GPGGA,135814.000,2217.980158,N,11410.657929,E,1,19,0.8,-9.2,M,,M,,*66
$GPRMC,135814.000,A,2217.980158,N,11410.657929,E,0.0,0.0,120721,,E,A*2E
$GPGGA,135815.000,2217.980066,N,11410.657893,E,1,19,0.8,-9.1,M,,M,,*68
$GPRMC,135815.000,A,2217.980066,N,11410.657893,E,0.0,0.0,120721,,E,A*23
$GPGGA,135816.000,2217.980079,N,11410.657866,E,1,19,0.8,-9.1,M,,M,,*6F
$GPRMC,135816.000,A,2217.980079,N,11410.657866,E,0.0,0.0,120721,,E,A*24
$GPGGA,135817.000,2217.980079,N,11410.657847,E,1,19,0.8,-9.1,M,,M,,*6D
$GPRMC,135817.000,A,2217.980079,N,11410.657847,E,0.0,0.0,120721,,E,A*26
$GPGGA,135818.000,2217.980114,N,11410.657825,E,1,19,0.8,-9.1,M,,M,,*6C
$GPRMC,135818.000,A,2217.980114,N,11410.657825,E,0.0,0.0,120721,,E,A*27
$GPGGA,135819.000,2217.980186,N,11410.657791,E,1,19,0.8,-9.1,M,,M,,*66
$GPRMC,135819.000,A,2217.980186,N,11410.657791,E,0.0,0.0,120721,,E,A*2D
$GPGGA,135820.000,2217.980186,N,11410.657769,E,1,19,0.8,-9.1,M,,M,,*6B
$GPRMC,135820.000,A,2217.980186,N,11410.657769,E,0.0,0.0,120721,,E,A*20
$GPGGA,135821.000,2217.980195,N,11410.657818,E,1,19,0.8,-9.1,M,,M,,*61
$GPRMC,135821.000,A,2217.980195,N,11410.657818,E,0.0,0.0,120721,,E,A*2A
$GPGGA,135822.000,2217.980218,N,11410.657873,E,1,19,0.8,-9.1,M,,M,,*69
$GPRMC,135822.000,A,2217.980218,N,11410.657873,E,0.0,0.0,120721,,E,A*22
$GPGGA,135823.000,2217.980206,N,11410.657893,E,1,19,0.8,-9.1,M,,M,,*69
$GPRMC,135823.000,A,2217.980206,N,11410.657893,E,0.0,0.0,120721,,E,A*22
$GPGGA,135824.000,2217.980204,N,11410.657897,E,1,19,0.8,-9.1,M,,M,,*68
$GPRMC,135824.000,A,2217.980204,N,11410.657897,E,0.0,0.0,120721,,E,A*23
$GPGGA,135825.000,2217.980208,N,11410.657960,E,1,19,0.8,-9.1,M,,M,,*6C
$GPRMC,135825.000,A,2217.980208,N,11410.657960,E,0.0,0.0,120721,,E,A*27
$GPGGA,135826.000,2217.980217,N,11410.657979,E,1,19,0.8,-9.1,M,,M,,*69
$GPRMC,135826.000,A,2217.980217,N,11410.657979,E,0.0,0.0,120721,,E,A*22
$GPGGA,135827.000,2217.980212,N,11410.657985,E,1,19,0.8,-9.1,M,,M,,*6E
$GPRMC,135827.000,A,2217.980212,N,11410.657985,E,0.0,0.0,120721,,E,A*25
$GPGGA,135828.000,2217.980229,N,11410.658004,E,1,19,0.8,-9.1,M,,M,,*66
$GPRMC,135828.000,A,2217.980229,N,11410.658004,E,0.0,0.0,120721,,E,A*2D
$GPGGA,135829.000,2217.980243,N,11410.658008,E,1,19,0.8,-9.2,M,,M,,*64
$GPRMC,135829.000,A,2217.980243,N,11410.658008,E,0.0,0.0,120721,,E,A*2C
$GPGGA,135830.000,2217.980248,N,11410.658015,E,1,19,0.8,-9.2,M,,M,,*6B
$GPRMC,135830.000,A,2217.980248,N,11410.658015,E,0.0,0.0,120721,,E,A*23
$GPGGA,135831.000,2217.980245,N,11410.658021,E,1,19,0.8,-9.2,M,,M,,*60
$GPRMC,135831.000,A,2217.980245,N,11410.658021,E,0.0,0.0,120721,,E,A*28
$GPGGA,135832.000,2217.980247,N,11410.658019,E,1,19,0.8,-9.2,M,,M,,*6A
$GPRMC,135832.000,A,2217.980247,N,11410.658019,E,0.0,0.0,120721,,E,A*22
$GPGGA,135833.000,2217.980203,N,11410.657908,E,1,19,0.8,-9.1,M,,M,,*6E
$GPRMC,135833.000,A,2217.980203,N,11410.657908,E,0.0,0.0,120721,,E,A*25
$GPGGA,135834.000,2217.980160,N,11410.657834,E,1,19,0.8,-9.1,M,,M,,*61
$GPRMC,135834.000,A,2217.980160,N,11410.657834,E,0.0,0.0,120721,,E,A*2A
$GPGGA,135835.000,2217.980153,N,11410.657852,E,1,19,0.8,-9.1,M,,M,,*60
$GPRMC,135835.000,A,2217.980153,N,11410.657852,E,0.0,0.0,120721,,E,A*2B
$GPGGA,135836.000,2217.980156,N,11410.657830,E,1,19,0.8,-9.1,M,,M,,*62
$GPRMC,135836.000,A,2217.980156,N,11410.657830,E,0.0,0.0,120721,,E,A*29
$GPGGA,135837.000,2217.980173,N,11410.657793,E,1,19,0.8,-9.1,M,,M,,*62
$GPRMC,135837.000,A,2217.980173,N,11410.657793,E,0.0,0.0,120721,,E,A*29
$GPGGA,135838.000,2217.980160,N,11410.657782,E,1,19,0.8,-9.1,M,,M,,*6F
$GPRMC,135838.000,A,2217.980160,N,11410.657782,E,0.0,0.0,120721,,E,A*24
$GPGGA,135839.000,2217.980179,N,11410.657774,E,1,19,0.8,-9.0,M,,M,,*6E
$GPRMC,135839.000,A,2217.980179,N,11410.657774,E,0.0,0.0,120721,,E,A*24
$GPGGA,135840.000,2217.980211,N,11410.657770,E,1,19,0.8,-9.0,M,,M,,*69
$GPRMC,135840.000,A,2217.980211,N,11410.657770,E,0.0,0.0,120721,,E,A*23
$GPGGA,135841.000,2217.980244,N,11410.657849,E,1,19,0.8,-9.1,M,,M,,*6C
$GPRMC,135841.000,A,2217.980244,N,11410.657849,E,0.0,0.0,120721,,E,A*27
$GPGGA,135842.000,2217.980246,N,11410.657824,E,1,19,0.8,-9.1,M,,M,,*66
$GPRMC,135842.000,A,2217.980246,N,11410.657824,E,0.0,0.0,120721,,E,A*2D
$GPGGA,135843.000,2217.980254,N,11410.657796,E,1,19,0.8,-9.1,M,,M,,*62
$GPRMC,135843.000,A,2217.980254,N,11410.657796,E,0.0,0.0,120721,,E,A*29
$GPGGA,135844.000,2217.980235,N,11410.657796,E,1,19,0.8,-9.1,M,,M,,*62
$GPRMC,135844.000,A,2217.980235,N,11410.657796,E,0.0,0.0,120721,,E,A*29
$GPGGA,135845.000,2217.980217,N,11410.657795,E,1,19,0.8,-9.1,M,,M,,*60
$GPRMC,135845.000,A,2217.980217,N,11410.657795,E,0.0,0.0,120721,,E,A*2B
$GPGGA,135846.000,2217.980294,N,11410.657733,E,1,19,0.8,-9.3,M,,M,,*66
$GPRMC,135846.000,A,2217.980294,N,11410.657733,E,0.0,0.0,120721,,E,A*2F
$GPGGA,135847.000,2217.980314,N,11410.657759,E,1,19,0.8,-9.3,M,,M,,*62
$GPRMC,135847.000,A,2217.980314,N,11410.657759,E,0.0,0.0,120721,,E,A*2B
$GPGGA,135848.000,2217.980305,N,11410.657808,E,1,19,0.8,-9.3,M,,M,,*66
$GPRMC,135848.000,A,2217.980305,N,11410.657808,E,0.0,0.0,120721,,E,A*2F
$GPGGA,135849.000,2217.980287,N,11410.657842,E,1,19,0.8,-9.3,M,,M,,*62
$GPRMC,135849.000,A,2217.980287,N,11410.657842,E,0.0,0.0,120721,,E,A*2B
$GPGGA,135850.000,2217.980286,N,11410.657836,E,1,19,0.8,-9.3,M,,M,,*68
$GPRMC,135850.000,A,2217.980286,N,11410.657836,E,0.0,0.0,120721,,E,A*21
$GPGGA,135851.000,2217.980257,N,11410.657862,E,1,19,0.8,-9.3,M,,M,,*64
$GPRMC,135851.000,A,2217.980257,N,11410.657862,E,0.0,0.0,120721,,E,A*2D
$GPGGA,135852.000,2217.980244,N,11410.657879,E,1,19,0.8,-9.3,M,,M,,*6F
$GPRMC,135852.000,A,2217.980244,N,11410.657879,E,0.0,0.0,120721,,E,A*26
$GPGGA,135853.000,2217.980239,N,11410.657844,E,1,19,0.8,-9.3,M,,M,,*6A
$GPRMC,135853.000,A,2217.980239,N,11410.657844,E,0.0,0.0,120721,,E,A*23
$GPGGA,135854.000,2217.980239,N,11410.657844,E,1,19,0.8,-9.3,M,,M,,*6D
$GPRMC,135854.000,A,2217.980239,N,11410.657844,E,0.0,0.0,120721,,E,A*24
$GPGGA,135855.000,2217.980242,N,11410.657864,E,1,19,0.8,-9.3,M,,M,,*62
$GPRMC,135855.000,A,2217.980242,N,11410.657864,E,0.0,0.0,120721,,E,A*2B
$GPGGA,135856.000,2217.980246,N,11410.657865,E,1,19,0.8,-9.3,M,,M,,*64
$GPRMC,135856.000,A,2217.980246,N,11410.657865,E,0.0,0.0,120721,,E,A*2D
$GPGGA,135857.000,2217.980244,N,11410.657857,E,1,19,0.8,-9.3,M,,M,,*66
$GPRMC,135857.000,A,2217.980244,N,11410.657857,E,0.0,0.0,120721,,E,A*2F
$GPGGA,135858.000,2217.980237,N,11410.657855,E,1,19,0.8,-9.3,M,,M,,*6F
$GPRMC,135858.000,A,2217.980237,N,11410.657855,E,0.0,0.0,120721,,E,A*26
$GPGGA,135859.000,2217.980241,N,11410.657886,E,1,19,0.8,-9.3,M,,M,,*61
$GPRMC,135859.000,A,2217.980241,N,11410.657886,E,0.0,0.0,120721,,E,A*28
$GPGGA,135900.000,2217.980225,N,11410.657879,E,1,19,0.8,-9.3,M,,M,,*6E
$GPRMC,135900.000,A,2217.980225,N,11410.657879,E,0.0,0.0,120721,,E,A*27
$GPGGA,135901.000,2217.980227,N,11410.657865,E,1,19,0.8,-9.3,M,,M,,*60
$GPRMC,135901.000,A,2217.980227,N,11410.657865,E,0.0,0.0,120721,,E,A*29
$GPGGA,135902.000,2217.980227,N,11410.657865,E,1,19,0.8,-9.3,M,,M,,*63
$GPRMC,135902.000,A,2217.980227,N,11410.657865,E,0.0,0.0,120721,,E,A*2A
$GPGGA,135903.000,2217.980227,N,11410.657841,E,1,19,0.8,-9.3,M,,M,,*64
$GPRMC,135903.000,A,2217.980227,N,11410.657841,E,0.0,0.0,120721,,E,A*2D
$GPGGA,135904.000,2217.980236,N,11410.657831,E,1,19,0.8,-9.3,M,,M,,*64
$GPRMC,135904.000,A,2217.980236,N,11410.657831,E,0.0,0.0,120721,,E,A*2D
$GPGGA,135905.000,2217.980260,N,11410.657811,E,1,19,0.8,-9.2,M,,M,,*65
$GPRMC,135905.000,A,2217.980260,N,11410.657811,E,0.0,0.0,120721,,E,A*2D
$GPGGA,135906.000,2217.980252,N,11410.657812,E,1,19,0.8,-9.2,M,,M,,*64
$GPRMC,135906.000,A,2217.980252,N,11410.657812,E,0.0,0.0,120721,,E,A*2C
$GPGGA,135907.000,2217.980272,N,11410.657779,E,1,19,0.8,-9.2,M,,M,,*65
$GPRMC,135907.000,A,2217.980272,N,11410.657779,E,0.0,0.0,120721,,E,A*2D
$GPGGA,135908.000,2217.980272,N,11410.657779,E,1,19,0.8,-9.2,M,,M,,*6A
$GPRMC,135908.000,A,2217.980272,N,11410.657779,E,0.0,0.0,120721,,E,A*22
$GPGGA,135909.000,2217.980253,N,11410.657778,E,1,19,0.8,-9.2,M,,M,,*69
$GPRMC,135909.000,A,2217.980253,N,11410.657778,E,0.0,0.0,120721,,E,A*21
$GPGGA,135910.000,2217.980251,N,11410.657760,E,1,19,0.8,-9.2,M,,M,,*6A
$GPRMC,135910.000,A,2217.980251,N,11410.657760,E,0.0,0.0,120721,,E,A*22
$GPGGA,135911.000,2217.980268,N,11410.657732,E,1,19,0.8,-9.2,M,,M,,*66
$GPRMC,135911.000,A,2217.980268,N,11410.657732,E,0.0,0.0,120721,,E,A*2E
$GPGGA,135912.000,2217.980268,N,11410.657732,E,1,19,0.8,-9.2,M,,M,,*65
$GPRMC,135912.000,A,2217.980268,N,11410.657732,E,0.0,0.0,120721,,E,A*2D
$GPGGA,135913.000,2217.980268,N,11410.657732,E,1,19,0.8,-9.2,M,,M,,*64
$GPRMC,135913.000,A,2217.980268,N,11410.657732,E,0.0,0.0,120721,,E,A*2C
$GPGGA,135914.000,2217.980282,N,11410.657711,E,1,19,0.8,-9.2,M,,M,,*66
$GPRMC,135914.000,A,2217.980282,N,11410.657711,E,0.0,0.0,120721,,E,A*2E
$GPGGA,135915.000,2217.980315,N,11410.657726,E,1,19,0.8,-9.2,M,,M,,*6C
$GPRMC,135915.000,A,2217.980315,N,11410.657726,E,0.0,0.0,120721,,E,A*24
$GPGGA,135916.000,2217.980310,N,11410.657704,E,1,19,0.8,-9.2,M,,M,,*6A
$GPRMC,135916.000,A,2217.980310,N,11410.657704,E,0.0,0.0,120721,,E,A*22
$GPGGA,135917.000,2217.980277,N,11410.657747,E,1,19,0.8,-9.2,M,,M,,*6C
$GPRMC,135917.000,A,2217.980277,N,11410.657747,E,0.0,0.0,120721,,E,A*24
$GPGGA,135918.000,2217.980278,N,11410.657747,E,1,19,0.8,-9.2,M,,M,,*6C
$GPRMC,135918.000,A,2217.980278,N,11410.657747,E,0.0,0.0,120721,,E,A*24
$GPGGA,135919.000,2217.980293,N,11410.657740,E,1,19,0.8,-9.3,M,,M,,*6E
$GPRMC,135919.000,A,2217.980293,N,11410.657740,E,0.0,0.0,120721,,E,A*27
$GPGGA,135920.000,2217.980279,N,11410.657758,E,1,19,0.8,-9.2,M,,M,,*68
$GPRMC,135920.000,A,2217.980279,N,11410.657758,E,0.0,0.0,120721,,E,A*20
$GPGGA,135921.000,2217.980306,N,11410.657776,E,1,19,0.8,-9.3,M,,M,,*6D
$GPRMC,135921.000,A,2217.980306,N,11410.657776,E,0.0,0.0,120721,,E,A*24
$GPGGA,135922.000,2217.980306,N,11410.657777,E,1,19,0.8,-9.3,M,,M,,*6F
$GPRMC,135922.000,A,2217.980306,N,11410.657777,E,0.0,0.0,120721,,E,A*26
$GPGGA,135923.000,2217.980308,N,11410.657777,E,1,19,0.8,-9.3,M,,M,,*60
$GPRMC,135923.000,A,2217.980308,N,11410.657777,E,0.0,0.0,120721,,E,A*29
$GPGGA,135924.000,2217.980308,N,11410.657776,E,1,19,0.8,-9.3,M,,M,,*66
$GPRMC,135924.000,A,2217.980308,N,11410.657776,E,0.0,0.0,120721,,E,A*2F
$GPGGA,135925.000,2217.980312,N,11410.657767,E,1,19,0.8,-9.3,M,,M,,*6C
$GPRMC,135925.000,A,2217.980312,N,11410.657767,E,0.0,0.0,120721,,E,A*25
$GPGGA,135926.000,2217.980318,N,11410.657771,E,1,19,0.8,-9.3,M,,M,,*62
$GPRMC,135926.000,A,2217.980318,N,11410.657771,E,0.0,0.0,120721,,E,A*2B
$GPGGA,135927.000,2217.980314,N,11410.657800,E,1,19,0.8,-9.3,M,,M,,*66
$GPRMC,135927.000,A,2217.980314,N,11410.657800,E,0.0,0.0,120721,,E,A*2F
$GPGGA,135928.000,2217.980335,N,11410.657824,E,1,19,0.8,-9.3,M,,M,,*6C
$GPRMC,135928.000,A,2217.980335,N,11410.657824,E,0.0,0.0,120721,,E,A*25
$GPGGA,135929.000,2217.980338,N,11410.657828,E,1,19,0.8,-9.3,M,,M,,*6C
$GPRMC,135929.000,A,2217.980338,N,11410.657828,E,0.0,0.0,120721,,E,A*25
$GPGGA,135930.000,2217.980332,N,11410.657850,E,1,19,0.8,-9.3,M,,M,,*61
$GPRMC,135930.000,A,2217.980332,N,11410.657850,E,0.0,0.0,120721,,E,A*28
$GPGGA,135931.000,2217.980332,N,11410.657843,E,1,19,0.8,-9.3,M,,M,,*62
$GPRMC,135931.000,A,2217.980332,N,11410.657843,E,0.0,0.0,120721,,E,A*2B
$GPGGA,135932.000,2217.980335,N,11410.657842,E,1,19,0.8,-9.3,M,,M,,*67
$GPRMC,135932.000,A,2217.980335,N,11410.657842,E,0.0,0.0,120721,,E,A*2E
$GPGGA,135933.000,2217.980335,N,11410.657842,E,1,19,0.8,-9.3,M,,M,,*66
$GPRMC,135933.000,A,2217.980335,N,11410.657842,E,0.0,0.0,120721,,E,A*2F
$GPGGA,135934.000,2217.980345,N,11410.657828,E,1,19,0.8,-9.3,M,,M,,*6A
$GPRMC,135934.000,A,2217.980345,N,11410.657828,E,0.0,0.0,120721,,E,A*23
$GPGGA,135935.000,2217.980330,N,11410.657843,E,1,19,0.8,-9.3,M,,M,,*64
$GPRMC,135935.000,A,2217.980330,N,11410.657843,E,0.0,0.0,120721,,E,A*2D
$GPGGA,135936.000,2217.980330,N,11410.657843,E,1,19,0.8,-9.3,M,,M,,*67
$GPRMC,135936.000,A,2217.980330,N,11410.657843,E,0.0,0.0,120721,,E,A*2E
$GPGGA,135937.000,2217.980332,N,11410.657866,E,1,19,0.8,-9.3,M,,M,,*63
$GPRMC,135937.000,A,2217.980332,N,11410.657866,E,0.0,0.0,120721,,E,A*2A
$GPGGA,135938.000,2217.980332,N,11410.657866,E,1,19,0.8,-9.3,M,,M,,*6C
$GPRMC,135938.000,A,2217.980332,N,11410.657866,E,0.0,0.0,120721,,E,A*25
$GPGGA,135939.000,2217.980291,N,11410.657858,E,1,19,0.8,-9.3,M,,M,,*68
$GPRMC,135939.000,A,2217.980291,N,11410.657858,E,0.0,0.0,120721,,E,A*21
$GPGGA,135940.000,2217.980287,N,11410.657865,E,1,19,0.8,-9.3,M,,M,,*6F
$GPRMC,135940.000,A,2217.980287,N,11410.657865,E,0.0,0.0,120721,,E,A*26
$GPGGA,135941.000,2217.980266,N,11410.657874,E,1,19,0.8,-9.3,M,,M,,*61
$GPRMC,135941.000,A,2217.980266,N,11410.657874,E,0.0,0.0,120721,,E,A*28
$GPGGA,135942.000,2217.980271,N,11410.657868,E,1,19,0.8,-9.3,M,,M,,*69
$GPRMC,135942.000,A,2217.980271,N,11410.657868,E,0.0,0.0,120721,,E,A*20
$GPGGA,135943.000,2217.980280,N,11410.657873,E,1,19,0.8,-9.3,M,,M,,*6C
$GPRMC,135943.000,A,2217.980280,N,11410.657873,E,0.0,0.0,120721,,E,A*25
$GPGGA,135944.000,2217.980270,N,11410.657870,E,1,19,0.8,-9.3,M,,M,,*67
$GPRMC,135944.000,A,2217.980270,N,11410.657870,E,0.0,0.0,120721,,E,A*2E
$GPGGA,135945.000,2217.980270,N,11410.657870,E,1,19,0.8,-9.3,M,,M,,*66
$GPRMC,135945.000,A,2217.980270,N,11410.657870,E,0.0,0.0,120721,,E,A*2F
$GPGGA,135946.000,2217.980269,N,11410.657860,E,1,19,0.8,-9.3,M,,M,,*6C
$GPRMC,135946.000,A,2217.980269,N,11410.657860,E,0.0,0.0,120721,,E,A*25
$GPGGA,135947.000,2217.980261,N,11410.657864,E,1,19,0.8,-9.3,M,,M,,*61
$GPRMC,135947.000,A,2217.980261,N,11410.657864,E,0.0,0.0,120721,,E,A*28
$GPGGA,135948.000,2217.980265,N,11410.657854,E,1,19,0.8,-9.3,M,,M,,*69
$GPRMC,135948.000,A,2217.980265,N,11410.657854,E,0.0,0.0,120721,,E,A*20
$GPGGA,135949.000,2217.980296,N,11410.657805,E,1,19,0.8,-9.3,M,,M,,*60
$GPRMC,135949.000,A,2217.980296,N,11410.657805,E,0.0,0.0,120721,,E,A*29
$GPGGA,135950.000,2217.980292,N,11410.657811,E,1,19,0.8,-9.3,M,,M,,*69
$GPRMC,135950.000,A,2217.980292,N,11410.657811,E,0.0,0.0,120721,,E,A*20
$GPGGA,135951.000,2217.980295,N,11410.657817,E,1,19,0.8,-9.3,M,,M,,*69
$GPRMC,135951.000,A,2217.980295,N,11410.657817,E,0.0,0.0,120721,,E,A*20
$GPGGA,135952.000,2217.980272,N,11410.657880,E,1,19,0.8,-9.3,M,,M,,*6D
$GPRMC,135952.000,A,2217.980272,N,11410.657880,E,0.0,0.0,120721,,E,A*24
$GPGGA,135953.000,2217.980273,N,11410.657874,E,1,19,0.8,-9.4,M,,M,,*61
$GPRMC,135953.000,A,2217.980273,N,11410.657874,E,0.0,0.0,120721,,E,A*2F
$GPGGA,135954.000,2217.980273,N,11410.657874,E,1,19,0.8,-9.4,M,,M,,*66
$GPRMC,135954.000,A,2217.980273,N,11410.657874,E,0.0,0.0,120721,,E,A*28
$GPGGA,135955.000,2217.980263,N,11410.657859,E,1,19,0.8,-9.3,M,,M,,*6E
$GPRMC,135955.000,A,2217.980263,N,11410.657859,E,0.0,0.0,120721,,E,A*27
$GPGGA,135956.000,2217.980221,N,11410.657938,E,1,19,0.8,-9.4,M,,M,,*6A
$GPRMC,135956.000,A,2217.980221,N,11410.657938,E,0.0,0.0,120721,,E,A*24
$GPGGA,135957.000,2217.980243,N,11410.657920,E,1,19,0.8,-9.4,M,,M,,*66
$GPRMC,135957.000,A,2217.980243,N,11410.657920,E,0.0,0.0,120721,,E,A*28
$GPGGA,135958.000,2217.980243,N,11410.657920,E,1,19,0.8,-9.4,M,,M,,*69
$GPRMC,135958.000,A,2217.980243,N,11410.657920,E,0.0,0.0,120721,,E,A*27
$GPGGA,135959.000,2217.980238,N,11410.657913,E,1,19,0.8,-9.4,M,,M,,*64
$GPRMC,135959.000,A,2217.980238,N,11410.657913,E,0.0,0.0,120721,,E,A*2A
$GPGGA,140000.000,2217.980206,N,11410.657975,E,1,19,0.8,-9.4,M,,M,,*6E
$GPRMC,140000.000,A,2217.980206,N,11410.657975,E,0.0,0.0,120721,,E,A*20
$GPGGA,140001.000,2217.980227,N,11410.658034,E,1,19,0.8,-9.5,M,,M,,*6E
$GPRMC,140001.000,A,2217.980227,N,11410.658034,E,0.0,0.0,120721,,E,A*21
$GPGGA,140002.000,2217.980180,N,11410.658105,E,1,19,0.8,-9.5,M,,M,,*60
$GPRMC,140002.000,A,2217.980180,N,11410.658105,E,0.0,0.0,120721,,E,A*2F
$GPGGA,140003.000,2217.980184,N,11410.658088,E,1,19,0.8,-9.5,M,,M,,*61
$GPRMC,140003.000,A,2217.980184,N,11410.658088,E,0.0,0.0,120721,,E,A*2E
$GPGGA,140004.000,2217.980170,N,11410.658092,E,1,19,0.8,-9.5,M,,M,,*66
$GPRMC,140004.000,A,2217.980170,N,11410.658092,E,0.0,0.0,120721,,E,A*29
$GPGGA,140005.000,2217.980144,N,11410.658050,E,1,19,0.8,-9.5,M,,M,,*6E
$GPRMC,140005.000,A,2217.980144,N,11410.658050,E,0.0,0.0,120721,,E,A*21
$GPGGA,140006.000,2217.980154,N,11410.658050,E,1,19,0.8,-9.5,M,,M,,*6C
$GPRMC,140006.000,A,2217.980154,N,11410.658050,E,0.0,0.0,120721,,E,A*23
$GPGGA,140007.000,2217.980169,N,11410.658078,E,1,19,0.8,-9.5,M,,M,,*69
$GPRMC,140007.000,A,2217.980169,N,11410.658078,E,0.0,0.0,120721,,E,A*26
$GPGGA,140008.000,2217.980184,N,11410.658105,E,1,19,0.8,-9.5,M,,M,,*6E
$GPRMC,140008.000,A,2217.980184,N,11410.658105,E,0.0,0.0,120721,,E,A*21
$GPGGA,140009.000,2217.980188,N,11410.658209,E,1,19,0.8,-9.5,M,,M,,*6C
$GPRMC,140009.000,A,2217.980188,N,11410.658209,E,0.0,0.0,120721,,E,A*23
$GPGGA,140010.000,2217.980187,N,11410.658212,E,1,19,0.8,-9.5,M,,M,,*61
$GPRMC,140010.000,A,2217.980187,N,11410.658212,E,0.0,0.0,120721,,E,A*2E
$GPGGA,140011.000,2217.980193,N,11410.658222,E,1,19,0.8,-9.6,M,,M,,*65
$GPRMC,140011.000,A,2217.980193,N,11410.658222,E,0.0,0.0,120721,,E,A*29
$GPGGA,140012.000,2217.980206,N,11410.658256,E,1,19,0.8,-9.5,M,,M,,*69
$GPRMC,140012.000,A,2217.980206,N,11410.658256,E,0.0,0.0,120721,,E,A*26
$GPGGA,140013.000,2217.980199,N,11410.658261,E,1,19,0.8,-9.5,M,,M,,*69
$GPRMC,140013.000,A,2217.980199,N,11410.658261,E,0.0,0.0,120721,,E,A*26
$GPGGA,140014.000,2217.980188,N,11410.658251,E,1,19,0.8,-9.5,M,,M,,*6D
$GPRMC,140014.000,A,2217.980188,N,11410.658251,E,0.0,0.0,120721,,E,A*22
$GPGGA,140015.000,2217.980188,N,11410.658251,E,1,19,0.8,-9.5,M,,M,,*6C
$GPRMC,140015.000,A,2217.980188,N,11410.658251,E,0.0,0.0,120721,,E,A*23
$GPGGA,140016.000,2217.980185,N,11410.658261,E,1,19,0.8,-9.5,M,,M,,*61
$GPRMC,140016.000,A,2217.980185,N,11410.658261,E,0.0,0.0,120721,,E,A*2E
$GPGGA,140017.000,2217.980200,N,11410.658265,E,1,19,0.8,-9.6,M,,M,,*69
$GPRMC,140017.000,A,2217.980200,N,11410.658265,E,0.0,0.0,120721,,E,A*25
$GPGGA,140018.000,2217.980185,N,11410.658295,E,1,19,0.8,-9.6,M,,M,,*67
$GPRMC,140018.000,A,2217.980185,N,11410.658295,E,0.0,0.0,120721,,E,A*2B
$GPGGA,140019.000,2217.980185,N,11410.658299,E,1,19,0.8,-9.6,M,,M,,*6A
$GPRMC,140019.000,A,2217.980185,N,11410.658299,E,0.0,0.0,120721,,E,A*26
$GPGGA,140020.000,2217.980186,N,11410.658297,E,1,19,0.8,-9.6,M,,M,,*6D
$GPRMC,140020.000,A,2217.980186,N,11410.658297,E,0.0,0.0,120721,,E,A*21
$GPGGA,140021.000,2217.980212,N,11410.658245,E,1,19,0.8,-9.6,M,,M,,*6D
$GPRMC,140021.000,A,2217.980212,N,11410.658245,E,0.0,0.0,120721,,E,A*21
$GPGGA,140022.000,2217.980218,N,11410.658219,E,1,19,0.8,-9.6,M,,M,,*6D
$GPRMC,140022.000,A,2217.980218,N,11410.658219,E,0.0,0.0,120721,,E,A*21
$GPGGA,140023.000,2217.980209,N,11410.658221,E,1,19,0.8,-9.6,M,,M,,*67
$GPRMC,140023.000,A,2217.980209,N,11410.658221,E,0.0,0.0,120721,,E,A*2B
$GPGGA,140024.000,2217.980207,N,11410.658231,E,1,19,0.8,-9.6,M,,M,,*6F
$GPRMC,140024.000,A,2217.980207,N,11410.658231,E,0.0,0.0,120721,,E,A*23
$GPGGA,140025.000,2217.980208,N,11410.658230,E,1,19,0.8,-9.6,M,,M,,*60
$GPRMC,140025.000,A,2217.980208,N,11410.658230,E,0.0,0.0,120721,,E,A*2C
$GPGGA,140026.000,2217.980212,N,11410.658232,E,1,19,0.8,-9.6,M,,M,,*6A
$GPRMC,140026.000,A,2217.980212,N,11410.658232,E,0.0,0.0,120721,,E,A*26
$GPGGA,140027.000,2217.980206,N,11410.658235,E,1,19,0.8,-9.5,M,,M,,*6A
$GPRMC,140027.000,A,2217.980206,N,11410.658235,E,0.0,0.0,120721,,E,A*25
$GPGGA,140028.000,2217.980219,N,11410.658219,E,1,19,0.8,-9.5,M,,M,,*65
$GPRMC,140028.000,A,2217.980219,N,11410.658219,E,0.0,0.0,120721,,E,A*2A
$GPGGA,140029.000,2217.980178,N,11410.658169,E,1,19,0.8,-9.5,M,,M,,*64
$GPRMC,140029.000,A,2217.980178,N,11410.658169,E,0.0,0.0,120721,,E,A*2B
$GPGGA,140030.000,2217.980173,N,11410.658163,E,1,19,0.8,-9.5,M,,M,,*6D
$GPRMC,140030.000,A,2217.980173,N,11410.658163,E,0.0,0.0,120721,,E,A*22
$GPGGA,140031.000,2217.980173,N,11410.658153,E,1,19,0.8,-9.5,M,,M,,*6F
$GPRMC,140031.000,A,2217.980173,N,11410.658153,E,0.0,0.0,120721,,E,A*20
$GPGGA,140032.000,2217.980169,N,11410.658106,E,1,19,0.8,-9.5,M,,M,,*67
$GPRMC,140032.000,A,2217.980169,N,11410.658106,E,0.0,0.0,120721,,E,A*28
$GPGGA,140033.000,2217.980157,N,11410.658112,E,1,19,0.8,-9.5,M,,M,,*6E
$GPRMC,140033.000,A,2217.980157,N,11410.658112,E,0.0,0.0,120721,,E,A*21
$GPGGA,140034.000,2217.980179,N,11410.658117,E,1,19,0.8,-9.5,M,,M,,*60
$GPRMC,140034.000,A,2217.980179,N,11410.658117,E,0.0,0.0,120721,,E,A*2F
$GPGGA,140035.000,2217.980177,N,11410.658109,E,1,19,0.8,-9.5,M,,M,,*60
$GPRMC,140035.000,A,2217.980177,N,11410.658109,E,0.0,0.0,120721,,E,A*2F
$GPGGA,140036.000,2217.980177,N,11410.658109,E,1,19,0.8,-9.5,M,,M,,*63
$GPRMC,140036.000,A,2217.980177,N,11410.658109,E,0.0,0.0,120721,,E,A*2C
$GPGGA,140037.000,2217.980118,N,11410.658104,E,1,19,0.8,-9.5,M,,M,,*66
$GPRMC,140037.000,A,2217.980118,N,11410.658104,E,0.0,0.0,120721,,E,A*29
$GPGGA,140038.000,2217.980095,N,11410.658111,E,1,19,0.8,-9.5,M,,M,,*69
$GPRMC,140038.000,A,2217.980095,N,11410.658111,E,0.0,0.0,120721,,E,A*26
$GPGGA,140039.000,2217.980022,N,11410.658148,E,1,19,0.8,-9.8,M,,M,,*65
$GPRMC,140039.000,A,2217.980022,N,11410.658148,E,0.4,60.538952113,120721,,E,A*16
$GPGGA,140040.000,2217.979882,N,11410.658173,E,1,19,0.8,-10.2,M,,M,,*55
$GPRMC,140040.000,A,2217.979882,N,11410.658173,E,0.5,0.0,120721,,E,A*20
$GPGGA,140041.000,2217.979778,N,11410.658197,E,1,19,0.8,-10.4,M,,M,,*52
$GPRMC,140041.000,A,2217.979778,N,11410.658197,E,0.4,0.0,120721,,E,A*20
$GPGGA,140042.000,2217.979678,N,11410.658219,E,1,19,0.8,-10.6,M,,M,,*57
$GPRMC,140042.000,A,2217.979678,N,11410.658219,E,0.4,0.0,120721,,E,A*27
$GPGGA,140043.000,2217.979745,N,11410.658315,E,1,19,0.8,-10.3,M,,M,,*51
$GPRMC,140043.000,A,2217.979745,N,11410.658315,E,0.2,0.0,120721,,E,A*22
$GPGGA,140044.000,2217.979804,N,11410.658207,E,1,19,0.8,-9.6,M,,M,,*63
$GPRMC,140044.000,A,2217.979804,N,11410.658207,E,0.7,0.0,120721,,E,A*28
$GPGGA,140045.000,2217.979882,N,11410.658073,E,1,19,0.8,-9.0,M,,M,,*6B
$GPRMC,140045.000,A,2217.979882,N,11410.658073,E,0.4,0.0,120721,,E,A*25
$GPGGA,140046.000,2217.979914,N,11410.657948,E,1,19,0.8,-8.9,M,,M,,*60
$GPRMC,140046.000,A,2217.979914,N,11410.657948,E,0.4,0.0,120721,,E,A*26
$GPGGA,140047.000,2217.979733,N,11410.657995,E,1,19,0.8,-8.9,M,,M,,*6A
$GPRMC,140047.000,A,2217.979733,N,11410.657995,E,0.4,0.0,120721,,E,A*2C
$GPGGA,140048.000,2217.979665,N,11410.657951,E,1,19,0.8,-8.9,M,,M,,*6F
$GPRMC,140048.000,A,2217.979665,N,11410.657951,E,0.3,0.0,120721,,E,A*2E
$GPGGA,140049.000,2217.979779,N,11410.657955,E,1,19,0.8,-9.0,M,,M,,*6E
$GPRMC,140049.000,A,2217.979779,N,11410.657955,E,0.5,0.0,120721,,E,A*21
$GPGGA,140050.000,2217.979916,N,11410.657943,E,1,19,0.8,-9.2,M,,M,,*64
$GPRMC,140050.000,A,2217.979916,N,11410.657943,E,0.5,0.0,120721,,E,A*29
$GPGGA,140051.000,2217.979890,N,11410.657859,E,1,19,0.8,-9.0,M,,M,,*62
$GPRMC,140051.000,A,2217.979890,N,11410.657859,E,0.2,0.0,120721,,E,A*2A
$GPGGA,140052.000,2217.979937,N,11410.657792,E,1,19,0.8,-8.7,M,,M,,*63
$GPRMC,140052.000,A,2217.979937,N,11410.657792,E,0.3,0.0,120721,,E,A*2C
$GPGGA,140053.000,2217.979901,N,11410.657664,E,1,19,0.8,-8.4,M,,M,,*6C
$GPRMC,140053.000,A,2217.979901,N,11410.657664,E,0.3,0.0,120721,,E,A*20
$GPGGA,140054.000,2217.980083,N,11410.657607,E,1,19,0.8,-8.1,M,,M,,*6E
$GPRMC,140054.000,A,2217.980083,N,11410.657607,E,0.5,0.0,120721,,E,A*21
$GPGGA,140055.000,2217.979935,N,11410.657429,E,1,19,0.8,-8.3,M,,M,,*61
$GPRMC,140055.000,A,2217.979935,N,11410.657429,E,0.7,0.0,120721,,E,A*2E
$GPGGA,140056.000,2217.979795,N,11410.657333,E,1,19,0.8,-8.2,M,,M,,*6B
$GPRMC,140056.000,A,2217.979795,N,11410.657333,E,0.6,0.0,120721,,E,A*24
$GPGGA,140057.000,2217.979672,N,11410.657232,E,1,19,0.8,-8.0,M,,M,,*60
$GPRMC,140057.000,A,2217.979672,N,11410.657232,E,0.6,0.0,120721,,E,A*2D
$GPGGA,140058.000,2217.979747,N,11410.657384,E,1,19,0.8,-7.9,M,,M,,*62
$GPRMC,140058.000,A,2217.979747,N,11410.657384,E,0.2,0.0,120721,,E,A*2D
$GPGGA,140059.000,2217.979856,N,11410.657475,E,1,19,0.8,-7.7,M,,M,,*6B
$GPRMC,140059.000,A,2217.979856,N,11410.657475,E,0.6,55.830844606999996,120721,,E,A*12
$GPGGA,140100.000,2217.979992,N,11410.657625,E,1,19,0.8,-7.5,M,,M,,*6A
$GPRMC,140100.000,A,2217.979992,N,11410.657625,E,0.7,55.852161627,120721,,E,A*16
$GPGGA,140101.000,2217.979959,N,11410.657642,E,1,19,0.8,-7.5,M,,M,,*6D
$GPRMC,140101.000,A,2217.979959,N,11410.657642,E,0.2,0.0,120721,,E,A*2E
$GPGGA,140102.000,2217.980021,N,11410.657782,E,1,19,0.8,-7.5,M,,M,,*63
$GPRMC,140102.000,A,2217.980021,N,11410.657782,E,0.4,62.215715763,120721,,E,A*15
$GPGGA,140103.000,2217.980040,N,11410.657811,E,1,19,0.8,-7.5,M,,M,,*60
$GPRMC,140103.000,A,2217.980040,N,11410.657811,E,0.2,0.0,120721,,E,A*23
$GPGGA,140104.000,2217.980064,N,11410.657855,E,1,19,0.8,-7.6,M,,M,,*62
$GPRMC,140104.000,A,2217.980064,N,11410.657855,E,0.2,0.0,120721,,E,A*22
$GPGGA,140105.000,2217.979953,N,11410.657754,E,1,19,0.8,-7.8,M,,M,,*68
$GPRMC,140105.000,A,2217.979953,N,11410.657754,E,0.3,0.0,120721,,E,A*27
$GPGGA,140106.000,2217.979851,N,11410.657758,E,1,19,0.8,-7.7,M,,M,,*6B
$GPRMC,140106.000,A,2217.979851,N,11410.657758,E,0.4,0.0,120721,,E,A*2C
$GPGGA,140107.000,2217.979728,N,11410.657736,E,1,19,0.8,-7.6,M,,M,,*62
$GPRMC,140107.000,A,2217.979728,N,11410.657736,E,0.4,59.527783576000004,120721,,E,A*14
$GPGGA,140108.000,2217.979595,N,11410.657719,E,1,19,0.8,-7.6,M,,M,,*64
$GPRMC,140108.000,A,2217.979595,N,11410.657719,E,0.5,0.0,120721,,E,A*23
$GPGGA,140109.000,2217.979486,N,11410.657722,E,1,19,0.8,-7.5,M,,M,,*6D
$GPRMC,140109.000,A,2217.979486,N,11410.657722,E,0.4,0.0,120721,,E,A*28
$GPGGA,140110.000,2217.979647,N,11410.657671,E,1,19,0.8,-7.4,M,,M,,*6C
$GPRMC,140110.000,A,2217.979647,N,11410.657671,E,0.3,0.0,120721,,E,A*2F
$GPGGA,140111.000,2217.979774,N,11410.657760,E,1,19,0.8,-7.1,M,,M,,*68
$GPRMC,140111.000,A,2217.979774,N,11410.657760,E,0.3,0.0,120721,,E,A*2E
$GPGGA,140112.000,2217.979844,N,11410.657703,E,1,19,0.8,-7.4,M,,M,,*67
$GPRMC,140112.000,A,2217.979844,N,11410.657703,E,0.4,0.0,120721,,E,A*23
$GPGGA,140113.000,2217.979929,N,11410.657630,E,1,19,0.8,-7.7,M,,M,,*6E
$GPRMC,140113.000,A,2217.979929,N,11410.657630,E,0.4,62.415806157,120721,,E,A*10
$GPGGA,140114.000,2217.979773,N,11410.657370,E,1,19,0.8,-8.0,M,,M,,*61
$GPRMC,140114.000,A,2217.979773,N,11410.657370,E,0.6,0.0,120721,,E,A*2C
$GPGGA,140115.000,2217.979788,N,11410.657314,E,1,19,0.8,-8.0,M,,M,,*66
$GPRMC,140115.000,A,2217.979788,N,11410.657314,E,0.3,0.0,120721,,E,A*2E
$GPGGA,140116.000,2217.979801,N,11410.657228,E,1,19,0.8,-7.9,M,,M,,*63
$GPRMC,140116.000,A,2217.979801,N,11410.657228,E,0.3,0.0,120721,,E,A*2D
$GPGGA,140117.000,2217.979753,N,11410.657500,E,1,19,0.8,-7.7,M,,M,,*69
$GPRMC,140117.000,A,2217.979753,N,11410.657500,E,0.4,0.0,120721,,E,A*2E
$GPGGA,140118.000,2217.979665,N,11410.657549,E,1,19,0.8,-8.2,M,,M,,*65
$GPRMC,140118.000,A,2217.979665,N,11410.657549,E,0.3,0.0,120721,,E,A*2F
$GPGGA,140119.000,2217.979642,N,11410.657646,E,1,19,0.8,-8.5,M,,M,,*6A
$GPRMC,140119.000,A,2217.979642,N,11410.657646,E,0.3,0.0,120721,,E,A*27
$GPGGA,140120.000,2217.979576,N,11410.657673,E,1,19,0.8,-8.9,M,,M,,*6E
$GPRMC,140120.000,A,2217.979576,N,11410.657673,E,0.2,0.0,120721,,E,A*2E
$GPGGA,140121.000,2217.979522,N,11410.657680,E,1,19,0.8,-9.2,M,,M,,*68
$GPRMC,140121.000,A,2217.979522,N,11410.657680,E,0.2,0.0,120721,,E,A*22
$GPGGA,140122.000,2217.979501,N,11410.657677,E,1,19,0.8,-9.3,M,,M,,*63
$GPRMC,140122.000,A,2217.979501,N,11410.657677,E,0.1,0.0,120721,,E,A*2B
$GPGGA,140123.000,2217.979414,N,11410.657571,E,1,19,0.8,-9.5,M,,M,,*64
$GPRMC,140123.000,A,2217.979414,N,11410.657571,E,0.4,0.0,120721,,E,A*2F
$GPGGA,140124.000,2217.979215,N,11410.657440,E,1,19,0.8,-9.8,M,,M,,*6A
$GPRMC,140124.000,A,2217.979215,N,11410.657440,E,0.7,0.0,120721,,E,A*2F
$GPGGA,140125.000,2217.979045,N,11410.657350,E,1,19,0.8,-10.1,M,,M,,*5B
$GPRMC,140125.000,A,2217.979045,N,11410.657350,E,0.7,0.0,120721,,E,A*2F
$GPGGA,140126.000,2217.978918,N,11410.657147,E,1,19,0.8,-9.8,M,,M,,*6D
$GPRMC,140126.000,A,2217.978918,N,11410.657147,E,0.8,0.0,120721,,E,A*27
$GPGGA,140127.000,2217.978803,N,11410.656941,E,1,19,0.8,-9.5,M,,M,,*65
$GPRMC,140127.000,A,2217.978803,N,11410.656941,E,0.8,0.0,120721,,E,A*22
$GPGGA,140128.000,2217.978651,N,11410.656752,E,1,19,0.8,-9.6,M,,M,,*6C
$GPRMC,140128.000,A,2217.978651,N,11410.656752,E,0.8,0.0,120721,,E,A*28
$GPGGA,140129.000,2217.978609,N,11410.656628,E,1,19,0.8,-9.7,M,,M,,*6D
$GPRMC,140129.000,A,2217.978609,N,11410.656628,E,0.6,0.0,120721,,E,A*26
$GPGGA,140130.000,2217.978502,N,11410.656483,E,1,19,0.8,-9.5,M,,M,,*6C
$GPRMC,140130.000,A,2217.978502,N,11410.656483,E,0.6,0.0,120721,,E,A*25
$GPGGA,140131.000,2217.978396,N,11410.656380,E,1,19,0.8,-9.3,M,,M,,*64
$GPRMC,140131.000,A,2217.978396,N,11410.656380,E,0.6,0.0,120721,,E,A*2B
$GPGGA,140132.000,2217.978264,N,11410.656329,E,1,19,0.8,-8.9,M,,M,,*63
$GPRMC,140132.000,A,2217.978264,N,11410.656329,E,0.5,0.0,120721,,E,A*24
$GPGGA,140133.000,2217.978143,N,11410.656274,E,1,19,0.8,-8.7,M,,M,,*63
$GPRMC,140133.000,A,2217.978143,N,11410.656274,E,0.5,0.0,120721,,E,A*2A
$GPGGA,140134.000,2217.978047,N,11410.656236,E,1,19,0.8,-8.9,M,,M,,*69
$GPRMC,140134.000,A,2217.978047,N,11410.656236,E,0.4,0.0,120721,,E,A*2F
$GPGGA,140135.000,2217.978317,N,11410.656317,E,1,19,0.8,-8.8,M,,M,,*6D
$GPRMC,140135.000,A,2217.978317,N,11410.656317,E,0.4,0.0,120721,,E,A*2A
$GPGGA,140136.000,2217.978409,N,11410.656334,E,1,19,0.8,-9.1,M,,M,,*6F
$GPRMC,140136.000,A,2217.978409,N,11410.656334,E,0.2,0.0,120721,,E,A*26
$GPGGA,140137.000,2217.978428,N,11410.656240,E,1,19,0.8,-9.5,M,,M,,*6B
$GPRMC,140137.000,A,2217.978428,N,11410.656240,E,0.2,0.0,120721,,E,A*26
$GPGGA,140138.000,2217.978423,N,11410.656144,E,1,19,0.8,-9.6,M,,M,,*6B
$GPRMC,140138.000,A,2217.978423,N,11410.656144,E,0.3,58.841055858000004,120721,,E,A*15
$GPGGA,140139.000,2217.978362,N,11410.656126,E,1,19,0.8,-9.5,M,,M,,*6F
$GPRMC,140139.000,A,2217.978362,N,11410.656126,E,0.2,0.0,120721,,E,A*22
$GPGGA,140140.000,2217.978291,N,11410.656083,E,1,19,0.8,-9.5,M,,M,,*62
$GPRMC,140140.000,A,2217.978291,N,11410.656083,E,0.3,58.86531669,120721,,E,A*23
$GPGGA,140141.000,2217.978335,N,11410.656031,E,1,19,0.8,-9.3,M,,M,,*63
$GPRMC,140141.000,A,2217.978335,N,11410.656031,E,0.2,56.164926238,120721,,E,A*1C
$GPGGA,140142.000,2217.978337,N,11410.656010,E,1,19,0.8,-9.4,M,,M,,*66
$GPRMC,140142.000,A,2217.978337,N,11410.656010,E,0.1,56.175185183,120721,,E,A*1F
$GPGGA,140143.000,2217.978397,N,11410.656055,E,1,19,0.8,-9.8,M,,M,,*60
$GPRMC,140143.000,A,2217.978397,N,11410.656055,E,0.2,58.907281373000004,120721,,E,A*1B
$GPGGA,140144.000,2217.978507,N,11410.656062,E,1,19,0.8,-10.0,M,,M,,*5C
$GPRMC,140144.000,A,2217.978507,N,11410.656062,E,0.4,58.918230166,120721,,E,A*17
$GPGGA,140145.000,2217.978578,N,11410.656003,E,1,19,0.8,-10.2,M,,M,,*50
$GPRMC,140145.000,A,2217.978578,N,11410.656003,E,0.3,58.909904166000004,120721,,E,A*16
$GPGGA,140146.000,2217.978568,N,11410.655946,E,1,19,0.8,-10.6,M,,M,,*5D
$GPRMC,140146.000,A,2217.978568,N,11410.655946,E,0.1,58.915006317,120721,,E,A*1B
$GPGGA,140147.000,2217.978593,N,11410.655995,E,1,19,0.8,-10.9,M,,M,,*59
$GPRMC,140147.000,A,2217.978593,N,11410.655995,E,0.2,58.93078405399999,120721,,E,A*23
$GPGGA,140148.000,2217.978654,N,11410.655978,E,1,19,0.8,-10.9,M,,M,,*5D
$GPRMC,140148.000,A,2217.978654,N,11410.655978,E,0.1,58.94615198,120721,,E,A*25
$GPGGA,140149.000,2217.978668,N,11410.655951,E,1,19,0.8,-10.9,M,,M,,*58
$GPRMC,140149.000,A,2217.978668,N,11410.655951,E,0.1,58.963357226999996,120721,,E,A*1B
$GPGGA,140150.000,2217.978719,N,11410.655968,E,1,19,0.8,-10.7,M,,M,,*53
$GPRMC,140150.000,A,2217.978719,N,11410.655968,E,0.1,0.0,120721,,E,A*27
$GPGGA,140151.000,2217.978794,N,11410.655973,E,1,19,0.8,-10.7,M,,M,,*5D
$GPRMC,140151.000,A,2217.978794,N,11410.655973,E,0.2,0.0,120721,,E,A*2A
$GPGGA,140152.000,2217.978817,N,11410.655998,E,1,19,0.8,-10.9,M,,M,,*51
$GPRMC,140152.000,A,2217.978817,N,11410.655998,E,0.2,0.0,120721,,E,A*28
$GPGGA,140153.000,2217.978944,N,11410.656118,E,1,19,0.8,-11.2,M,,M,,*5E
$GPRMC,140153.000,A,2217.978944,N,11410.656118,E,0.6,0.0,120721,,E,A*29
$GPGGA,140154.000,2217.978982,N,11410.656296,E,1,19,0.8,-11.0,M,,M,,*54
$GPRMC,140154.000,A,2217.978982,N,11410.656296,E,0.6,0.0,120721,,E,A*21
$GPGGA,140155.000,2217.978982,N,11410.656469,E,1,19,0.8,-10.8,M,,M,,*5A
$GPRMC,140155.000,A,2217.978982,N,11410.656469,E,0.6,0.0,120721,,E,A*26
$GPGGA,140156.000,2217.979113,N,11410.656546,E,1,19,0.8,-10.1,M,,M,,*5D
$GPRMC,140156.000,A,2217.979113,N,11410.656546,E,0.5,0.0,120721,,E,A*2B
$GPGGA,140157.000,2217.979280,N,11410.656527,E,1,19,0.8,-9.5,M,,M,,*6E
$GPRMC,140157.000,A,2217.979280,N,11410.656527,E,0.4,0.0,120721,,E,A*25
$GPGGA,140158.000,2217.979022,N,11410.656655,E,1,19,0.8,-9.2,M,,M,,*6A
$GPRMC,140158.000,A,2217.979022,N,11410.656655,E,0.5,0.0,120721,,E,A*27
$GPGGA,140159.000,2217.978840,N,11410.656724,E,1,19,0.8,-8.8,M,,M,,*6A
$GPRMC,140159.000,A,2217.978840,N,11410.656724,E,0.7,0.0,120721,,E,A*2E
$GPGGA,140200.000,2217.978863,N,11410.656555,E,1,19,0.8,-7.7,M,,M,,*60
$GPRMC,140200.000,A,2217.978863,N,11410.656555,E,0.7,56.379349785,120721,,E,A*1E
$GPGGA,140201.000,2217.978731,N,11410.656623,E,1,19,0.8,-7.7,M,,M,,*6B
$GPRMC,140201.000,A,2217.978731,N,11410.656623,E,0.6,56.453593942,120721,,E,A*1F
$GPGGA,140202.000,2217.978612,N,11410.656648,E,1,19,0.8,-7.7,M,,M,,*65
$GPRMC,140202.000,A,2217.978612,N,11410.656648,E,0.5,56.47175883,120721,,E,A*23
$GPGGA,140203.000,2217.978690,N,11410.656549,E,1,19,0.8,-7.1,M,,M,,*6A
$GPRMC,140203.000,A,2217.978690,N,11410.656549,E,0.3,56.494114038999996,120721,,E,A*16
$GPGGA,140204.000,2217.978943,N,11410.656399,E,1,19,0.8,-6.5,M,,M,,*62
$GPRMC,140204.000,A,2217.978943,N,11410.656399,E,0.1,56.505199436999995,120721,,E,A*1C
$GPGGA,140205.000,2217.979052,N,11410.656185,E,1,19,0.8,-5.8,M,,M,,*6A
$GPRMC,140205.000,A,2217.979052,N,11410.656185,E,0.1,0.0,120721,,E,A*25
$GPGGA,140206.000,2217.978368,N,11410.655243,E,1,19,0.8,-6.1,M,,M,,*62
$GPRMC,140206.000,A,2217.978368,N,11410.655243,E,1.2,0.0,120721,,E,A*25
$GPGGA,140207.000,2217.978312,N,11410.655252,E,1,19,0.8,-6.2,M,,M,,*6D
$GPRMC,140207.000,A,2217.978312,N,11410.655252,E,0.1,0.0,120721,,E,A*2B
$GPGGA,140208.000,2217.978363,N,11410.655206,E,1,19,0.8,-5.4,M,,M,,*60
$GPRMC,140208.000,A,2217.978363,N,11410.655206,E,0.3,0.0,120721,,E,A*21
$GPGGA,140209.000,2217.978577,N,11410.655276,E,1,19,0.8,-4.6,M,,M,,*66
$GPRMC,140209.000,A,2217.978577,N,11410.655276,E,0.3,0.0,120721,,E,A*24
$GPGGA,140210.000,2217.978861,N,11410.655102,E,1,19,0.8,-4.5,M,,M,,*67
$GPRMC,140210.000,A,2217.978861,N,11410.655102,E,0.5,0.0,120721,,E,A*20
$GPGGA,140211.000,2217.979058,N,11410.654928,E,1,19,0.8,-4.0,M,,M,,*61
$GPRMC,140211.000,A,2217.979058,N,11410.654928,E,0.9,0.0,120721,,E,A*2F
$GPGGA,140212.000,2217.979157,N,11410.654735,E,1,19,0.8,-3.2,M,,M,,*6B
$GPRMC,140212.000,A,2217.979157,N,11410.654735,E,0.8,56.599339935,120721,,E,A*11
$GPGGA,140213.000,2217.979048,N,11410.654659,E,1,19,0.8,-3.5,M,,M,,*69
$GPRMC,140213.000,A,2217.979048,N,11410.654659,E,0.2,0.0,120721,,E,A*2E
$GPGGA,140214.000,2217.979053,N,11410.654537,E,1,19,0.8,-3.5,M,,M,,*6F
$GPRMC,140214.000,A,2217.979053,N,11410.654537,E,0.3,0.0,120721,,E,A*29
$GPGGA,140215.000,2217.978871,N,11410.654302,E,1,19,0.8,-3.2,M,,M,,*60
$GPRMC,140215.000,A,2217.978871,N,11410.654302,E,0.3,0.0,120721,,E,A*21
$GPGGA,140216.000,2217.978804,N,11410.654331,E,1,19,0.8,-3.3,M,,M,,*60
$GPRMC,140216.000,A,2217.978804,N,11410.654331,E,0.2,0.0,120721,,E,A*21
$GPGGA,140217.000,2217.978744,N,11410.654302,E,1,19,0.8,-3.5,M,,M,,*6C
$GPRMC,140217.000,A,2217.978744,N,11410.654302,E,0.2,0.0,120721,,E,A*2B
$GPGGA,140218.000,2217.978597,N,11410.654107,E,1,19,0.8,-3.3,M,,M,,*6E
$GPRMC,140218.000,A,2217.978597,N,11410.654107,E,0.2,56.640478165,120721,,E,A*17
$GPGGA,140219.000,2217.978458,N,11410.654016,E,1,19,0.8,-3.7,M,,M,,*68
$GPRMC,140219.000,A,2217.978458,N,11410.654016,E,0.2,56.646150637,120721,,E,A*1C
$GPGGA,140220.000,2217.977784,N,11410.653525,E,1,19,0.8,-3.6,M,,M,,*6C
$GPRMC,140220.000,A,2217.977784,N,11410.653525,E,1.3,56.674813526,120721,,E,A*15
$GPGGA,140221.000,2217.977576,N,11410.653239,E,1,19,0.8,-3.7,M,,M,,*69
$GPRMC,140221.000,A,2217.977576,N,11410.653239,E,0.9,56.670930563999995,120721,,E,A*13
$GPGGA,140222.000,2217.977627,N,11410.653037,E,1,19,0.8,-3.3,M,,M,,*65
$GPRMC,140222.000,A,2217.977627,N,11410.653037,E,0.7,56.700337943,120721,,E,A*1C
$GPGGA,140223.000,2217.977722,N,11410.652958,E,1,19,0.8,-3.2,M,,M,,*60
$GPRMC,140223.000,A,2217.977722,N,11410.652958,E,0.5,56.715255076999995,120721,,E,A*18
$GPGGA,140224.000,2217.977809,N,11410.652881,E,1,19,0.8,-3.2,M,,M,,*64
$GPRMC,140224.000,A,2217.977809,N,11410.652881,E,0.4,56.70883469899999,120721,,E,A*2F
$GPGGA,140225.000,2217.977990,N,11410.652749,E,1,19,0.8,-3.0,M,,M,,*6D
$GPRMC,140225.000,A,2217.977990,N,11410.652749,E,0.4,56.728010455,120721,,E,A*12
$GPGGA,140226.000,2217.978094,N,11410.652640,E,1,19,0.8,-3.0,M,,M,,*64
$GPRMC,140226.000,A,2217.978094,N,11410.652640,E,0.4,56.720688492,120721,,E,A*1F
$GPGGA,140227.000,2217.978155,N,11410.652558,E,1,19,0.8,-3.1,M,,M,,*62
$GPRMC,140227.000,A,2217.978155,N,11410.652558,E,0.4,56.762192137,120721,,E,A*18
$GPGGA,140228.000,2217.978184,N,11410.652646,E,1,19,0.8,-3.2,M,,M,,*6E
$GPRMC,140228.000,A,2217.978184,N,11410.652646,E,0.2,56.774261081999995,120721,,E,A*19
$GPGGA,140229.000,2217.978237,N,11410.652632,E,1,19,0.8,-3.3,M,,M,,*66
$GPRMC,140229.000,A,2217.978237,N,11410.652632,E,0.2,56.792306442,120721,,E,A*1F
$GPGGA,140230.000,2217.978248,N,11410.652577,E,1,19,0.8,-3.1,M,,M,,*66
$GPRMC,140230.000,A,2217.978248,N,11410.652577,E,0.2,56.806919631999996,120721,,E,A*12
$GPGGA,140231.000,2217.978185,N,11410.652432,E,1,19,0.8,-3.0,M,,M,,*64
$GPRMC,140231.000,A,2217.978185,N,11410.652432,E,0.2,56.83574986,120721,,E,A*2F
$GPGGA,140232.000,2217.978202,N,11410.652381,E,1,19,0.8,-3.0,M,,M,,*64
$GPRMC,140232.000,A,2217.978202,N,11410.652381,E,0.2,0.0,120721,,E,A*26
$GPGGA,140233.000,2217.978239,N,11410.652230,E,1,19,0.8,-2.9,M,,M,,*6E
$GPRMC,140233.000,A,2217.978239,N,11410.652230,E,0.2,63.755506796999995,120721,,E,A*11
$GPGGA,140234.000,2217.978329,N,11410.651840,E,1,19,0.8,-2.4,M,,M,,*6A
$GPRMC,140234.000,A,2217.978329,N,11410.651840,E,0.3,63.768812006000005,120721,,E,A*18
$GPGGA,140235.000,2217.978449,N,11410.651415,E,1,19,0.8,-1.9,M,,M,,*68
$GPRMC,140235.000,A,2217.978449,N,11410.651415,E,0.3,63.780355025,120721,,E,A*1E
$GPGGA,140236.000,2217.978136,N,11410.651366,E,1,19,0.8,-2.1,M,,M,,*6E
$GPRMC,140236.000,A,2217.978136,N,11410.651366,E,0.3,0.0,120721,,E,A*2D
$GPGGA,140237.000,2217.977907,N,11410.651282,E,1,19,0.8,-2.7,M,,M,,*67
$GPRMC,140237.000,A,2217.977907,N,11410.651282,E,0.7,0.0,120721,,E,A*26
$GPGGA,140238.000,2217.977846,N,11410.651116,E,1,19,0.8,-2.8,M,,M,,*6D
$GPRMC,140238.000,A,2217.977846,N,11410.651116,E,0.6,0.0,120721,,E,A*22
$GPGGA,140239.000,2217.978243,N,11410.651027,E,1,19,0.8,-2.5,M,,M,,*62
$GPRMC,140239.000,A,2217.978243,N,11410.651027,E,0.8,0.0,120721,,E,A*2E
$GPGGA,140240.000,2217.978334,N,11410.650996,E,1,19,0.8,-2.2,M,,M,,*68
$GPRMC,140240.000,A,2217.978334,N,11410.650996,E,0.2,0.0,120721,,E,A*29
$GPGGA,140241.000,2217.978482,N,11410.650719,E,1,19,0.8,-2.3,M,,M,,*6B
$GPRMC,140241.000,A,2217.978482,N,11410.650719,E,0.2,0.0,120721,,E,A*2B
$GPGGA,140242.000,2217.978838,N,11410.650747,E,1,19,0.8,-2.3,M,,M,,*6E
$GPRMC,140242.000,A,2217.978838,N,11410.650747,E,0.9,0.0,120721,,E,A*25
$GPGGA,140243.000,2217.979035,N,11410.650798,E,1,19,0.8,-2.3,M,,M,,*69
$GPRMC,140243.000,A,2217.979035,N,11410.650798,E,0.7,0.0,120721,,E,A*2C
$GPGGA,140244.000,2217.979319,N,11410.650857,E,1,19,0.8,-2.2,M,,M,,*6E
$GPRMC,140244.000,A,2217.979319,N,11410.650857,E,0.7,0.0,120721,,E,A*2A
$GPGGA,140245.000,2217.979185,N,11410.650767,E,1,19,0.8,-2.4,M,,M,,*62
$GPRMC,140245.000,A,2217.979185,N,11410.650767,E,0.2,0.0,120721,,E,A*25
$GPGGA,140246.000,2217.978946,N,11410.650668,E,1,19,0.8,-2.9,M,,M,,*64
$GPRMC,140246.000,A,2217.978946,N,11410.650668,E,0.7,0.0,120721,,E,A*2B
$GPGGA,140247.000,2217.978832,N,11410.650662,E,1,19,0.8,-2.7,M,,M,,*63
$GPRMC,140247.000,A,2217.978832,N,11410.650662,E,0.6,0.0,120721,,E,A*23
$GPGGA,140248.000,2217.978803,N,11410.650656,E,1,19,0.8,-2.8,M,,M,,*66
$GPRMC,140248.000,A,2217.978803,N,11410.650656,E,0.3,0.0,120721,,E,A*2C
$GPGGA,140249.000,2217.978704,N,11410.650559,E,1,19,0.8,-3.0,M,,M,,*6A
$GPRMC,140249.000,A,2217.978704,N,11410.650559,E,0.4,0.0,120721,,E,A*2E
$GPGGA,140250.000,2217.978691,N,11410.650604,E,1,19,0.8,-2.8,M,,M,,*6D
$GPRMC,140250.000,A,2217.978691,N,11410.650604,E,0.4,0.0,120721,,E,A*20
$GPGGA,140251.000,2217.978537,N,11410.650558,E,1,19,0.8,-2.8,M,,M,,*69
$GPRMC,140251.000,A,2217.978537,N,11410.650558,E,0.5,0.0,120721,,E,A*25
$GPGGA,140252.000,2217.978480,N,11410.650554,E,1,19,0.8,-2.7,M,,M,,*64
$GPRMC,140252.000,A,2217.978480,N,11410.650554,E,0.3,0.0,120721,,E,A*21
$GPGGA,140253.000,2217.978536,N,11410.650719,E,1,19,0.8,-2.4,M,,M,,*61
$GPRMC,140253.000,A,2217.978536,N,11410.650719,E,0.3,0.0,120721,,E,A*27
$GPGGA,140254.000,2217.978691,N,11410.650766,E,1,19,0.8,-2.4,M,,M,,*60
$GPRMC,140254.000,A,2217.978691,N,11410.650766,E,0.1,0.0,120721,,E,A*24
$GPGGA,140255.000,2217.978790,N,11410.650730,E,1,19,0.8,-2.6,M,,M,,*60
$GPRMC,140255.000,A,2217.978790,N,11410.650730,E,0.3,0.0,120721,,E,A*24
$GPGGA,140256.000,2217.978995,N,11410.650760,E,1,19,0.8,-2.7,M,,M,,*6C
$GPRMC,140256.000,A,2217.978995,N,11410.650760,E,0.3,0.0,120721,,E,A*29
$GPGGA,140257.000,2217.979164,N,11410.650767,E,1,19,0.8,-2.7,M,,M,,*6D
$GPRMC,140257.000,A,2217.979164,N,11410.650767,E,0.3,0.0,120721,,E,A*28
$GPGGA,140258.000,2217.979328,N,11410.650784,E,1,19,0.8,-2.6,M,,M,,*64
$GPRMC,140258.000,A,2217.979328,N,11410.650784,E,0.2,63.660246146999995,120721,,E,A*1B
$GPGGA,140259.000,2217.979215,N,11410.650946,E,1,19,0.8,-2.5,M,,M,,*69
$GPRMC,140259.000,A,2217.979215,N,11410.650946,E,0.2,63.671229092,120721,,E,A*18
$GPGGA,140300.000,2217.979353,N,11410.650899,E,1,19,0.8,-2.6,M,,M,,*67
$GPRMC,140300.000,A,2217.979353,N,11410.650899,E,0.2,61.43533249,120721,,E,A*28
$GPGGA,140301.000,2217.979521,N,11410.651105,E,1,19,0.8,-2.4,M,,M,,*6A
$GPRMC,140301.000,A,2217.979521,N,11410.651105,E,0.2,61.443740453000004,120721,,E,A*1C
$GPGGA,140302.000,2217.979131,N,11410.651367,E,1,19,0.8,-2.1,M,,M,,*6F
$GPRMC,140302.000,A,2217.979131,N,11410.651367,E,0.8,0.0,120721,,E,A*27
$GPGGA,140303.000,2217.978928,N,11410.651494,E,1,19,0.8,-2.1,M,,M,,*64
$GPRMC,140303.000,A,2217.978928,N,11410.651494,E,0.8,0.0,120721,,E,A*2C
$GPGGA,140304.000,2217.978465,N,11410.651882,E,1,19,0.8,-2.1,M,,M,,*6C
$GPRMC,140304.000,A,2217.978465,N,11410.651882,E,1.6,0.0,120721,,E,A*2B
$GPGGA,140305.000,2217.978114,N,11410.652313,E,1,19,0.8,-2.4,M,,M,,*6B
$GPRMC,140305.000,A,2217.978114,N,11410.652313,E,1.9,0.0,120721,,E,A*26
$GPGGA,140306.000,2217.977628,N,11410.652752,E,1,19,0.8,-2.2,M,,M,,*68
$GPRMC,140306.000,A,2217.977628,N,11410.652752,E,2.2,0.0,120721,,E,A*2B
$GPGGA,140307.000,2217.977104,N,11410.653132,E,1,19,0.8,-1.9,M,,M,,*69
$GPRMC,140307.000,A,2217.977104,N,11410.653132,E,2.3,0.0,120721,,E,A*23
$GPGGA,140308.000,2217.976581,N,11410.653585,E,1,19,0.8,-1.5,M,,M,,*6A
$GPRMC,140308.000,A,2217.976581,N,11410.653585,E,2.5,0.0,120721,,E,A*2A
$GPGGA,140309.000,2217.976325,N,11410.654036,E,1,19,0.8,-1.3,M,,M,,*6F
$GPRMC,140309.000,A,2217.976325,N,11410.654036,E,1.7,0.0,120721,,E,A*28
$GPGGA,140310.000,2217.976057,N,11410.654435,E,1,19,0.8,-1.2,M,,M,,*67
$GPRMC,140310.000,A,2217.976057,N,11410.654435,E,1.6,0.0,120721,,E,A*20
$GPGGA,140311.000,2217.975725,N,11410.654889,E,1,19,0.8,-1.2,M,,M,,*6C
$GPRMC,140311.000,A,2217.975725,N,11410.654889,E,2.0,0.0,120721,,E,A*2E
$GPGGA,140312.000,2217.975362,N,11410.655339,E,1,19,0.8,-0.9,M,,M,,*63
$GPRMC,140312.000,A,2217.975362,N,11410.655339,E,2.0,0.0,120721,,E,A*2B
$GPGGA,140313.000,2217.974856,N,11410.655758,E,1,19,0.8,-0.9,M,,M,,*6C
$GPRMC,140313.000,A,2217.974856,N,11410.655758,E,2.2,0.0,120721,,E,A*26
$GPGGA,140314.000,2217.974397,N,11410.656108,E,1,19,0.8,-0.8,M,,M,,*6C
$GPRMC,140314.000,A,2217.974397,N,11410.656108,E,2.1,63.180964938,120721,,E,A*11
$GPGGA,140315.000,2217.973934,N,11410.656513,E,1,19,0.8,-0.8,M,,M,,*67
$GPRMC,140315.000,A,2217.973934,N,11410.656513,E,2.1,47.603949957,120721,,E,A*16
$GPGGA,140316.000,2217.973407,N,11410.656793,E,1,19,0.8,-0.7,M,,M,,*6C
$GPRMC,140316.000,A,2217.973407,N,11410.656793,E,2.1,47.630454506999996,120721,,E,A*14
$GPGGA,140317.000,2217.972877,N,11410.656951,E,1,19,0.8,-0.6,M,,M,,*66
$GPRMC,140317.000,A,2217.972877,N,11410.656951,E,2.0,47.631185337,120721,,E,A*1D
$GPGGA,140318.000,2217.972411,N,11410.657286,E,1,19,0.8,-0.3,M,,M,,*60
$GPRMC,140318.000,A,2217.972411,N,11410.657286,E,2.1,47.613641996000005,120721,,E,A*14
$GPGGA,140319.000,2217.971929,N,11410.657665,E,1,19,0.8,-0.2,M,,M,,*6C
$GPRMC,140319.000,A,2217.971929,N,11410.657665,E,2.1,47.62696428,120721,,E,A*2E
$GPGGA,140320.000,2217.971572,N,11410.658124,E,1,19,0.8,-0.3,M,,M,,*68
$GPRMC,140320.000,A,2217.971572,N,11410.658124,E,2.0,47.62963829899999,120721,,E,A*23
$GPGGA,140321.000,2217.971137,N,11410.658554,E,1,19,0.8,-0.6,M,,M,,*6A
$GPRMC,140321.000,A,2217.971137,N,11410.658554,E,2.2,47.634982922,120721,,E,A*17
$GPGGA,140322.000,2217.970732,N,11410.658994,E,1,19,0.8,-1.0,M,,M,,*6C
$GPRMC,140322.000,A,2217.970732,N,11410.658994,E,2.1,0.0,120721,,E,A*2D
$GPGGA,140323.000,2217.970499,N,11410.659602,E,1,19,0.8,-1.2,M,,M,,*6C
$GPRMC,140323.000,A,2217.970499,N,11410.659602,E,2.1,47.645989772,120721,,E,A*11
$GPGGA,140324.000,2217.970176,N,11410.660086,E,1,19,0.8,-1.4,M,,M,,*69
$GPRMC,140324.000,A,2217.970176,N,11410.660086,E,1.9,47.649934206000005,120721,,E,A*10
$GPGGA,140325.000,2217.969871,N,11410.660509,E,1,19,0.8,-1.2,M,,M,,*6A
$GPRMC,140325.000,A,2217.969871,N,11410.660509,E,1.7,47.654476282,120721,,E,A*15
$GPGGA,140326.000,2217.969557,N,11410.660885,E,1,19,0.8,-1.1,M,,M,,*6A
$GPRMC,140326.000,A,2217.969557,N,11410.660885,E,1.7,47.65470509399999,120721,,E,A*2A
$GPGGA,140327.000,2217.969322,N,11410.661295,E,1,19,0.8,-1.1,M,,M,,*65
$GPRMC,140327.000,A,2217.969322,N,11410.661295,E,1.6,47.368626031999995,120721,,E,A*13
$GPGGA,140328.000,2217.969075,N,11410.661592,E,1,19,0.8,-0.7,M,,M,,*6C
$GPRMC,140328.000,A,2217.969075,N,11410.661592,E,1.4,47.37738575,120721,,E,A*21
$GPGGA,140329.000,2217.968556,N,11410.661954,E,1,19,0.8,-0.8,M,,M,,*61
$GPRMC,140329.000,A,2217.968556,N,11410.661954,E,1.9,47.370449692,120721,,E,A*11
$GPGGA,140330.000,2217.968155,N,11410.662314,E,1,19,0.8,-1.1,M,,M,,*6B
$GPRMC,140330.000,A,2217.968155,N,11410.662314,E,1.9,47.488960306,120721,,E,A*1D
$GPGGA,140331.000,2217.967755,N,11410.662670,E,1,19,0.8,-1.0,M,,M,,*65
$GPRMC,140331.000,A,2217.967755,N,11410.662670,E,1.9,47.48510807899999,120721,,E,A*2A
$GPGGA,140332.000,2217.967367,N,11410.663090,E,1,19,0.8,-0.9,M,,M,,*62
$GPRMC,140332.000,A,2217.967367,N,11410.663090,E,2.0,47.504720968,120721,,E,A*1A
$GPGGA,140333.000,2217.967090,N,11410.663610,E,1,19,0.8,-1.5,M,,M,,*6B
$GPRMC,140333.000,A,2217.967090,N,11410.663610,E,2.0,47.515154081999995,120721,,E,A*19
$GPGGA,140334.000,2217.966693,N,11410.664043,E,1,19,0.8,-2.1,M,,M,,*68
$GPRMC,140334.000,A,2217.966693,N,11410.664043,E,2.0,47.521062196,120721,,E,A*15
$GPGGA,140335.000,2217.966212,N,11410.664477,E,1,19,0.8,-2.6,M,,M,,*60
$GPRMC,140335.000,A,2217.966212,N,11410.664477,E,2.2,47.511049138000004,120721,,E,A*12
$GPGGA,140336.000,2217.965727,N,11410.664874,E,1,19,0.8,-2.7,M,,M,,*6D
$GPRMC,140336.000,A,2217.965727,N,11410.664874,E,2.2,47.376767618,120721,,E,A*13
$GPGGA,140337.000,2217.965362,N,11410.665275,E,1,19,0.8,-2.5,M,,M,,*61
$GPRMC,140337.000,A,2217.965362,N,11410.665275,E,1.9,47.383635373000004,120721,,E,A*15
$GPGGA,140338.000,2217.964916,N,11410.665528,E,1,19,0.8,-2.3,M,,M,,*6F
$GPRMC,140338.000,A,2217.964916,N,11410.665528,E,1.8,47.392395091000004,120721,,E,A*1C
$GPGGA,140339.000,2217.964671,N,11410.666107,E,1,19,0.8,-1.4,M,,M,,*6E
$GPRMC,140339.000,A,2217.964671,N,11410.666107,E,1.8,47.427345169,120721,,E,A*1F
$GPGGA,140340.000,2217.964279,N,11410.666581,E,1,19,0.8,-0.7,M,,M,,*64
$GPRMC,140340.000,A,2217.964279,N,11410.666581,E,2.0,47.415733847,120721,,E,A*1D
$GPGGA,140341.000,2217.963928,N,11410.667032,E,1,19,0.8,-0.7,M,,M,,*61
$GPRMC,140341.000,A,2217.963928,N,11410.667032,E,2.0,47.416672998,120721,,E,A*1C
$GPGGA,140342.000,2217.963552,N,11410.667506,E,1,19,0.8,-0.7,M,,M,,*61
$GPRMC,140342.000,A,2217.963552,N,11410.667506,E,2.0,47.420231527,120721,,E,A*12
$GPGGA,140343.000,2217.963143,N,11410.667986,E,1,19,0.8,-0.7,M,,M,,*60
$GPRMC,140343.000,A,2217.963143,N,11410.667986,E,2.1,47.395916053,120721,,E,A*13
$GPGGA,140344.000,2217.962752,N,11410.668449,E,1,19,0.8,-0.6,M,,M,,*60
$GPRMC,140344.000,A,2217.962752,N,11410.668449,E,2.0,47.411516205,120721,,E,A*15
$GPGGA,140345.000,2217.962350,N,11410.668939,E,1,19,0.8,-0.6,M,,M,,*6D
$GPRMC,140345.000,A,2217.962350,N,11410.668939,E,2.1,47.421218489,120721,,E,A*11
$GPGGA,140346.000,2217.961973,N,11410.669405,E,1,19,0.8,-0.7,M,,M,,*64
$GPRMC,140346.000,A,2217.961973,N,11410.669405,E,2.1,47.418653753,120721,,E,A*1C
$GPGGA,140431.000,2217.947372,N,11410.723005,E,1,19,0.8,140.8,M,,M,,*40
$GPRMC,140431.000,A,2217.947372,N,11410.723005,E,1.7,0.0,120721,,E,A*25
$GPGGA,140432.000,2217.950839,N,11410.708597,E,1,19,0.8,53.6,M,,M,,*7B
$GPRMC,140432.000,A,2217.950839,N,11410.708597,E,2.4,0.0,120721,,E,A*23
$GPGGA,140433.000,2217.948279,N,11410.704455,E,1,19,0.8,33.9,M,,M,,*77
$GPRMC,140433.000,A,2217.948279,N,11410.704455,E,1.9,0.0,120721,,E,A*28
$GPGGA,140434.000,2217.947794,N,11410.704610,E,1,19,0.8,33.9,M,,M,,*7A
$GPRMC,140434.000,A,2217.947794,N,11410.704610,E,1.8,0.0,120721,,E,A*24
$GPGGA,140435.000,2217.947296,N,11410.704747,E,1,19,0.8,33.9,M,,M,,*7F
$GPRMC,140435.000,A,2217.947296,N,11410.704747,E,1.8,0.0,120721,,E,A*21
$GPGGA,140436.000,2217.946880,N,11410.704994,E,1,19,0.8,33.9,M,,M,,*70
$GPRMC,140436.000,A,2217.946880,N,11410.704994,E,1.8,0.0,120721,,E,A*2E
$GPGGA,140437.000,2217.945337,N,11410.703669,E,1,19,0.8,32.3,M,,M,,*74
$GPRMC,140437.000,A,2217.945337,N,11410.703669,E,1.8,0.0,120721,,E,A*21
$GPGGA,140438.000,2217.944815,N,11410.703954,E,1,19,0.8,32.4,M,,M,,*77
$GPRMC,140438.000,A,2217.944815,N,11410.703954,E,1.9,0.0,120721,,E,A*24
$GPGGA,140439.000,2217.944421,N,11410.704066,E,1,19,0.8,32.4,M,,M,,*72
$GPRMC,140439.000,A,2217.944421,N,11410.704066,E,1.8,0.0,120721,,E,A*20
$GPGGA,140440.000,2217.944054,N,11410.704675,E,1,19,0.8,32.5,M,,M,,*7F
$GPRMC,140440.000,A,2217.944054,N,11410.704675,E,1.8,0.0,120721,,E,A*2C
$GPGGA,140441.000,2217.943049,N,11410.703344,E,1,19,0.8,27.7,M,,M,,*73
$GPRMC,140441.000,A,2217.943049,N,11410.703344,E,2.0,0.0,120721,,E,A*2D
$GPGGA,140442.000,2217.942118,N,11410.702624,E,1,19,0.8,24.0,M,,M,,*72
$GPRMC,140442.000,A,2217.942118,N,11410.702624,E,1.9,0.0,120721,,E,A*22
$GPGGA,140443.000,2217.941642,N,11410.702841,E,1,19,0.8,24.0,M,,M,,*75
$GPRMC,140443.000,A,2217.941642,N,11410.702841,E,1.9,0.0,120721,,E,A*25
$GPGGA,140444.000,2217.941167,N,11410.703057,E,1,19,0.8,24.0,M,,M,,*7C
$GPRMC,140444.000,A,2217.941167,N,11410.703057,E,1.9,0.0,120721,,E,A*2C
$GPGGA,140445.000,2217.940458,N,11410.703461,E,1,19,0.8,24.6,M,,M,,*72
$GPRMC,140445.000,A,2217.940458,N,11410.703461,E,1.8,0.0,120721,,E,A*25
$GPGGA,140446.000,2217.940005,N,11410.703661,E,1,19,0.8,24.6,M,,M,,*7F
$GPRMC,140446.000,A,2217.940005,N,11410.703661,E,1.8,0.0,120721,,E,A*28
$GPGGA,140447.000,2217.939511,N,11410.703952,E,1,19,0.8,24.6,M,,M,,*7F
$GPRMC,140447.000,A,2217.939511,N,11410.703952,E,1.9,52.133280675,120721,,E,A*11
$GPGGA,140448.000,2217.938696,N,11410.704747,E,1,19,0.8,22.6,M,,M,,*76
$GPRMC,140448.000,A,2217.938696,N,11410.704747,E,2.0,52.151462638999995,120721,,E,A*1F
$GPGGA,140449.000,2217.937689,N,11410.705597,E,1,19,0.8,20.7,M,,M,,*7B
$GPRMC,140449.000,A,2217.937689,N,11410.705597,E,1.9,52.180241641,120721,,E,A*12
$GPGGA,140450.000,2217.937666,N,11410.706358,E,1,19,0.8,19.5,M,,M,,*7C
$GPRMC,140450.000,A,2217.937666,N,11410.706358,E,1.5,52.208805493,120721,,E,A*15
$GPGGA,140451.000,2217.937008,N,11410.706738,E,1,19,0.8,17.8,M,,M,,*72
$GPRMC,140451.000,A,2217.937008,N,11410.706738,E,1.6,52.204717625,120721,,E,A*14
$GPGGA,140548.000,2217.924015,N,11410.695363,E,1,19,0.8,-33.4,M,,M,,*53
$GPRMC,140548.000,A,2217.924015,N,11410.695363,E,0.1,81.336045096,120721,,E,A*14
$GPGGA,140549.000,2217.924168,N,11410.696635,E,1,19,0.8,-34.3,M,,M,,*5C
$GPRMC,140549.000,A,2217.924168,N,11410.696635,E,0.0,73.092013501,120721,,E,A*12
$GPGGA,140550.000,2217.927842,N,11410.697943,E,1,19,0.8,-18.0,M,,M,,*54
$GPRMC,140550.000,A,2217.927842,N,11410.697943,E,0.0,73.13893690100001,120721,,E,A*25
$GPGGA,140551.000,2217.928180,N,11410.698468,E,1,19,0.8,-16.3,M,,M,,*5B
$GPRMC,140551.000,A,2217.928180,N,11410.698468,E,0.1,73.15471463899999,120721,,E,A*2F
$GPGGA,140552.000,2217.928085,N,11410.698972,E,1,19,0.8,-16.0,M,,M,,*59
$GPRMC,140552.000,A,2217.928085,N,11410.698972,E,0.0,73.209192228,120721,,E,A*10
$GPGGA,140553.000,2217.928245,N,11410.699443,E,1,19,0.8,-13.7,M,,M,,*5A
$GPRMC,140553.000,A,2217.928245,N,11410.699443,E,0.1,73.24680608,120721,,E,A*2F
$GPGGA,140554.000,2217.928338,N,11410.700105,E,1,19,0.8,-12.4,M,,M,,*52
$GPRMC,140554.000,A,2217.928338,N,11410.700105,E,0.1,73.260329855,120721,,E,A*17
$GPGGA,140555.000,2217.928232,N,11410.700255,E,1,19,0.8,-11.5,M,,M,,*5C
$GPRMC,140555.000,A,2217.928232,N,11410.700255,E,0.1,73.292937178,120721,,E,A*15
$GPGGA,140556.000,2217.928152,N,11410.700389,E,1,19,0.8,-10.6,M,,M,,*58
$GPRMC,140556.000,A,2217.928152,N,11410.700389,E,0.1,74.356445456,120721,,E,A*1C
$GPGGA,140557.000,2217.928006,N,11410.700209,E,1,19,0.8,-10.2,M,,M,,*54
$GPRMC,140557.000,A,2217.928006,N,11410.700209,E,0.1,74.391395534,120721,,E,A*10
$GPGGA,140558.000,2217.927804,N,11410.700176,E,1,19,0.8,-10.0,M,,M,,*57
$GPRMC,140558.000,A,2217.927804,N,11410.700176,E,0.2,74.406490253,120721,,E,A*1F
$GPGGA,140559.000,2217.927419,N,11410.699705,E,1,19,0.8,-9.6,M,,M,,*6B
$GPRMC,140559.000,A,2217.927419,N,11410.699705,E,0.2,74.440463614,120721,,E,A*14
$GPGGA,140600.000,2217.927415,N,11410.699634,E,1,19,0.8,-9.6,M,,M,,*6B
$GPRMC,140600.000,A,2217.927415,N,11410.699634,E,0.2,74.499606223,120721,,E,A*11
$GPGGA,140601.000,2217.927302,N,11410.699621,E,1,19,0.8,-9.5,M,,M,,*6C
$GPRMC,140601.000,A,2217.927302,N,11410.699621,E,0.2,74.531031923,120721,,E,A*1F
$GPGGA,140602.000,2217.927311,N,11410.699380,E,1,19,0.8,-9.5,M,,M,,*63
$GPRMC,140602.000,A,2217.927311,N,11410.699380,E,0.4,73.308093368,120721,,E,A*10
$GPGGA,140603.000,2217.927076,N,11410.699236,E,1,19,0.8,-8.9,M,,M,,*61
$GPRMC,140603.000,A,2217.927076,N,11410.699236,E,0.4,73.316911143,120721,,E,A*18
$GPGGA,140604.000,2217.926805,N,11410.698955,E,1,19,0.8,-8.8,M,,M,,*65
$GPRMC,140604.000,A,2217.926805,N,11410.698955,E,0.5,66.395279319,120721,,E,A*1B
$GPGGA,140605.000,2217.926556,N,11410.699040,E,1,19,0.8,-9.1,M,,M,,*6B
$GPRMC,140605.000,A,2217.926556,N,11410.699040,E,0.5,66.420154869,120721,,E,A*14
$GPGGA,140625.000,2217.919078,N,11410.695538,E,1,19,0.8,-36.1,M,,M,,*56
$GPRMC,140625.000,A,2217.919078,N,11410.695538,E,0.7,72.872354615,120721,,E,A*1E
$GPGGA,140626.000,2217.918815,N,11410.693707,E,1,19,0.8,-34.2,M,,M,,*5E
$GPRMC,140626.000,A,2217.918815,N,11410.693707,E,1.0,72.91683280699999,120721,,E,A*2C
$GPGGA,140627.000,2217.924384,N,11410.698887,E,1,19,0.8,-31.2,M,,M,,*5A
$GPRMC,140627.000,A,2217.924384,N,11410.698887,E,0.9,72.974623039,120721,,E,A*12
$GPGGA,140628.000,2217.925889,N,11410.700874,E,1,19,0.8,-29.7,M,,M,,*52
$GPRMC,140628.000,A,2217.925889,N,11410.700874,E,0.9,69.701131897,120721,,E,A*18
$GPGGA,140629.000,2217.925760,N,11410.700598,E,1,19,0.8,-29.7,M,,M,,*54
$GPRMC,140629.000,A,2217.925760,N,11410.700598,E,0.9,69.74057624,120721,,E,A*2C
$GPGGA,140630.000,2217.927034,N,11410.701481,E,1,19,0.8,-24.9,M,,M,,*53
$GPRMC,140630.000,A,2217.927034,N,11410.701481,E,0.8,69.759652959,120721,,E,A*17
$GPGGA,140631.000,2217.926933,N,11410.701393,E,1,19,0.8,-24.8,M,,M,,*58
$GPRMC,140631.000,A,2217.926933,N,11410.701393,E,0.7,75.87289773399999,120721,,E,A*25
$GPGGA,140632.000,2217.927527,N,11410.701720,E,1,19,0.8,-21.1,M,,M,,*53
$GPRMC,140632.000,A,2217.927527,N,11410.701720,E,0.7,79.3140427,120721,,E,A*1C
$GPGGA,140633.000,2217.927452,N,11410.701649,E,1,19,0.8,-21.1,M,,M,,*5F
$GPRMC,140633.000,A,2217.927452,N,11410.701649,E,0.6,75.833357768,120721,,E,A*1A
$GPGGA,140634.000,2217.927207,N,11410.701210,E,1,19,0.8,-18.6,M,,M,,*5B
$GPRMC,140634.000,A,2217.927207,N,11410.701210,E,0.7,75.87237863899999,120721,,E,A*27
$GPGGA,140635.000,2217.927050,N,11410.701102,E,1,19,0.8,-18.6,M,,M,,*5A
$GPRMC,140635.000,A,2217.927050,N,11410.701102,E,0.7,72.242303808,120721,,E,A*10
$GPGGA,140636.000,2217.926910,N,11410.700873,E,1,19,0.8,-18.6,M,,M,,*5B
$GPRMC,140636.000,A,2217.926910,N,11410.700873,E,0.7,72.284343622,120721,,E,A*19
$GPGGA,140637.000,2217.927534,N,11410.701573,E,1,19,0.8,-15.3,M,,M,,*55
$GPRMC,140637.000,A,2217.927534,N,11410.701573,E,0.6,78.77046208899999,120721,,E,A*21
$GPGGA,140638.000,2217.927581,N,11410.701740,E,1,19,0.8,-15.3,M,,M,,*56
$GPRMC,140638.000,A,2217.927581,N,11410.701740,E,0.4,76.035032766,120721,,E,A*17
$GPGGA,140639.000,2217.927998,N,11410.701938,E,1,19,0.8,-13.7,M,,M,,*50
$GPRMC,140639.000,A,2217.927998,N,11410.701938,E,0.4,76.07053609,120721,,E,A*2D
$GPGGA,140640.000,2217.928281,N,11410.702364,E,1,19,0.8,-12.7,M,,M,,*53
$GPRMC,140640.000,A,2217.928281,N,11410.702364,E,0.3,76.135778057,120721,,E,A*1B
$GPGGA,140641.000,2217.928204,N,11410.702464,E,1,19,0.8,-12.6,M,,M,,*59
$GPRMC,140641.000,A,2217.928204,N,11410.702464,E,0.4,76.127294962,120721,,E,A*1C
$GPGGA,140642.000,2217.927986,N,11410.702218,E,1,19,0.8,-12.6,M,,M,,*59
$GPRMC,140642.000,A,2217.927986,N,11410.702218,E,0.5,76.147006889,120721,,E,A*16
$GPGGA,140643.000,2217.928085,N,11410.702200,E,1,19,0.8,-11.5,M,,M,,*54
