     3.03           OBSERVATION DATA    M: Mixed            RINEX VERSION / TYPE
Geo++ RINEX Logger  Geo++               20210912 115942 UTC PGM / RUN BY / DATE
************************************************************COMMENT
This file was generated by the Geo++ RINEX Logger App       COMMENT
for Android devices (Version 2.1.6). If you encounter       COMMENT
any issues, please send an email to android@geopp.de        COMMENT
Filtering Mode: MORE                                        COMMENT
************************************************************COMMENT
Geo++                                                       MARKER NAME
GEODETIC                                                    MARKER TYPE
Geo++               Geo++                                   OBSERVER / AGENCY
unknown             HUAWEI              ELS-AN00            REC # / TYPE / VERS
unknown             ELS-AN00                                ANT # / TYPE
 -2417086.0347  5385839.5621  2406629.3091                  APPROX POSITION XYZ
        0.0000        0.0000        0.0000                  ANTENNA: DELTA H/E/N
G    8 C1C L1C D1C S1C C5Q L5Q D5Q S5Q                      SYS / # / OBS TYPES
R    4 C1C L1C D1C S1C                                      SYS / # / OBS TYPES
E   12 C1B L1B D1B S1B C1C L1C D1C S1C C5Q L5Q D5Q S5Q      SYS / # / OBS TYPES
C    4 C2I L2I D2I S2I                                      SYS / # / OBS TYPES
J    8 C1C L1C D1C S1C C5Q L5Q D5Q S5Q                      SYS / # / OBS TYPES
  2021     9    12    12     0    0.9979612     GPS         TIME OF FIRST OBS
 24 R01  1 R02 -4 R03  5 R04  6 R05  1 R06 -4 R07  5 R08  6 GLONASS SLOT / FRQ #
    R09 -2 R10 -5 R11  0 R12 -1 R13 -2 R14 -7 R15  0 R16 -1 GLONASS SLOT / FRQ #
    R17  4 R18 -3 R19  3 R20  2 R21  4 R22 -3 R23  3 R24  2 GLONASS SLOT / FRQ #
G L1C                                                       SYS / PHASE SHIFT
G L5Q -0.25000                                              SYS / PHASE SHIFT
R L1C                                                       SYS / PHASE SHIFT
E L1B                                                       SYS / PHASE SHIFT
E L1C +0.50000                                              SYS / PHASE SHIFT
E L5Q -0.25000                                              SYS / PHASE SHIFT
C L2I                                                       SYS / PHASE SHIFT
J L1C                                                       SYS / PHASE SHIFT
J L5Q -0.25000                                              SYS / PHASE SHIFT
 C1C    0.000 C1P    0.000 C2C    0.000 C2P    0.000        GLONASS COD/PHS/BIS
                                                            END OF HEADER
> 2021  9 12 12  0  0.9979612  0  1
G10  21655966.586   113803001.640       -4224.308          28.000  
> 2021  9 12 12  0  1.9979604  0  1
G10  21656531.395   113805965.568       -4223.845          26.000  
> 2021  9 12 12  0  2.9979597  0  2
G10  21657125.284   113809087.156       -4225.703          30.000  
G32  20843136.597   109531282.4401       -816.748          19.000  
> 2021  9 12 12  0  3.9979589  0  1
G10  21657690.393   113812053.235       -4227.142          26.000  
> 2021  9 12 12  0  4.9979579  0  2
G10  21658195.543   113814703.862       -4226.053          26.000  
G32  20842905.457   109530082.4641       -820.060          20.000  
> 2021  9 12 12  0  5.9979571  0  2
G10  21658759.453   113817669.090       -4225.189          27.000  
G32  20842821.215   109529641.446        -819.062          20.000  
> 2021  9 12 12  0  6.9979564  0  2
G10  21659353.342   113820792.141       -4226.345          27.000  
G32  20842766.653   109529357.240        -820.733          20.000  
> 2021  9 12 12  0  7.9979556  0  1
G10  21659919.350   113823759.376       -4226.343          26.000  
> 2021  9 12 12  0  8.9979546  0  1
G10  21660425.100   113826410.708       -4227.058          24.000  
> 2021  9 12 12  0  9.9979538  0  1
G10  21660988.710   113829377.512       -4227.028          24.000  
> 2021  9 12 12  0 10.9979530  0  2
G10  21661555.317   113832344.129       -4228.720          23.000  
G32  20842369.728   109527276.6281       -819.091          18.000  
> 2021  9 12 12  0 11.9979523  0  1
G10  21662147.707   113835470.707       -4229.596          24.000  
> 2021  9 12 12  0 12.9979512  0  1
G10  21662623.478   113837966.621       -4227.389          24.000  
> 2021  9 12 12  0 13.9979505  0  1
G10  21663214.968   113841091.926       -4227.954          30.000  
> 2021  9 12 12  0 14.9979497  0  1
G10  21663779.178   113844058.597       -4226.225          30.000  
> 2021  9 12 12  0 15.9979489  0  1
G10  21664343.387   113847025.837       -4228.429          35.000  
> 2021  9 12 12  0 16.9979479  0  1
G10  21664847.038   113849679.274       -4228.884          35.000  
> 2021  9 12 12  0 17.9979471  0  1
G10  21665410.049   113852648.579       -4229.902          33.000  
> 2021  9 12 12  0 18.9979464  0  1
G10  21666003.638   113855775.485       -4230.214          36.000  
> 2021  9 12 12  0 19.9979456  0  1
G10  21666567.847   113858746.028       -4232.286          33.000  
> 2021  9 12 12  0 20.9979446  0  1
G10  21667071.199   113861401.428       -4231.485          33.000  
> 2021  9 12 12  0 21.9979438  0  1
G10  21667636.607   113864371.982       -4230.577          34.000  
> 2021  9 12 12  0 22.9979430  0  2
G10  21668205.314   113867343.628       -4231.666          34.000  
G32  20841254.500   109521397.0391       -818.782          16.000  
> 2021  9 12 12  0 23.9979423  0  2
G10  21668799.502   113870472.339       -4231.134          32.000  
G32  20841199.338   109521113.354        -820.590          17.000  
> 2021  9 12 12  0 24.9979412  0  1
G10  21669274.374   113872971.263       -4232.460          33.000  
> 2021  9 12 12  0 25.9979405  0  1
G10  21669867.963   113876100.553       -4232.233          34.000  
> 2021  9 12 12  0 26.9979397  0  0
> 2021  9 12 12  0 27.9979389  0  1
G10  21671003.576                       -4234.172          34.000  
> 2021  9 12 12  0 28.9979379  0  1
G10  21671509.926   113884549.8811      -4232.196          32.000  
> 2021  9 12 12  0 29.9979372  0  1
G10  21672104.115   113887681.303       -4235.637          32.000  
> 2021  9 12 12  0 30.9979361  0  1
G10  21672583.782   113890182.960       -4237.584          31.000  
> 2021  9 12 12  0 31.9979356  0  2
G10  21673239.429   113893632.364       -4236.515          28.000  
G32  20840440.263   109517161.4341       -823.486          17.000  
> 2021  9 12 12  0 32.9979346  0  1
G10  21673745.478   113896293.258       -4236.003          26.000  
> 2021  9 12 12  0 33.9979338  0  2
G10  21674313.285   113899269.636       -4237.324          24.000  
G32  20840213.620   109515965.2281       -818.326          18.000  
> 2021  9 12 12  0 34.9979328  0  2
G10  21674816.936   113901930.109       -4234.788          28.000  
G32  20840068.821   109515208.398        -818.295          19.000  
> 2021  9 12 12  0 35.9979323  0  2
G10  21675470.184   113905376.618       -4234.479          29.000  
G32  20840076.615   109515239.230        -819.435          20.000  
> 2021  9 12 12  0 36.9979313  0  2
G10  21675973.536   113908036.591       -4235.519          27.000  
G32  20839935.713   109514484.327        -820.723          21.000  
> 2021  9 12 12  0 37.9979305  0  0
> 2021  9 12 12  0 38.9979295  0  1
G32  20839714.466   109513291.4731       -821.564          21.000  
> 2021  9 12 12  0 39.9979290  0  2
G10  21677714.131   113917128.5971      -4241.354          23.000  
G32  20839721.961   109513325.863        -822.833          21.000  
> 2021  9 12 12  0 40.9979279  0  2
G10  21678194.998   113919637.733       -4242.819          20.000  
G32  20839553.178   109512417.826        -827.306          21.000  
> 2021  9 12 12  0 41.9979272  0  2
G10  21678792.484   113922777.586       -4243.321          19.000  
G32  20839500.414   109512142.778        -828.013          26.000  
> 2021  9 12 12  0 42.9979261  0  1
G32  20839323.836   109511236.603        -825.687          31.000  
> 2021  9 12 12  0 43.9979256  0  1
G32  20839325.635   109511275.156        -827.503          28.000  
> 2021  9 12 12  0 44.9979246  0  4
C03  35897928.981   186929936.4531      -1327.267          30.000  
C05  39317962.841                       -1332.544          28.000  
G10  21680441.043   113931408.6641      -4241.855          25.000  
G32  20839178.437   109510526.940        -826.879          29.000  
> 2021  9 12 12  0 45.9979238  0  6
C05  39317979.030   204739033.6531      -1332.502          32.000  
C16  37153133.621   193466115.7221       -875.451          33.000  
C33  23635592.720   123076733.4791      -3716.100          27.000  
G10  21681012.148   113934392.978       -4246.047          21.000  
G31  21091707.415   110837669.8261      -1433.154          25.000  
G32  20839093.895   109510094.108        -827.537          32.000  
> 2021  9 12 12  0 46.9979228  0  3
C16  37153000.813   193465429.752        -875.585          29.000  
G10  21681519.097   113937063.219       -4245.558          22.000  
G32  20838948.796   109509346.503        -828.098          31.000  
> 2021  9 12 12  0 47.9979223  0  2
G10  21682178.940   113940520.762       -4245.752          21.000  
G32  20838955.092   109509387.380        -828.907          27.000  
> 2021  9 12 12  0 48.9979213  0  2
C16  37152887.791   193464837.3791       -874.187          30.000  
G31  21091762.277   110838029.0551      -1432.048          20.000  
> 2021  9 12 12  0 49.9979205  0  4
C16  37152819.139   193464463.061        -874.917          33.000  
C33  23637443.938   123086426.4071      -3710.226          17.000  
G31  21091794.055   110838201.365       -1433.214          29.000  
J02  38683650.866   203283957.1751      -2153.848          23.000  
> 2021  9 12 12  0 50.9979195  0  3
C16  37152689.029   193463777.018        -875.146          33.000  
J02  38683759.091   203284535.572       -2153.571          24.000  
R02  19161752.695   102250783.2121       -906.114          34.000  
> 2021  9 12 12  0 51.9979187  0  6
C07  37031024.555   192830357.9511       -205.876          27.000  
C16  37152623.974   193463402.508        -874.291          33.000  
G10  21684345.540   113951835.3001      -4244.738          26.000  
G32  20838528.187   109507028.8101       -828.602          30.000  
J02  38683926.075   203285427.831       -2151.181          22.000  
R02  19161687.340   102250410.003        -907.124          32.000  
> 2021  9 12 12  0 52.9979180  0  5
C07  37030851.875   192829471.533        -206.473          27.000  
C16  37152584.401   193463183.974        -873.929          33.000  
G10  21684943.626   113954976.300       -4243.607          26.000  
G32  20838479.321   109506754.458        -828.487          29.000  
R02  19161650.765   102250197.513        -907.644          30.000  
> 2021  9 12 12  0 53.9979169  0  6
C07  37030559.577   192827960.558        -205.702          25.000  
C16  37152423.712                        -873.779          33.000  
G10  21685423.294   113957485.675       -4243.803          25.000  
G31  21091823.434   110838279.8091      -1433.340          34.000  
G32  20838304.842   109505850.401        -829.751          28.000  
R02  19161494.873   102249344.918        -907.130          31.000  
> 2021  9 12 12  0 54.9979162  0  7
C07  37030388.096   192827074.152        -206.631          26.000  
C16  37152376.645   193462200.7731       -875.062          32.000  
C33  23639710.369   123098286.0021      -3716.071          16.000  
G10  21686024.378   113960627.225       -4245.932          23.000  
G31  21091883.393   110838611.014       -1434.501          34.000  
G32  20838254.776   109505577.009        -830.156          28.000  
R02  19161456.500   102249132.046        -906.828          32.000  
> 2021  9 12 12  0 55.9979154  0  5
C07  37030188.434   192826031.862        -206.283          26.000  
C16  37152306.194   193461826.076        -872.918          32.000  
G31  21091916.070   110838784.925       -1433.619          35.000  
G32  20838176.531   109505146.471        -829.661          27.000  
R02  19161386.048   102248759.796        -909.536          32.000  
> 2021  9 12 12  0 56.9979146  0  4
C07  37029989.072   192824989.588        -206.776          27.000  
C16  37152232.744   193461451.382        -873.642          32.000  
G10  21687162.989   113966599.9251      -4246.178          21.000  
R02  19161315.597   102248389.945        -910.412          31.000  
> 2021  9 12 12  0 57.9979136  0  5
C07  37029728.852   192823635.262        -206.955          28.000  
C16  37152104.733   193460764.294        -875.533          32.000  
G31  21091917.869   110838818.3471      -1434.993          34.000  
G32  20837951.986   109503970.1181       -831.203          24.000  
R02  19161185.188   102247700.827        -911.274          33.000  
> 2021  9 12 12  0 58.9979128  0  6
C07  37029527.991   192822593.118        -206.644          25.000  
C16  37152034.582   193460389.271        -874.865          32.000  
C32  24666352.939   128444171.6851       1444.315          27.000  
G10  21688253.035   113972538.2861      -4248.102          22.000  
G31  21091949.347   110838993.035       -1435.058          34.000  
R02  19161113.237   102247332.395        -911.896          33.000  
> 2021  9 12 12  0 59.9979118  0  3
C16  37151901.774   193459703.138        -877.428          32.000  
G31  21091921.766   110838852.077       -1434.467          31.000  
R02  19160982.828   102246644.702        -912.602          32.000  
> 2021  9 12 12  1  0.9979113  0  5
C07  37029161.645   192820663.7731       -205.267          23.000  
C32  24665348.634   128438942.5991       1441.710          23.000  
G10  21689425.823   113978673.1161      -4248.976          15.000  
G31  21092044.082   110839499.119       -1435.114          29.000  
R02  19161005.312   102246757.621        -912.945          31.000  
> 2021  9 12 12  1  1.9979103  0  6
C07  37028902.624   192819308.176        -205.441          24.000  
C16  37151775.861   193459109.0251       -873.253          25.000  
G10  21689941.466   113981348.086       -4251.023          14.000  
G31  21092016.501   110839358.896       -1435.672          34.000  
G32  20837594.633   109502099.8911       -831.303          22.000  
R02  19160876.401   102246071.259        -913.708          23.000  
> 2021  9 12 12  1  2.9979095  0  5
C07  37028705.361   192818265.843        -208.001          24.000  
C16  37151702.711   193458733.366        -873.619          27.000  
C32  24664244.199   128433244.2611       1443.248          17.000  
G31  21092046.780   110839534.601       -1436.638          35.000  
R02  19160811.946   102245705.494        -913.872          26.000  
> 2021  9 12 12  1  3.9979085  0  8
C06  36546892.413   190309258.5081       -923.855          25.000  
C07  37028447.239   192816913.884        -210.132          24.000  
C13  38730226.622   201678453.4151      -3147.005          20.000  
C16  37151570.203   193458045.730        -873.526          29.000  
C32  24663655.107   128430237.012        1446.690          17.000  
G31  21092023.396                       -1436.455          35.000  
G32  20837367.091   109500927.6131       -832.965          23.000  
R02  19160681.536   102245020.118        -914.874          28.000  
> 2021  9 12 12  1  4.9979080  0  8
C06  36546922.992   190309402.529        -924.598          25.000  
C07  37028337.815   192816342.666        -208.418          24.000  
C13  38730681.407   201680820.352       -3148.879          20.000  
C16  37151587.291   193458138.329        -873.193          27.000  
C32  24663219.508   128428008.401        1448.351          17.000  
G31  21092144.812                       -1438.367          35.000  
J02  38686054.002   203296581.7321      -2154.362          26.000  
R02  19160702.522   102245135.277        -915.668          26.000  
> 2021  9 12 12  1  5.9979069  0  8
C06  36546773.395   190308608.568        -922.786          24.000  
C07  37028048.216   192814834.035        -208.203          24.000  
C13  38730955.418   201682251.131       -3147.997          21.000  
C16  37151426.303   193457293.794        -872.432          27.000  
C32  24662605.833   128424841.686        1450.690          17.000  
G10  21692163.228   113992996.1731      -4249.596          13.000  
G31  21092087.851   110839682.8131      -1437.077          34.000  
R02  19160542.432   102244291.544        -916.647          30.000  
> 2021  9 12 12  1  6.9979062  0  7
C06  36546739.519   190308438.087        -922.269          23.000  
C07  37027880.332   192813947.556        -204.900          23.000  
C16  37151383.732   193457073.804        -873.151          25.000  
C32  24662105.480   128422299.802        1447.561          17.000  
G32  20837169.827   109499804.3431       -834.229          26.000  
J02  38686337.606   203298056.2791      -2154.853          26.000  
R02  19160504.659   102244088.764        -917.687          31.000  
> 2021  9 12 12  1  7.9979052  0  9
C06  36546617.203   190307799.770        -923.921          22.000  
C16  37151248.826   193456386.790        -875.218          24.000  
C23  22549343.914   117420350.9381       -903.643          23.000  
E04  24941887.091   131070245.6841        486.949          29.000  
G26  21378387.850   112344185.7061       1339.445          29.000  
G31  21092125.026   110839878.9801      -1437.112          29.000  
G32  20837026.227   109499063.527        -835.251          26.000  
J02  38686447.030   203298635.332       -2154.652          27.000  
R02  19160376.647   102243406.689        -918.054          27.000  
> 2021  9 12 12  1  8.9979046  0  7
C07  37027481.608   192811862.6121       -207.513          22.000  
C13  38732075.442   201688099.4721      -3143.382          21.000  
E04  24941613.081   131068813.344         487.751          30.000  
G26  21377951.052   112341903.312        1332.889          28.000  
G31  21092215.563   110840371.133       -1437.668          32.000  
J02  38686675.472   203299843.653       -2153.042          26.000  
R02  19160368.553   102243365.345        -918.919          27.000  
> 2021  9 12 12  1  9.9979036  0 10
C07  37027221.388   192810510.363        -209.670          23.000  
C09  37632978.431   195964630.5911       -986.476          27.000  
C16  37151099.529   193455639.2001       -873.172          24.000  
C23  22549208.408   117419665.2621       -907.448          21.000  
E04  24941220.053   131066750.030         487.518          29.000  
G10  21694398.480   114004817.2691      -4258.690          13.000  
G26  21377399.434   112338991.564        1334.212          27.000  
G31  21092186.783   110840233.796       -1438.188          31.000  
J02  38686783.097   203300421.012       -2153.070          27.000  
R02  19160242.040   102242685.172        -920.129          27.000  
> 2021  9 12 12  1 10.9979028  0 12
C07  37027020.527   192809471.227        -209.977          20.000  
C09  37632927.766   195964368.203        -986.416          27.000  
C13  38732749.975   201691581.4751      -3147.369          20.000  
C16  37151026.080   193455263.032        -872.999          25.000  
C23  22549143.353   117419322.869        -906.158          22.000  
C32  24659974.855   128411215.1821       1442.700          24.000  
E04  24940886.683   131065002.377         487.041          28.000  
G26  21376904.477   112336395.925        1336.165          28.000  
G31  21092216.762   110840411.756       -1438.891          30.000  
G32  20836776.200   109497786.5491       -835.177          31.000  
J02  38686952.780   203301314.208       -2153.736          27.000  
R02  19160178.784   102242325.748        -920.837          29.000  
> 2021  9 12 12  1 11.9979018  0 12
C06  36546305.419   190306189.3531       -924.476          20.000  
C07  37026762.106   192808120.033        -210.264          22.000  
C09  37632817.443   195963793.602        -986.246          27.000  
C13  38733053.065   201693167.941       -3148.370          19.000  
C23  22549018.339   117418665.938        -903.198          25.000  
C32  24659395.356   128407942.487        1442.558          20.000  
G10  21695467.540   114010498.1741      -4258.771          15.000  
G26  21376350.461   112333484.496        1336.007          30.000  
G31  21092188.582   110840275.086       -1438.681          26.000  
G32  20836634.398   109497046.553        -835.899          32.000  
J02  38687063.403   203301892.726       -2155.044          28.000  
R02  19160053.171   102241646.961        -921.295          31.000  
> 2021  9 12 12  1 12.9979013  0 10
C06  36546329.103   190306332.942        -924.334          24.000  
C07  37026653.281   192807549.559        -210.276          18.000  
C09  37632856.416   195963999.168        -986.090          28.000  
C23  22549041.124   117418789.536        -904.491          23.000  
C32  24658964.854   128405718.686        1443.686          19.000  
G26  21375946.340   112331360.748        1335.856          29.000  
G31  21092305.801   110840927.121       -1442.925          22.000  
G32  20836642.193   109497094.604        -835.943          33.000  
J02  38687326.022   203303260.236       -2155.159          27.000  
R02  19160076.855   102241768.635        -922.141          32.000  
> 2021  9 12 12  1 13.9979003  0 10
C06  36546206.488   190305697.040        -925.528          22.000  
C07  37026392.462   192806196.434        -207.542          18.000  
C09  37632745.492   195963424.485        -986.008          29.000  
C16  37150778.151   193453980.6401       -872.236          24.000  
C23  22548917.309   117418133.887        -906.406          26.000  
C32  24658391.651   128402714.697        1442.316          19.000  
G26  21375392.024   112328450.099        1334.889          28.000  
G32  20836498.292   109496354.966        -837.460          33.000  
J02  38687435.746   203303840.048       -2154.927          27.000  
R02  19159947.944   102241091.305        -923.152          33.000  
> 2021  9 12 12  1 14.9978995  0  9
C06  36546145.330   190305373.285        -922.920          19.000  
C07  37026192.201   192805155.582        -208.740          19.000  
C09  37632694.827   195963162.195        -986.416          29.000  
C13  38734177.887   201699018.3511      -3147.257          20.000  
C16  37150707.700   193453603.391        -871.276          24.000  
C23  22548853.753   117417790.988        -905.813          25.000  
G26  21374900.964   112325855.186        1334.355          29.000  
J02  38687605.128   203304734.723       -2156.081          27.000  
R02  19159880.491   102240734.868        -923.818          31.000  
> 2021  9 12 12  1 15.9978985  0 10
C06  36546020.317   190304734.098        -921.786          19.000  
C09  37632584.504   195962587.287        -985.755          29.000  
C16  37150577.890   193452914.240        -872.658          24.000  
C23  22548729.639   117417136.933        -908.085          24.000  
C33  23649461.718   123148844.1771      -3728.337          28.000  
E04  24939137.394   131055792.8441        485.898          24.000  
G10  21697699.795   114022340.8411      -4260.264          17.000  
G26  21374348.746   112322945.851        1332.996          30.000  
J02  38687714.253   203305314.093       -2153.983          27.000  
R02  19159750.081   102240059.113        -924.467          30.000  
> 2021  9 12 12  1 16.9978980  0 11
C06  36546047.598   190304875.897        -922.663          22.000  
C07  37025821.357   192803231.0191       -208.333          19.000  
C09  37632624.076   195962793.499        -987.639          28.000  
C16  37150598.576   193453006.907        -872.656          26.000  
C23  22548756.621   117417265.372        -909.534          26.000  
C33  23650029.525   123151791.188       -3727.175          27.000  
G10  21698356.640   114025812.095       -4258.288          18.000  
G26  21373945.525   112320824.747        1333.169          29.000  
G32  20836283.041   109495405.7421       -838.087          34.000  
J02  38687972.974   203306678.808       -2152.347          26.000  
R02  19159771.966   102240184.176        -925.438          33.000  
> 2021  9 12 12  1 17.9978970  0  9
C06  36545923.184   190304237.194        -922.324          17.000  
C09  37632514.053   195962218.968        -985.423          29.000  
C16  37150470.265   193452319.236        -875.452          25.000  
C23  22548634.006   117416613.543        -908.785          25.000  
C33  23650446.237   123153957.241       -3727.051          27.000  
G26  21373394.207   112317916.901        1331.643          30.000  
G32  20836141.839   109494667.831        -837.983          33.000  
J02  38688082.698   203307256.279       -2153.611          28.000  
R02  19159644.854   102239510.185        -926.154          32.000  
> 2021  9 12 12  1 18.9978962  0  9
C07  37025359.377   192800843.3661       -212.740          18.000  
C09  37632463.388   195961955.770        -985.797          28.000  
C23  22548572.848   117416272.538        -908.134          26.000  
C33  23650922.007   123156435.669       -3727.986          27.000  
G10  21699432.895   114031489.8781      -4256.276          18.000  
G26  21372901.948   112315325.142        1330.615          30.000  
G32  20836059.996   109494245.428        -840.405          33.000  
J02  38688251.781   203308149.619       -2155.130          28.000  
R02  19159578.900   102239156.934        -926.978          32.000  
> 2021  9 12 12  1 19.9978952  0 10
C06  36545735.814   190303272.2311       -923.378          18.000  
C09  37632353.963   195961380.519        -985.871          29.000  
C13  38735914.285   201708039.6281      -3146.411          19.000  
C16  37150273.001   193451256.7901       -871.997          27.000  
C23  22548446.935   117415619.433        -908.248          26.000  
C33  23651336.920   123158603.071       -3729.316          26.000  
G26  21372350.030   112312419.058        1330.342          29.000  
G32  20835920.592   109493508.230        -839.327          33.000  
J02  38688363.004   203308728.964       -2154.998          28.000  
R02  19159452.987   102238484.555        -927.963          33.000  
> 2021  9 12 12  1 20.9978944  0  9
C09  37632304.198   195961117.475        -986.120          28.000  
C13  38736281.530   201709937.284       -3147.017          18.000  
C16  37150204.349   193450880.098        -872.402          27.000  
C23  22548383.379   117415279.911        -910.127          25.000  
C33  23651812.391   123161083.190       -3729.456          26.000  
G26  21371857.471   112309828.729        1329.800          29.000  
G32  20835836.950   109493086.367        -838.084          34.000  
J02  38688534.185   203309623.979       -2155.818          28.000  
R02  19159385.833   102238132.814        -928.474          33.000  
> 2021  9 12 12  1 21.9978936  0  7
C09  37632252.634   195960854.716        -985.913          29.000  
C16  37150134.197   193450504.568        -873.994          28.000  
C23  22548317.425   117414941.577        -912.993          26.000  
C33  23652286.663   123163563.212       -3729.177          25.000  
G26  21371364.612   112307238.627        1329.912          29.000  
J02  38688704.767   203310519.065       -2156.291          27.000  
R02  19159319.879   102237781.622        -929.010          33.000  
> 2021  9 12 12  1 22.9978929  0 10
C09  37632229.849   195960747.728        -985.762          26.000  
C13  38737043.903   201713892.3081      -3149.515          18.000  
C16  37150093.425   193450285.388        -872.991          33.000  
C23  22548282.649   117414762.383        -913.123          25.000  
C25  22984685.134   119687287.1031      -3111.606          24.000  
C33  23652791.513   123166199.584       -3729.194          25.000  
G10  21701675.942   114043324.4011      -4258.479          19.000  
G26  21370901.433   112304805.645        1329.992          19.000  
J02  38688908.326   203311572.403       -2155.155          26.000  
R02  19159284.204   102237591.077        -929.761          36.000  
> 2021  9 12 12  1 23.9978918  0  8
C05  39318115.435   204739743.9791      -1328.089          32.000  
C09  37632086.848   195960016.120        -985.930          20.000  
C13  38737319.712   201715323.504       -3146.806          18.000  
C16  37149930.938   193449441.009        -872.816          30.000  
C25  22984949.251   119688680.035       -3108.960          24.000  
G31  21092488.974   110841802.4951      -1441.805          28.000  
G32  20835539.856   109491509.4351       -840.533          31.000  
R02  19159130.710   102236761.432        -930.535          36.000  
> 2021  9 12 12  1 24.9978911  0 12
C03  35898104.359   186930833.3411      -1332.167          30.000  
C05  39318158.006   204739976.962       -1323.134          32.000  
C09  37632064.664   195959908.077        -983.749          23.000  
C13  38737715.737   201717377.858       -3146.879          19.000  
C16  37149889.267   193449221.340        -873.556          31.000  
C23  22548084.186   117413776.8001       -910.991          27.000  
C25  22985333.285   119690697.076       -3110.820          26.000  
C33  23653687.293   123170851.5861      -3733.042          22.000  
G31  21092557.027   110842141.788       -1442.074          28.000  
G32  20835487.092   109491247.099        -840.782          35.000  
J02  38689186.234   203313047.5201      -2154.959          24.000  
R02  19159097.733   102236572.492        -931.349          35.000  
> 2021  9 12 12  1 25.9978903  0 14
C05  39318170.597   204740052.030       -1323.833          33.000  
C09  37632011.900   195959643.481        -984.170          24.000  
C13  38738081.784   201719274.440       -3144.752          20.000  
C16  37149818.216   193448845.985        -873.009          31.000  
C23  22548016.433   117413438.937        -910.264          28.000  
C25  22985688.839   119692559.396       -3111.801          27.000  
C32  24652133.483   128370127.8771       1441.006          28.000  
C33  23654165.162   123173334.643       -3730.885          21.000  
G26  21369368.294   112296719.7691       1328.773          21.000  
G31  21092595.100   110842323.665       -1442.392          30.000  
G32  20835404.350   109490827.107        -841.477          36.000  
J01  36930229.834   194069666.8501       -323.651          25.000  
J02  38689355.916   203313941.711       -2154.032          27.000  
R02  19159035.376   102236224.351        -932.104          35.000  
> 2021  9 12 12  1 26.9978895  0 12
C05  39318183.788   204740126.957       -1324.114          33.000  
C09  37631960.636   195959379.352        -986.097          24.000  
C16  37149744.767   193448470.317        -873.313          30.000  
C23  22547951.078   117413101.140        -911.431          30.000  
C25  22986045.592   119694421.393       -3110.894          27.000  
C32  24651622.037   128367438.264        1440.040          28.000  
C33  23654644.231   123175817.457       -3732.253          23.000  
G31  21092631.975   110842505.935       -1443.031          33.000  
G32  20835320.408                        -840.483          36.000  
J01  36930049.958   194068730.029        -323.561          25.000  
J02  38689524.999   203314834.261       -2153.539          27.000  
R02  19158972.419   102235877.152        -933.027          34.000  
> 2021  9 12 12  1 27.9978885  0 13
C05  39318137.920   204739890.105       -1324.663          33.000  
C13  38738753.919   201722750.2621      -3140.895          20.000  
C16  37149610.160   193447782.500        -873.770          30.000  
C23  22547825.465   117412451.784        -911.930          29.000  
C25  22986341.187   119695970.932       -3111.062          27.000  
C32  24651050.933   128364438.052        1438.266          25.000  
C33  23655061.242   123177988.815       -3732.420          21.000  
G26  21368315.423   112291227.8641       1326.425          21.000  
G31  21092606.492   110842373.365       -1443.065          34.000  
G32  20835184.002   109489612.6591       -840.141          36.000  
J01  36929813.122   194067477.866        -323.610          23.000  
J02  38689633.224   203315412.203       -2154.103          27.000  
R02  19158848.305   102235210.797        -933.981          34.000  
> 2021  9 12 12  1 28.9978877  0 14
C05  39318152.609   204739966.766       -1326.386          33.000  
C09  37631796.949   195958539.1111       -984.687          23.000  
C13  38739120.265   201724642.917       -3142.423          21.000  
C16  37149537.310   193447407.163        -873.295          31.000  
C23  22547762.209   117412115.051        -912.197          31.000  
C25  22986697.940   119697832.801       -3110.434          27.000  
C32  24650539.187   128361751.636        1436.400          25.000  
C33  23655539.711   123180472.432       -3731.422          22.000  
G10  21704982.353   114060699.9081      -4260.849          20.000  
G26  21367817.768   112288638.777        1328.700          21.000  
G31  21092644.866                       -1438.986          34.000  
G32  20835105.157   109489193.565        -841.966          35.000  
J02  38689802.607   203316306.053       -2154.513          27.000  
R02  19158783.850   102234865.195        -934.757          35.000  
> 2021  9 12 12  1 29.9978870  0 14
C05  39318197.578   204740201.613       -1328.282          33.000  
C09  37631776.563   195958430.900        -983.788          23.000  
C13  38739515.092   201726694.139       -3146.504          21.000  
C16  37149494.440   193447187.957        -872.825          33.000  
C23  22547730.131   117411935.378        -912.785          30.000  
C25  22987085.272   119699851.015       -3111.882          28.000  
C32  24650055.322   128359221.673        1437.958          27.000  
G10  21705583.437   114063857.448       -4260.022          20.000  
G26  21367354.288   112286206.377        1330.847          21.000  
G31  21092710.520                       -1444.319          35.000  
G32  20835058.689   109488932.436        -842.192          36.000  
J01  36929488.447   194065760.5221       -322.557          25.000  
J02  38690003.768   203317357.804       -2154.688          28.000  
R02  19158747.875   102234680.356        -935.572          35.000  
> 2021  9 12 12  1 30.9978862  0 14
C05  39318213.467   204740282.414       -1331.071          33.000  
C09  37631724.699   195958166.400        -984.252          24.000  
C13  38739880.239   201728592.099       -3148.362          21.000  
C16  37149420.991   193446811.982        -873.480          31.000  
C23  22547666.275   117411599.274        -912.860          31.000  
C25  22987444.124   119701713.623       -3111.473          27.000  
C32  24649541.178   128356534.519        1438.562          27.000  
C33  23656522.430   123185592.9911      -3731.770          20.000  
G26  21366865.327   112283616.917        1327.663          21.000  
G31  21092748.594   110843120.8041      -1442.624          35.000  
G32  20834978.045   109488514.116        -841.931          35.000  
J01  36929308.871   194064822.734        -323.280          24.000  
J02  38690175.849   203318253.032       -2155.308          27.000  
R02  19158684.319   102234336.428        -936.401          35.000  
> 2021  9 12 12  1 31.9978852  0 14
C05  39318171.196   204740052.867       -1332.530          34.000  
C09  37631614.975   195957589.454        -983.666          24.000  
C13  38740184.229   201730179.301       -3149.117          21.000  
C16  37149291.181   193446122.644        -871.637          31.000  
C23  22547543.660   117410951.053        -913.327          32.000  
C25  22987742.417   119703264.372       -3111.687          27.000  
C32  24648969.174   128353535.992        1436.728          26.000  
C33  23656937.643   123187763.615       -3731.466          21.000  
G26  21366312.510   112280715.123        1323.401          20.000  
G31  21092722.512   110842989.103       -1443.676          36.000  
G32  20834835.344   109487781.026        -841.828          35.000  
J01  36929069.637   194063568.705        -321.328          24.000  
J02  38690287.671   203318831.921       -2154.526          26.000  
R02  19158560.804   102233673.467        -937.245          35.000  
> 2021  9 12 12  1 32.9978844  0 13
C03  35898127.144   186931006.9111      -1328.995          31.000  
C05  39318188.285   204740136.943       -1333.775          32.000  
C09  37631563.411   195957324.642        -983.934          24.000  
C16  37149222.828                        -873.109          32.000  
C23  22547483.402   117410615.784        -913.968          33.000  
C25  22988101.269   119705127.005       -3111.003          27.000  
C32  24648453.231   128350849.918        1436.734          27.000  
G10  21707235.294   114072533.8491      -4256.374          18.000  
G31  21092755.789   110843172.671       -1445.821          35.000  
G32  20834757.098   109487363.224        -843.344          37.000  
J01  36928889.162   194062629.940        -321.747          23.000  
J02  38690460.352   203319725.388       -2154.266          26.000  
R02  19158494.850   102233331.101        -937.685          35.000  
> 2021  9 12 12  1 33.9978836  0 13
C05  39318204.773   204740222.371       -1335.006          31.000  
C09  37631511.247   195957059.096        -983.850          24.000  
C16  37149149.079   193445374.9761       -873.963          32.000  
C23  22547418.347   117410280.695        -913.927          32.000  
C25  22988457.422   119706988.822       -3111.187          26.000  
C32  24647937.588   128348163.926        1437.982          27.000  
C33  23657891.582   123192733.1841      -3733.491          18.000  
G10  21707803.400   114075528.335       -4256.291          16.000  
G31  21092791.464   110843356.603       -1443.530          36.000  
G32  20834677.353   109486945.859        -843.670          37.000  
J01  36928711.985   194061691.083        -321.777          23.000  
J02  38690631.533   203320619.507       -2154.552          27.000  
R02  19158430.395   102232989.342        -938.439          35.000  
> 2021  9 12 12  1 34.9978829  0 12
C03  35898186.503   186931323.3241      -1329.689          31.000  
C05  39318251.241   204740464.938       -1335.710          33.000  
C09  37631491.461   195956949.981        -984.337          23.000  
C13  38741303.654   201736029.0611      -3147.207          22.000  
C16  37149104.410   193445154.916        -872.896          32.000  
C23  22547380.873   117410102.246        -916.423          32.000  
C25  22988844.454   119709007.034       -3111.200          26.000  
G10  21708403.585   114078682.959       -4258.714          17.000  
G31  21092855.320   110843698.310       -1445.453          35.000  
G32  20834627.587   109486686.391        -842.939          36.000  
J02  38690834.792   203321672.438       -2156.071          27.000  
R02  19158395.918   102232808.277        -939.103          35.000  
> 2021  9 12 12  1 35.9978819  0 12
C05  39318208.671   204740239.302       -1335.235          34.000  
C09  37631377.839   195956374.223        -985.307          23.000  
C13  38741604.945   201737614.372       -3146.343          22.000  
C16  37148974.600   193444466.336        -873.510          31.000  
C23  22547256.159                        -912.932          31.000  
C25  22989143.647   119710558.766       -3114.137          26.000  
G10  21708913.232   114081366.918       -4260.781          18.000  
G31  21092831.637   110843567.533       -1444.437          35.000  
G32  20834486.385   109485954.507        -843.384          35.000  
J01  36928327.351   194059656.6621       -323.033          22.000  
J02  38690946.315   203322253.388       -2155.809          26.000  
R02  19158274.802   102232148.060        -940.077          34.000  
> 2021  9 12 12  1 36.9978811  0 11
C05  39318225.159   204740325.839       -1335.658          33.000  
C09  37631325.675   195956111.268        -985.395          21.000  
C16  37148901.151   193444089.862        -873.378          31.000  
C23  22547190.205   117409145.6871       -916.457          31.000  
C25  22989503.698   119712423.239       -3113.480          27.000  
C32  24646356.482   128339951.5401       1436.451          25.000  
G31  21092867.312   110843752.205       -1444.908          35.000  
G32  20834407.240   109485538.101        -844.669          35.000  
J01  36928146.876   194058719.899        -323.973          22.000  
J02  38691116.597   203323149.326       -2155.910          27.000  
R02  19158208.848   102231808.550        -940.809          35.000  
> 2021  9 12 12  1 37.9978803  0 12
C05  39318242.547   204740412.415       -1335.526          32.000  
C09  37631273.811   195955847.240        -982.585          21.000  
C13  38742334.940   201741413.4841      -3147.310          22.000  
C16  37148830.400   193443713.364        -871.664          32.000  
C23  22547125.450   117408812.160        -916.709          31.000  
C25  22989862.549   119714287.471       -3113.488          27.000  
C33  23659770.682   123202533.4231      -3739.183          17.000  
G31  21092899.689   110843937.012       -1446.341          35.000  
G32  20834331.992   109485121.925        -844.661          33.000  
J01  36927970.298   194057783.086        -323.781          22.000  
J02  38691286.280   203324044.968       -2156.733          27.000  
R02  19158142.894   102231469.781        -941.521          35.000  
> 2021  9 12 12  1 38.9978796  0 13
C05  39318289.315   204740654.749       -1334.756          33.000  
C09  37631252.826   195955737.589        -983.296          23.000  
C13  38742726.469   201743468.129       -3148.612          22.000  
C16  37148788.129   193443492.999        -872.661          32.000  
C23  22547093.972   117408635.190        -915.388          30.000  
C25  22990251.680   119716307.989       -3113.217          27.000  
C32  24645349.480   128334736.2151       1436.710          25.000  
G10  21710670.016   114090535.7061      -4269.214          19.000  
G31  21092970.440   110844279.643       -1446.550          33.000  
G32  20834278.029   109484863.696        -843.912          34.000  
J01  36927822.201   194057003.819        -323.386          22.000  
J02  38691485.042   203325098.914       -2156.634          24.000  
R02  19158110.216   102231291.772        -942.173          35.000  
> 2021  9 12 12  1 39.9978785  0 12
C03  35898145.131   186931100.9721      -1329.249          30.000  
C05  39318215.266   204740272.112       -1334.537          32.000  
C07  37020912.256   192777681.1601       -214.236          23.000  
C09  37631112.223   195955003.518        -983.711          22.000  
C16  37148622.644   193442647.969        -873.482          33.000  
C23  22546941.977   117407834.019        -914.770          30.000  
C25  22990519.994   119717704.206       -3113.426          26.000  
C32  24644741.500   128331581.195        1438.364          26.000  
G31  21092910.782   110843992.409       -1445.220          34.000  
G32  20834109.246   109483975.497        -846.334          34.000  
J02  38691566.586   203325521.486       -2155.175          25.000  
R02  19157955.823   102230474.482        -942.778          35.000  
> 2021  9 12 12  1 40.9978778  0 12
C03  35898191.299   186931337.555       -1329.720          30.000  
C05  39318262.333   204740513.672       -1334.277          32.000  
C07  37020743.772   192776803.830        -215.753          24.000  
C09  37631093.336   195954895.632        -985.314          24.000  
C16  37148581.272   193442428.099        -874.602          32.000  
C23  22546909.000   117407658.294        -917.604          30.000  
C25  22990907.926   119719725.279       -3114.589          26.000  
C32  24644255.237   128329050.952        1434.302          27.000  
G32  20834060.980   109483718.503        -845.541          33.000  
J01  36927409.087   194054812.4471       -321.018          25.000  
J02  38691766.547   203326573.624       -2155.129          26.000  
R02  19157922.246   102230298.041        -944.053          35.000  
> 2021  9 12 12  1 41.9978770  0 13
C03  35898206.589   186931418.507       -1330.223          30.000  
C05  39318278.822   204740598.712       -1333.625          31.000  
C07  37020546.509   192775770.225        -213.779          23.000  
C09  37631041.772   195954631.730        -984.695          22.000  
C16  37148511.121   193442051.375        -871.018          34.000  
C23  22546846.043   117407326.208        -918.288          29.000  
C25  22991266.777   119721591.034       -3114.089          25.000  
C32  24643740.493   128326367.835        1434.185          26.000  
G26  21361350.944   112254615.3821       1322.367          20.000  
G31  21093004.317   110844521.9261      -1447.592          31.000  
G32  20833981.835   109483303.668        -847.975          31.000  
J02  38691935.331   203327469.048       -2155.259          24.000  
R02  19157861.089   102229962.677        -944.755          35.000  
> 2021  9 12 12  1 42.9978762  0 12
C05  39318295.011   204740683.320       -1333.426          32.000  
C09  37630991.707   195954367.502        -984.158          23.000  
C16  37148440.370   193441674.773        -872.306          34.000  
C23  22546781.288   117406994.566        -915.200          28.000  
C25  22991628.327   119723456.050       -3113.925          27.000  
C32  24643226.050   128323684.333        1434.481          25.000  
G26  21360862.882   112252033.117        1321.400          24.000  
G31  21093040.292   110844708.300       -1446.724          30.000  
G32  20833901.190   109482889.259        -845.627          31.000  
J01  36927057.430   194052934.7141       -322.358          26.000  
J02  38692105.912   203328364.410       -2156.857          25.000  
R02  19157799.931   102229627.921        -945.322          35.000  
> 2021  9 12 12  1 43.9978752  0 13
C05  39318251.541   204740455.316       -1332.998          32.000  
C07  37020083.929   192773387.0591       -211.932          22.000  
C09  37630881.982   195953790.624        -984.830          25.000  
C16  37148305.463   193440986.026        -871.375          33.000  
C23  22546653.577   117406350.853        -917.527          26.000  
C25  22991929.019   119725009.077       -3114.642          27.000  
C32  24642651.048   128320687.995        1434.664          25.000  
E01  23377445.032   122849302.8011      -1486.933          28.000  
G31  21093014.210   110844579.959       -1446.848          28.000  
G32  20833757.590   109482160.270        -845.905          31.000  
J01  36926820.594   194051682.270        -323.830          24.000  
J02  38692215.636   203328946.159       -2156.866          24.000  
R02  19157677.016   102228973.908        -946.399          35.000  
> 2021  9 12 12  1 44.9978744  0 13
C05  39318267.130   204740539.105       -1332.543          32.000  
C07  37019885.167   192772349.594        -211.308          23.000  
C16  37148232.913   193440609.492        -872.116          33.000  
C23  22546585.524   117406019.157        -917.498          26.000  
C25  22992287.870   119726874.389       -3113.115          26.000  
C32  24642137.803   128318004.116        1435.370          23.000  
E01  23377487.302   122849524.465       -1487.924          29.000  
G26  21359822.902   112246553.1721       1322.411          24.000  
G31  21093048.986   110844765.984       -1445.969          27.000  
G32  20833682.642   109481746.635        -846.817          31.000  
J01  36926644.316   194050745.539        -324.154          26.000  
J02  38692383.520   203329841.896       -2155.364          25.000  
R02  19157614.360   102228640.715        -947.112          36.000  
> 2021  9 12 12  1 45.9978737  0 12
C05  39318313.898   204740778.618       -1332.181          29.000  
C07  37019716.084   192771468.931        -213.140          23.000  
C16  37148190.343   193440391.284        -872.344          27.000  
C23  22546550.448   117405844.576        -918.413          27.000  
C25  22992674.303   119728895.197       -3115.522          25.000  
C32  24641650.041   128315475.854        1435.584          24.000  
E01  23377561.051   122849911.671       -1486.152          30.000  
G26  21359361.822   112244128.586        1320.943          24.000  
G31  21093113.441   110845110.341       -1447.326          25.000  
G32  20833639.172   109481490.755        -849.409          34.000  
J01  36926499.816   194049967.191        -325.336          23.000  
R02  19157581.682   102228468.328        -947.968          35.000  
> 2021  9 12 12  1 46.9978729  0 11
C05  39318330.686   204740862.495       -1332.965          28.000  
C16  37148117.493   193440013.526        -868.868          25.000  
C23  22546487.791   117405514.114        -917.802          30.000  
C25  22993034.354   119730761.209       -3114.769          20.000  
C32  24641133.798   128312790.749        1436.671          23.000  
E01  23377602.423   122850129.335       -1486.725          25.000  
G26  21358871.361   112241548.808        1318.477          26.000  
G32  20833560.027   109481077.592        -847.022          28.000  
J01  36926323.238   194049031.588        -324.856          28.000  
J02  38692757.961   203331786.0181      -2154.479          20.000  
R02  19157522.623   102228136.562        -948.131          29.000  
> 2021  9 12 12  1 47.9978719  0  8
C07  37019258.900   192769085.3441       -212.850          19.000  
C16  37147984.086   193439321.573        -869.703          30.000  
C23  22546361.579   117404870.689        -917.905          32.000  
C32  24640556.398   128309793.698        1435.307          24.000  
G31  21093120.037   110845169.5461      -1448.139          32.000  
G32  20833422.722   109480348.584        -845.630          20.000  
J01  36926083.404   194047780.652        -324.409          28.000  
R02  19157395.511   102227484.510        -947.642          28.000  
> 2021  9 12 12  1 48.9978711  0 12
C07  37019058.939   192768049.481        -212.965          30.000  
C09  37630602.276   195952297.3721       -983.031          25.000  
C16  37147910.637   193438942.423        -869.440          31.000  
C23  22546294.725   117404540.325        -919.072          30.000  
C25  22993700.193   119734176.9621      -3110.833          22.000  
C32  24640039.256   128307108.819        1437.712          23.000  
G10  21716225.770   114119535.9221      -4270.368          18.000  
G31  21093153.314   110845357.246       -1447.661          30.000  
G32  20833345.375   109479933.235        -845.941          26.000  
J01  36925902.929   194046845.035        -323.758          24.000  
J02  38693041.265   203333259.4041      -2154.845          27.000  
R02  19157331.056   102227152.896        -948.529          30.000  
> 2021  9 12 12  1 49.9978701  0 11
C07  37018800.518   192766702.497        -215.875          28.000  
C09  37630493.451   195951720.209        -985.656          26.000  
C16  37147777.529   193438251.114        -870.424          34.000  
C23  22546169.412   117403898.577        -919.859          30.000  
G10  21716738.415   114122230.735       -4269.360          19.000  
G26  21357274.966   112233183.5861       1315.450          24.000  
G31  21093127.831   110845229.646       -1447.892          31.000  
G32  20833205.072   109479204.079        -846.709          31.000  
J01  36925665.794   194045593.756        -324.908          27.000  
J02  38693150.989   203333838.355       -2154.505          29.000  
R02  19157206.642   102226502.087        -949.538          31.000  
> 2021  9 12 12  1 50.9978696  0 11
C07  37018691.693   192766137.706        -216.313          23.000  
C09  37630533.624   195951925.011        -984.772          21.000  
C16  37147792.518   193438343.239        -875.104          36.000  
C25  22994443.078   119738059.6501      -3113.541          25.000  
C32  24639041.247   128301895.4561       1434.438          21.000  
G26  21356875.643   112231080.602        1315.631          23.000  
G31  21093253.445   110845889.964       -1448.186          28.000  
G32  20833214.965   109479263.249        -847.406          32.000  
J01  36925577.055   194045131.022        -324.847          24.000  
J02  38693410.010   203335204.818       -2154.542          27.000  
R02  19157233.623   102226652.481        -950.984          32.000  
> 2021  9 12 12  1 51.9978685  0 11
C09  37630395.419   195951191.248        -982.651          24.000  
C16  37147630.630   193437499.491        -872.847          28.000  
C25  22994710.193   119739456.637       -3114.314          24.000  
C32  24638435.666   128298744.158        1433.198          27.000  
G10  21717883.322   114128246.2061      -4266.276          21.000  
G26  21356296.144   112228031.713        1315.881          26.000  
G31  21093197.983   110845605.201       -1448.384          29.000  
G32  20833044.084   109478378.070        -848.381          30.000  
J01  36925307.841   194043721.905        -323.376          28.000  
J02  38693488.855   203335626.860       -2154.362          26.000  
R02  19157079.530   102225844.167        -952.021          26.000  
> 2021  9 12 12  1 52.9978678  0 10
C07  37018233.011   192763758.7761       -215.658          18.000  
C09  37630376.832   195951080.731        -981.879          27.000  
C16  37147589.259   193437278.170        -871.220          27.000  
C25  22995097.525   119741478.819       -3115.898          29.000  
C32  24637947.004   128296218.359        1432.953          28.000  
G26  21355835.063   112225613.140        1315.785          25.000  
G32  20832994.318   109478123.865        -849.126          32.000  
J01  36925159.144   194042941.950        -322.506          29.000  
J02  38693688.817   203336678.603       -2154.211          27.000  
R02  19157044.754   102225676.543        -952.762          25.000  
> 2021  9 12 12  1 53.9978668  0 11
C07  37017974.589   192762413.519        -215.786          18.000  
C09  37630270.706   195950501.681        -981.965          26.000  
C16  37147456.451   193436587.654        -869.733          27.000  
C25  22995395.819   119743032.725       -3114.890          27.000  
C32  24637369.004   128293223.759        1433.720          25.000  
G26  21355286.143   112222721.476        1316.399          24.000  
G31  21093239.954   110845824.4211      -1449.833          34.000  
G32  20832854.315   109477397.737        -848.894          32.000  
J01  36924920.210   194041689.047        -322.588          30.000  
J02  38693800.040   203337257.791       -2154.813          28.000  
R02  19156919.740   102225029.607        -953.368          28.000  
> 2021  9 12 12  1 54.9978662  0 13
C07  37017834.586   192761691.744        -213.961          23.000  
C09  37630281.498   195950547.517        -983.073          24.000  
C16  37147443.860   193436521.035        -870.642          28.000  
C23  22545899.898   117402416.2081       -924.658          31.000  
C25  22995811.931   119745210.587       -3114.215          27.000  
C32  24636910.921   128290853.312        1433.637          25.000  
G10  21719623.318   114137422.6221      -4270.687          20.000  
G26  21354856.840   112220458.838        1318.091          23.000  
G31  21093334.988                       -1447.692          33.000  
G32  20832839.325   109477302.813        -850.494          31.000  
J01  36924801.792   194041067.505        -324.680          30.000  
J02  38694031.479   203338467.671       -2155.080          28.000  
R02  19156922.738   102225023.382        -953.835          28.000  
> 2021  9 12 12  1 55.9978652  0 11
C07  37017572.868   192760344.703        -214.927          22.000  
C09  37630172.674   195949968.931        -981.787          27.000  
C16  37147312.251   193435830.501        -870.819          29.000  
C23  22545776.983   117401779.452        -923.558          30.000  
C25  22996110.224   119746763.961       -3115.282          27.000  
C32  24636336.219   128287858.105        1433.905          25.000  
G31  21093308.606   110846097.1061      -1449.211          32.000  
G32  20832700.522   109476577.419        -849.507          32.000  
J01  36924563.756   194039816.894        -325.060          29.000  
J02  38694143.902   203339047.557       -2155.334          29.000  
R02  19156802.522   102224377.928        -954.933          30.000  
> 2021  9 12 12  1 56.9978644  0 12
C07  37017372.606   192759310.365        -214.386          23.000  
C09  37630124.407   195949701.939        -983.311          26.000  
C16  37147239.701   193435452.743        -871.444          27.000  
C23  22545713.427   117401453.683        -922.631          29.000  
C25  22996467.877   119748630.834       -3115.908          30.000  
C32  24635819.077   128285177.070        1431.493          24.000  
G10  21720713.963   114143132.5431      -4273.846          19.000  
G31  21093343.082   110846286.102       -1449.277          30.000  
G32  20832621.077   109476166.304        -848.985          29.000  
J01  36924384.780   194038880.667        -322.815          28.000  
J02  38694315.083   203339942.439       -2155.346          29.000  
R02  19156749.458   102224053.335        -955.572          31.000  
> 2021  9 12 12  1 57.9978634  0 10
C09  37630013.484   195949123.564        -982.923          26.000  
C16  37147109.291   193434763.673        -872.217          27.000  
C23  22545590.812   117400814.494        -921.854          30.000  
C25  22996765.870   119750185.157       -3115.136          29.000  
G26  21353271.538   112212100.3831       1310.910          24.000  
G31  21093317.900   110846159.408       -1449.182          29.000  
G32  20832482.273   109475439.876        -849.517          31.000  
J01  36924145.246   194037628.340        -324.339          28.000  
J02  38694426.306   203340522.222       -2154.938          28.000  
R02  19156631.940   102223409.387        -956.128          31.000  
> 2021  9 12 12  1 58.9978629  0  8
C09  37630051.857   195949325.955        -983.051          26.000  
C16  37147127.279   193434854.417        -870.957          29.000  
C23  22545617.794   117400954.896        -920.627          30.000  
C25  22997212.861   119752520.017       -3116.151          28.000  
G31  21093443.513   110846821.147       -1449.596          30.000  
J01  36924055.908   194037164.962        -324.419          27.000  
J02  38694686.826   203341890.077       -2155.387          26.000  
R02  19156661.020   102223565.861        -956.521          30.000  
> 2021  9 12 12  1 59.9978619  0  9
C09  37629940.035   195948747.634        -982.020          28.000  
C16  37146995.070   193434163.352        -869.682          30.000  
C23  22545494.879   117400313.548        -919.696          29.000  
C25  22997510.255   119754074.737       -3115.705          28.000  
C32  24634245.467   128276977.5641       1432.291          25.000  
G26  21352319.097   112207114.5741       1310.032          23.000  
J01  36923819.372   194035913.918        -325.255          27.000  
J02  38694798.948   203342469.705       -2154.659          27.000  
R02  19156544.100   102222922.955        -957.363          31.000  
> 2021  9 12 12  2  0.9978611  0 10
C09  37629888.170   195948480.780        -981.488          29.000  
C16  37146922.521   193433783.396        -869.178          31.000  
C23  22545431.622   117399984.786        -920.931          30.000  
C25  22997867.608   119755940.788       -3114.956          29.000  
C32  24633732.822   128274296.029        1432.173          27.000  
G10  21722984.291   114155017.7211      -4270.840          20.000  
G26  21351830.435   112204543.337        1310.477          26.000  
J01  36923641.895   194034979.042        -325.008          26.000  
J02  38694969.230   203343364.153       -2154.633          28.000  
R02  19156487.140   102222600.745        -958.184          32.000  
> 2021  9 12 12  2  1.9978601  0 10
C09  37629775.748   195947901.477        -981.799          28.000  
C16  37146788.813   193433091.474        -869.509          30.000  
C23  22545308.408   117399345.593        -922.515          31.000  
