     3.03           OBSERVATION DATA    M: Mixed            RINEX VERSION / TYPE
Geo++ RINEX Logger  Geo++               20210912 125942 UTC PGM / RUN BY / DATE
************************************************************COMMENT
This file was generated by the Geo++ RINEX Logger App       COMMENT
for Android devices (Version 2.1.6). If you encounter       COMMENT
any issues, please send an email to android@geopp.de        COMMENT
Filtering Mode: MORE                                        COMMENT
************************************************************COMMENT
Geo++                                                       MARKER NAME
GEODETIC                                                    MARKER TYPE
Geo++               Geo++                                   OBSERVER / AGENCY
unknown             HUAWEI              ELS-AN00            REC # / TYPE / VERS
unknown             ELS-AN00                                ANT # / TYPE
 -2417238.4853  5386499.9134  2405084.4156                  APPROX POSITION XYZ
        0.0000        0.0000        0.0000                  ANTENNA: DELTA H/E/N
G    8 C1C L1C D1C S1C C5Q L5Q D5Q S5Q                      SYS / # / OBS TYPES
R    4 C1C L1C D1C S1C                                      SYS / # / OBS TYPES
E   12 C1B L1B D1B S1B C1C L1C D1C S1C C5Q L5Q D5Q S5Q      SYS / # / OBS TYPES
C    4 C2I L2I D2I S2I                                      SYS / # / OBS TYPES
J    8 C1C L1C D1C S1C C5Q L5Q D5Q S5Q                      SYS / # / OBS TYPES
  2021     9    12    13     0    0.9980664     GPS         TIME OF FIRST OBS
 24 R01  1 R02 -4 R03  5 R04  6 R05  1 R06 -4 R07  5 R08  6 GLONASS SLOT / FRQ #
    R09 -2 R10 -5 R11  0 R12 -1 R13 -2 R14 -7 R15  0 R16 -1 GLONASS SLOT / FRQ #
    R17  4 R18 -3 R19  3 R20  2 R21  4 R22 -3 R23  3 R24  2 GLONASS SLOT / FRQ #
G L1C                                                       SYS / PHASE SHIFT
G L5Q -0.25000                                              SYS / PHASE SHIFT
R L1C                                                       SYS / PHASE SHIFT
E L1B                                                       SYS / PHASE SHIFT
E L1C +0.50000                                              SYS / PHASE SHIFT
E L5Q -0.25000                                              SYS / PHASE SHIFT
C L2I                                                       SYS / PHASE SHIFT
J L1C                                                       SYS / PHASE SHIFT
J L5Q -0.25000                                              SYS / PHASE SHIFT
 C1C    0.000 C1P    0.000 C2C    0.000 C2P    0.000        GLONASS COD/PHS/BIS
                                                            END OF HEADER
> 2021  9 12 13  0  0.9980664  0  2
G31  21372905.246   112315517.257       -1884.662          24.000  
J01  36361322.680   191079932.608        -588.649          27.000  
> 2021  9 12 13  0  1.9980657  0  2
G31  21373054.842   112316299.252       -1884.688          23.000  
J01  36361225.248   191079418.681        -589.077          28.000  
> 2021  9 12 13  0  2.9980646  0  2
G31  21373085.421   112316449.884       -1883.379          28.000  
J01  36361006.699   191078274.877        -589.693          29.000  
> 2021  9 12 13  0  3.9980641  0  2
G31  21373292.577   112317545.461       -1883.119          30.000  
J01  36360969.525   191078076.596        -589.453          30.000  
> 2021  9 12 13  0  4.9980631  0  2
G31  21373351.337   112317853.099       -1882.527          32.000  
J01  36360782.454   191077091.194        -589.881          27.000  
> 2021  9 12 13  0  5.9980623  0  2
G31  21373468.556   112318474.928       -1882.742          33.000  
J01  36360654.443   191076420.052        -588.475          25.000  
> 2021  9 12 13  0  6.9980616  0  2
G31  21373616.953   112319254.525       -1882.594          31.000  
J01  36360558.209   191075906.404        -589.382          25.000  
> 2021  9 12 13  0  7.9980608  0  2
G31  21373734.172   112319876.317       -1883.323          32.000  
J01  36360431.397   191075234.727        -588.313          23.000  
> 2021  9 12 13  0  8.9980600  0  2
G31  21373851.391   112320500.039       -1883.779          34.000  
J01  36360302.187   191074562.791        -587.496          23.000  
> 2021  9 12 13  0  9.9980593  0  2
G31  21374003.385   112321280.783       -1881.929          33.000  
J01  36360204.454   191074046.603        -587.854          24.000  
> 2021  9 12 13  0 10.9980582  0  2
G31  21374031.566   112321430.697       -1882.685          27.000  
J01  36359987.405   191072902.178        -589.121          29.000  
> 2021  9 12 13  0 11.9980577  0  2
G31  21374239.322   112322525.853       -1882.917          31.000  
J01  36359950.830   191072704.410        -590.501          27.000  
> 2021  9 12 13  0 12.9980567  0  2
G31  21374296.283   112322832.965       -1883.129          29.000  
J01  36359763.759   191071719.388        -590.650          28.000  
> 2021  9 12 13  0 13.9980559  0  1
J01  36359638.146   191071049.668        -591.230          23.000  
> 2021  9 12 13  0 14.9980552  0  2
G31  21374562.498   112324237.8871      -1883.899          23.000  
J01  36359542.512   191070537.949        -590.780          24.000  
> 2021  9 12 13  0 15.9980541  0  2
G31  21374589.779   112324389.012       -1884.006          25.000  
J01  36359323.964   191069394.953        -588.876          27.000  
> 2021  9 12 13  0 16.9980536  0  2
G31  21374797.536   112325486.443       -1886.373          25.000  
J01  36359285.590   191069197.187        -590.166          26.000  
> 2021  9 12 13  0 17.9980529  0  2
G31  21374945.933   112326269.085       -1884.160          26.000  
J01  36359188.158   191068684.847        -590.681          30.000  
> 2021  9 12 13  0 18.9980518  0  2
G31  21374973.214   112326419.828       -1883.826          31.000  
J01  36358972.307   191067543.189        -591.330          27.000  
> 2021  9 12 13  0 19.9980511  0  2
G31  21375120.112   112327200.267       -1883.347          31.000  
J01  36358875.474   191067032.545        -591.778          29.000  
> 2021  9 12 13  0 20.9980503  0  1
J01  36358749.861   191066364.710        -592.721          29.000  
> 2021  9 12 13  0 21.9980495  0  3
G31  21375357.548   112328446.6681      -1884.675          35.000  
J01  36358623.948   191065696.730        -592.071          25.000  
R02  19803634.429   105675769.5671      -3641.057          23.000  
> 2021  9 12 13  0 22.9980488  0  1
J01  36358528.614   191065185.066        -591.322          25.000  
> 2021  9 12 13  0 23.9980477  0  1
J01  36358312.164   191064042.965        -591.345          24.000  
> 2021  9 12 13  0 24.9980472  0  2
G31  21375748.177   112330476.1081      -1885.897          33.000  
J01  36358274.390   191063847.118        -592.071          28.000  
> 2021  9 12 13  0 25.9980465  0  2
G31  21375895.376   112331258.585       -1884.504          32.000  
J01  36358178.457   191063336.673        -592.710          28.000  
> 2021  9 12 13  0 26.9980454  0  1
J01  36357961.107   191062196.809        -593.075          29.000  
> 2021  9 12 13  0 27.9980447  0  2
G31  21376070.754   112332191.3641      -1883.837          25.000  
J01  36357862.476   191061686.144        -591.602          29.000  
> 2021  9 12 13  0 28.9980436  0  2
G31  21376099.234   112332343.963       -1888.855          26.000  
J01  36357644.826   191060545.082        -592.112          31.000  
> 2021  9 12 13  0 29.9980431  0  2
G31  21376307.890   112333444.382       -1886.834          21.000  
J01  36357607.052   191060349.861        -593.195          29.000  
> 2021  9 12 13  0 30.9980424  0  2
G31  21376457.187   112334228.307       -1886.727          30.000  
J01  36357509.620   191059840.355        -593.093          31.000  
> 2021  9 12 13  0 31.9980413  0  2
G31  21376484.468   112334382.064       -1887.551          22.000  
J01  36357291.071   191058700.473        -592.879          30.000  
> 2021  9 12 13  0 32.9980406  0  2
G31  21376634.064   112335165.697       -1886.351          27.000  
J01  36357193.039   191058190.793        -593.352          29.000  
> 2021  9 12 13  0 33.9980398  0  2
G31  21376751.883   112335790.854       -1885.409          25.000  
J01  36357066.527   191057524.369        -594.832          27.000  
> 2021  9 12 13  0 34.9980390  0  2
G31  21376870.001   112336416.987       -1886.411          26.000  
J01  36356939.714   191056858.612        -595.018          30.000  
> 2021  9 12 13  0 35.9980383  0  2
G31  21377018.698   112337200.293       -1885.895          24.000  
J01  36356841.083   191056350.402        -592.888          27.000  
> 2021  9 12 13  0 36.9980372  0  1
J01  36356627.031   191055210.683        -593.323          30.000  
> 2021  9 12 13  0 37.9980367  0  2
G31  21377262.429   112338453.4031      -1887.776          26.000  
J01  36356588.957   191055016.775        -593.746          29.000  
> 2021  9 12 13  0 38.9980360  0  2
G31  21377411.726   112339238.193       -1887.523          23.000  
J01  36356489.426   191054508.126        -594.636          27.000  
> 2021  9 12 13  0 39.9980349  0  1
J01  36356271.477   191053369.146        -593.178          26.000  
> 2021  9 12 13  0 40.9980342  0  2
G31  21377591.301   112340178.0331      -1888.840          28.000  
J01  36356174.644   191052859.152        -592.426          27.000  
> 2021  9 12 13  0 41.9980334  0  2
G31  21377713.917   112340806.296       -1888.094          24.000  
J01  36356049.631   191052191.359        -592.286          23.000  
> 2021  9 12 13  0 42.9980326  0  2
G31  21377835.333   112341436.465       -1891.252          19.000  
J01  36355921.020   191051521.909        -591.404          22.000  
> 2021  9 12 13  0 43.9980316  0  2
G31  21377896.790   112341753.569       -1893.333          28.000  
J01  36355736.347   191050537.754        -591.154          26.000  
> 2021  9 12 13  0 44.9980308  0  2
G31  21378018.506   112342386.513       -1892.228          27.000  
J01  36355609.835   191049869.065        -591.921          27.000  
> 2021  9 12 13  0 45.9980301  0  2
G31  21378169.601   112343175.142       -1889.907          28.000  
J01  36355514.501   191049358.543        -592.550          26.000  
> 2021  9 12 13  0 46.9980293  0  2
G31  21378290.118   112343804.537       -1889.940          25.000  
J01  36355389.787   191048691.439        -593.913          24.000  
> 2021  9 12 13  0 47.9980285  0  2
G31  21378410.334   112344434.450       -1890.882          31.000  
J01  36355261.776   191048025.205        -593.691          24.000  
> 2021  9 12 13  0 48.9980275  0  1
G31  21378471.192   112344750.535       -1892.034          31.000  
> 2021  9 12 13  0 49.9980268  0  2
G31  21378622.887   112345540.189       -1892.778          32.000  
G32  20959903.061   110145033.6801      -2218.835          28.000  
> 2021  9 12 13  0 50.9980262  0  4
G26  20201365.486   106158891.4251       -553.147          29.000  
G31  21378800.964   112346487.105       -1891.757          33.000  
G32  20960143.794   110146308.087       -2220.805          25.000  
R02  19816496.425   105744621.1721      -3660.502          36.000  
> 2021  9 12 13  0 51.9980252  0  7
C06  36208888.408   188549318.1381       -684.836          29.000  
C10  37142311.113   193409760.4591       -561.777          25.000  
C16  36780498.191   191525780.7051       -642.692          30.000  
C32  23125551.614   120420815.6031        298.797          26.000  
E01  23929556.313   125750666.3761      -2635.549          33.000  
G31  21378856.126   112346802.938       -1891.060          33.000  
J01  36354715.254   191045196.5961       -592.408          29.000  
> 2021  9 12 13  0 52.9980244  0  9
C06  36208780.183   188548753.825        -684.362          26.000  
C16  36780380.972   191525174.086        -641.669          30.000  
C32  23125255.419   120419268.532         296.888          23.000  
E01  23929814.134   125752021.040       -2633.747          32.000  
E31  24446649.437   128468009.3291       -175.259          30.000  
G31  21378975.743   112347433.943       -1892.009          32.000  
G32  20960442.687   110147913.4851      -2219.822          27.000  
J01  36354588.142   191044528.518        -592.440          28.000  
R02  19817317.856   105749066.0691      -3662.253          23.000  
> 2021  9 12 13  0 53.9980237  0  9
C06  36208702.237   188548345.428        -684.983          29.000  
C16  36780294.932   191524723.343        -642.798          27.000  
C32  23124989.203   120417878.417         297.196          25.000  
E01  23930103.434   125753542.246       -2633.139          29.000  
E31  24446476.157   128467081.350        -174.589          32.000  
G26  20200934.684   106156614.9841       -555.433          27.000  
G32  20960655.240   110149029.939       -2217.793          24.000  
J01  36354489.211   191044018.930        -594.669          28.000  
R02  19817790.629   105751608.169       -3661.948          31.000  
> 2021  9 12 13  0 54.9980229  0  9
C06  36208592.513   188547780.914        -684.546          27.000  
C16  36780177.713   191524116.585        -642.164          29.000  
C32  23124695.406   120416333.299         296.420          28.000  
E01  23930362.755   125754904.910       -2633.380          32.000  
E31  24446268.700   128465996.056        -176.000          31.000  
G31  21379246.156   112348854.4681      -1891.745          31.000  
G32  20960834.216   110149989.034       -2220.820          25.000  
J01  36354362.698   191043354.708        -596.276          26.000  
R02  19818234.921   105753990.793       -3662.694          35.000  
> 2021  9 12 13  0 55.9980221  0 10
C06  36208483.389   188547217.815        -687.032          24.000  
C16  36780060.494   191523509.752        -642.627          27.000  
C32  23124401.910   120414788.505         295.999          27.000  
E01  23930622.075   125756267.574       -2633.806          31.000  
E31  24446060.345   128464911.665        -175.825          24.000  
G26  20200665.470   106155205.3951       -556.608          28.000  
G31  21379365.773   112349486.491       -1893.050          32.000  
G32  20961011.394   110150949.416       -2220.677          29.000  
J01  36354237.685   191042691.670        -598.576          27.000  
R02  19818679.514   105756374.578       -3663.794          33.000  
> 2021  9 12 13  0 56.9980211  0  6
C10  37141617.993   193406184.4391       -567.247          19.000  
C16  36779884.516   191522592.404        -645.099          24.000  
E01  23930824.735   125757332.154       -2634.081          24.000  
G32  20961133.110   110151595.254       -2222.385          26.000  
J01  36354053.013   191041714.902        -598.802          21.000  
R02  19819062.349   105758439.473       -3664.710          29.000  
> 2021  9 12 13  0 57.9980204  0  4
C06  36208238.158   188545936.5571       -684.277          16.000  
C16  36779801.173   191522144.819        -644.690          21.000  
G26  20200374.072   106153647.0101       -561.819          18.000  
R02  19819535.421   105760986.374       -3668.137          29.000  
> 2021  9 12 13  0 58.9980196  0  5
C16  36779683.955   191521539.699        -644.521          21.000  
C32  23123491.440   120410002.4111        292.199          13.000  
G31  21379702.740   112351232.9251      -1897.449          17.000  
J01  36353828.168   191040547.5211       -596.318          21.000  
R02  19819978.514   105763374.234       -3668.768          28.000  
> 2021  9 12 13  0 59.9980188  0  5
C10  37141259.441   193404293.2721       -567.298          18.000  
C16  36779567.635   191520934.399        -643.368          21.000  
G26  20200106.657   106152253.2841       -564.013          17.000  
G31  21379827.154   112351869.525       -1897.400          20.000  
J01  36353700.457   191039883.008        -595.530          23.000  
> 2021  9 12 13  1  0.9980180  0  7
C06  36207912.584   188544238.2031       -682.823          16.000  
C16  36779451.915   191520329.169        -643.244          24.000  
G26  20199974.748   106151556.835        -563.157          24.000  
G31  21379944.373   112352505.339       -1894.856          23.000  
G32  20961893.683   110155608.2031      -2225.533          25.000  
J01  36353574.544   191039218.974        -597.069          26.000  
R02  19820885.686   105768151.9951      -3669.489          27.000  
> 2021  9 12 13  1  1.9980170  0  6
C06  36207744.100   188543359.122        -682.985          18.000  
C16  36779274.438   191519411.257        -643.673          24.000  
G26  20199781.382   106150543.882        -562.124          25.000  
G31  21380005.230   112352824.625       -1894.308          27.000  
J01  36353390.771   191038241.136        -598.657          25.000  
R02  19821272.718   105770221.206       -3669.917          28.000  
> 2021  9 12 13  1  2.9980163  0  5
C16  36779185.999   191518961.248        -642.508          23.000  
G26  20199679.753   106150002.610        -561.519          24.000  
G31  21380155.726   112353616.151       -1895.325          22.000  
J01  36353296.337   191037736.626        -599.277          25.000  
R02  19821755.984   105772771.849       -3670.668          30.000  
> 2021  9 12 13  1  3.9980157  0  5
C16  36779130.538   191518666.627        -641.994          23.000  
G26  20199608.102   106149619.760        -562.845          24.000  
G32  20962483.075   110158664.6851      -2227.880          28.000  
J01  36353228.284   191037390.975        -599.092          25.000  
R02  19822268.029   105775483.590       -3672.275          29.000  
> 2021  9 12 13  1  4.9980147  0  7
C06  36207448.505   188541826.0681       -688.797          20.000  
C10  37140577.713   193400731.0901       -571.218          15.000  
C16  36778953.960   191517748.141        -643.599          22.000  
G26  20199417.135   106148609.368        -564.628          25.000  
G31  21380397.059   112354883.1381      -1893.905          21.000  
G32  20962610.487   110159317.810       -2229.587          30.000  
J01  36353041.213   191036414.518        -599.035          26.000  
> 2021  9 12 13  1  5.9980140  0  4
C06  36207371.458   188541424.182        -690.693          21.000  
G26  20199314.905   106148071.056        -564.596          27.000  
G32  20962825.738   110160444.799       -2229.537          25.000  
R02  19823154.516   105780107.0061      -3672.947          25.000  
> 2021  9 12 13  1  6.9980129  0  6
C16  36778664.660   191516227.3681       -646.287          22.000  
G26  20199091.560   106146903.388        -565.619          25.000  
G31  21380585.928   112355835.2821      -1892.715          19.000  
G32  20962919.273   110160941.428       -2229.640          19.000  
J01  36352733.626   191034776.2911       -600.030          24.000  
R02  19823512.468   105782020.934       -3675.297          28.000  
> 2021  9 12 13  1  7.9980124  0  7
C06  36207158.606   188540306.6741       -688.638          21.000  
C16  36778639.478   191516092.479        -644.415          21.000  
G26  20199048.390   106146680.668        -565.408          19.000  
G31  21380793.085   112356943.515       -1896.366          22.000  
G32  20963192.684   110162383.371       -2229.794          25.000  
J01  36352700.349   191034588.671        -601.226          25.000  
R02  19824049.996   105784897.114       -3675.931          32.000  
> 2021  9 12 13  1  8.9980116  0  5
C06  36207050.680   188539745.814        -687.886          21.000  
C16  36778523.458   191515488.322        -644.729          23.000  
G26  20198913.483   106145986.177        -565.904          19.000  
G31  21380913.602   112357580.167       -1897.275          25.000  
G32  20963377.056   110163353.552       -2231.698          27.000  
> 2021  9 12 13  1  9.9980106  0  6
C16  36778349.279   191514571.502        -644.873          21.000  
G26  20198724.014   106144977.799        -569.629          20.000  
G31  21380976.258   112357901.798       -1895.026          25.000  
G32  20963502.070   110164009.164       -2229.948          26.000  
J01  36352389.165   191032952.8971       -599.181          24.000  
R02  19824882.819   105789367.9431      -3676.207          28.000  
> 2021  9 12 13  1 10.9980099  0  5
C16  36778262.039   191514123.443        -645.379          20.000  
G31  21381124.056   112358695.806       -1897.943          21.000  
G32  20963715.522   110165137.832       -2233.153          26.000  
J01  36352292.332   191032450.448        -601.489          25.000  
R02  19825360.688   105791925.948       -3678.503          30.000  
> 2021  9 12 13  1 11.9980091  0  4
C16  36778145.120   191513520.321        -647.463          18.000  
G26  20198502.468   106143758.8551       -573.495          24.000  
G31  21381243.073   112359334.772       -1898.594          22.000  
J01  36352166.719   191031792.581        -602.397          24.000  
> 2021  9 12 13  1 12.9980083  0  3
G31  21381362.391   112359973.058       -1898.624          27.000  
G32  20964086.665   110167084.9201      -2237.427          22.000  
J01  36352044.104   191031134.714        -602.496          21.000  
> 2021  9 12 13  1 13.9980076  0  3
G31  21381511.687   112360768.893       -1898.704          29.000  
G32  20964301.316   110168219.576       -2237.527          16.000  
J01  36351947.271   191030634.888        -603.438          26.000  
> 2021  9 12 13  1 14.9980065  0  5
C16  36777736.503   191511401.3611       -645.750          25.000  
G26  20198036.290   106141375.1951       -571.342          25.000  
G32  20964396.950   110168723.341       -2236.718          24.000  
J01  36351734.118   191029505.744        -603.682          30.000  
R02  19827115.074   105801205.9731      -3682.704          24.000  
> 2021  9 12 13  1 15.9980058  0  4
G26  20197934.961   106140844.276        -573.619          24.000  
G31  21381691.863   112361731.1581      -1899.851          30.000  
J01  36351639.084   191029005.786        -601.465          27.000  
R02  19827591.744   105803769.240       -3683.805          32.000  
> 2021  9 12 13  1 16.9980050  0  6
C16  36777538.940   191510351.7561       -645.144          18.000  
G26  20197802.153   106140158.022        -574.089          23.000  
G31  21381816.576   112362371.180       -1900.809          29.000  
G32  20964796.573   110170834.4851      -2237.483          24.000  
J01  36351513.471   191028347.540        -603.205          26.000  
R02  19828036.936   105806173.858       -3684.335          30.000  
> 2021  9 12 13  1 17.9980042  0  3
G26  20197670.544   106139471.702        -574.007          28.000  
G32  20964983.044   110171810.022       -2236.132          24.000  
R02  19828483.626   105808578.812       -3685.264          31.000  
> 2021  9 12 13  1 18.9980035  0  5
G26  20197570.713   106138943.532        -575.029          29.000  
G31  21382092.385   112363811.3111      -1900.251          20.000  
G32  20965201.893   110172945.017       -2239.043          20.000  
J01  36351289.526   191027189.3071       -602.166          30.000  
R02  19828961.196   105811145.005       -3686.530          37.000  
> 2021  9 12 13  1 19.9980024  0  5
C16  36777133.021   191508221.3341       -644.644          25.000  
G26  20197348.567   106137785.941        -575.275          30.000  
G31  21382123.264   112363977.948       -1899.214          27.000  
G32  20965298.426   110173451.147       -2239.334          26.000  
R02  19829318.548   105813071.233       -3685.544          33.000  
> 2021  9 12 13  1 20.9980019  0  3
C16  36777105.440   191508086.485        -646.845          31.000  
G26  20197306.895   106137574.440        -577.377          35.000  
R02  19829856.076   105815957.712       -3687.866          35.000  
> 2021  9 12 13  1 21.9980009  0 10
C06  36205563.710   188531987.2841       -689.420          29.000  
C07  36417243.867   189634144.7911       -618.579          25.000  
C16  36776927.963   191507172.613        -647.709          30.000  
C32  23116625.593   120374262.5361        277.456          26.000  
E01  23937329.931   125791517.6701      -2646.898          33.000  
G26  20197116.527   106136576.619        -578.137          34.000  
G31  21382401.771   112365413.1391      -1899.877          29.000  
G32  20965699.248   110175568.4041      -2241.552          30.000  
J01  36350859.923   191024902.3901       -604.210          32.000  
R02  19830243.708   105818046.420       -3689.260          33.000  
> 2021  9 12 13  1 22.9980001  0  9
C06  36205456.684   188531427.817        -689.837          30.000  
C07  36417123.950   189633515.248        -620.178          27.000  
C16  36776811.643   191506571.525        -648.002          27.000  
C32  23116332.096   120372736.521         276.785          29.000  
E01  23937591.650   125792892.334       -2647.227          32.000  
G26  20196985.818   106135894.214        -578.900          31.000  
G31  21382522.588   112366053.207       -1900.193          27.000  
J01  36350735.210   191024246.293        -604.408          35.000  
R02  19830693.996   105820456.409       -3690.253          37.000  
> 2021  9 12 13  1 23.9979991  0 10
C06  36205290.299   188530556.676        -690.105          30.000  
C07  36416945.273   189632574.342        -619.893          25.000  
C16  36776635.365   191505658.166        -648.588          26.000  
C32  23115978.641   120370899.021         275.812          31.000  
E01  23937793.111   125793950.914       -2647.219          30.000  
G26  20196795.749   106134897.615        -578.432          32.000  
G31  21382584.944   112366379.065       -1902.509          26.000  
G32  20966013.731   110177215.6291      -2241.799          33.000  
J01  36350549.938   191023276.340        -606.637          32.000  
R02  19831082.827   105822547.255       -3691.584          35.000  
> 2021  9 12 13  1 24.9979986  0  9
C06  36205272.611   188530465.935        -689.795          29.000  
C07  36416916.194   189632413.675        -620.430          24.000  
C16  36776609.883   191505526.406        -648.408          26.000  
C32  23115775.382   120369843.624         274.266          31.000  
E01  23938146.266   125795807.204       -2650.358          30.000  
G26  20196761.873   106134688.649        -579.201          32.000  
G31  21382798.097   112367493.526       -1902.785          28.000  
J01  36350513.063                        -607.083          33.000  
R02  19831621.854   105825439.056       -3691.765          38.000  
> 2021  9 12 13  1 25.9979978  0 10
C06  36205164.686   188529907.472        -690.965          29.000  
C07  36416795.677   189631785.476        -620.007          24.000  
C16  36776494.463   191504926.022        -648.374          28.000  
C32  23115482.484   120368320.974         273.548          31.000  
E01  23938416.079   125797224.868       -2648.990          32.000  
G26  20196632.662                        -581.712          33.000  
G29  23639885.448   124228436.4151      -1365.634          22.000  
G32  20966474.212   110179565.1061      -2243.051          34.000  
J01  36350393.146                        -605.448          33.000  
R02  19832078.738   105827851.399       -3693.308          37.000  
> 2021  9 12 13  1 26.9979968  0 10
C06  36204996.802   188529037.200        -690.708          29.000  
C07  36416612.804   189630845.818        -622.769          23.000  
C16  36776318.185   191504013.346        -648.396          30.000  
C32  23115130.528   120366486.452         272.853          31.000  
E01  23938627.433   125798335.448       -2649.731          32.000  
G26  20196443.793   106133026.5491       -581.493          33.000  
G31  21382985.767   112368465.8541      -1906.584          25.000  
G32  20966598.926   110180233.470       -2243.705          35.000  
J01  36350207.575   191021610.2721       -606.725          32.000  
R02  19832470.566   105829944.770       -3693.292          34.000  
> 2021  9 12 13  1 27.9979960  0 14
C06  36204890.076   188528480.049        -692.925          29.000  
C07  36416491.088   189630221.303        -624.113          22.000  
C10  37137489.251   193384599.6501       -575.037          24.000  
C16  36776201.565   191503412.594        -648.521          31.000  
C23  22616805.311   117771640.0601      -1755.115          24.000  
C32  23114839.729   120364964.476         272.559          29.000  
E01  23938893.349   125799733.112       -2649.045          34.000  
E31  24439361.782   128429712.4571       -192.747          30.000  
G26  20196317.280   106132348.159        -581.209          34.000  
G29  23639858.467   124228333.3001      -1365.841          25.000  
G31  21383108.082   112369111.236       -1904.916          25.000  
G32  20966784.497   110181217.465       -2247.087          34.000  
J01  36350090.956   191020956.319        -608.229          30.000  
R02  19832924.152   105832358.601       -3694.002          34.000  
> 2021  9 12 13  1 28.9979953  0 14
C06  36204814.828   188528079.815        -692.342          29.000  
C07  36416401.150   189629752.958        -623.661          22.000  
C10  37137390.619   193384082.409        -575.818          23.000  
C16  36776115.525   191502968.065        -648.511          31.000  
C23  22616932.124   117772302.159       -1754.994          25.000  
C32  23114579.210   120363599.028         272.826          27.000  
E01  23939186.846   125801275.318       -2649.561          34.000  
E31  24439186.104   128428802.618        -193.005          29.000  
G26  20196221.347   106131828.212        -582.956          35.000  
G29  23639907.932   124228595.947       -1364.541          26.000  
G31  21383263.375   112369912.670       -1904.290          29.000  
G32  20967007.543   110182359.686       -2243.756          34.000  
J01  36349990.525   191020460.359        -607.773          31.000  
R02  19833406.219   105834933.066       -3694.816          36.000  
> 2021  9 12 13  1 29.9979945  0 13
C06  36204707.802   188527522.082        -691.431          29.000  
C07  36416280.634   189629127.472        -623.535          25.000  
C16  36776000.405   191502366.561        -647.823          24.000  
C23  22617029.856   117772809.151       -1756.467          20.000  
C32  23114287.512   120362077.327         272.970          30.000  
E01  23939445.567   125802634.982       -2651.556          30.000  
E31  24438982.844   128427735.876        -194.658          31.000  
G26  20196091.537   106131151.378        -583.955          33.000  
G29  23639926.220   124228700.097       -1365.309          25.000  
G31  21383385.990   112370556.666       -1904.470          26.000  
G32  20967200.009   110183344.996       -2245.604          33.000  
J01  36349858.317   191019806.931        -605.518          33.000  
R02  19833859.505   105837348.722       -3696.053          35.000  
> 2021  9 12 13  1 30.9979937  0 11
C06  36204601.676   188526964.280        -690.963          29.000  
C07  36416160.417   189628502.018        -623.576          25.000  
C16  36775884.985   191501766.178        -649.608          30.000  
C32  23113996.713   120360555.824         272.431          32.000  
E01  23939713.581   125804043.646       -2651.621          34.000    23939714.481    93944581.0211      -1980.595          27.000  
G26  20195963.525   106130475.201        -584.235          32.000  
G29  23639943.008   124228805.609       -1366.340          26.000  
G31  21383506.207   112371199.963       -1903.813          29.000  
G32  20967388.279   110184330.960       -2248.528          33.000  
J01                                                                  36349740.198   142644187.9081       -452.489          27.000  
R02  19834311.592   105839765.909       -3697.559          35.000  
> 2021  9 12 13  1 31.9979927  0 12
C06  36204434.991   188526094.179        -691.297          27.000  
C07  36415980.841   189627564.299        -622.384          22.000  
C16  36775709.906   191500854.722        -650.028          30.000  
C23  22617166.262   117773511.5191      -1756.748          20.000  
C32  23113645.056   120358722.392         271.259          28.000  
E01  23939918.639   125805121.226       -2650.946          34.000    23939918.639    93945382.571       -1980.688          26.000  
E31  24438523.562   128425289.9771       -194.574          31.000  
G26  20195777.654   106129484.850        -584.247          33.000  
G31  21383567.364   112371527.467       -1902.473          26.000  
G32  20967512.693   110185002.579       -2247.220          33.000  
J01  36349553.428   191018185.9541       -605.960          33.000    36349556.126   142643464.409        -453.519          27.000  
R02  19834705.219   105841864.003       -3698.429          35.000  
> 2021  9 12 13  1 32.9979919  0 13
C06  36204327.666   188525536.817        -691.560          28.000  
C07  36415860.025   189626938.017        -623.135          23.000  
C10  37136809.921   193381077.2611       -576.066          21.000  
C16  36775593.886   191500255.481        -649.819          30.000  
C23  22617263.694   117774019.887       -1755.724          20.000  
C32  23113351.859   120357202.873         269.376          30.000  
E01  23940182.157   125806505.890       -2651.990          33.000    23940183.356    93946421.411       -1979.440          27.000  
E31  24438320.003   128424224.465        -195.242          31.000  
G26  20195642.747   106128810.595        -586.498          32.000  
G31  21383691.179   112372169.737       -1903.465          25.000  
G32  20967700.063   110185990.110       -2248.496          35.000  
J01  36349424.817   191017533.812        -607.820          32.000    36349432.012   142642976.470        -454.032          28.000  
R02  19835157.606   105844282.583       -3698.614          36.000  
> 2021  9 12 13  1 33.9979912  0 13
C06  36204250.619   188525135.833        -692.275          30.000  
C07  36415770.387   189626469.508        -624.376          23.000  
C10  37136711.590   193380559.548        -573.982          20.000  
C16  36775508.445   191499812.982        -650.795          29.000  
C32  23113089.841   120355841.242         267.880          29.000  
E01  23940475.953   125808050.096       -2651.364          33.000    23940478.652    93947579.896       -1981.508          27.000  
E31  24438147.023   128423317.504        -196.210          29.000  
G26  20195549.812   106128294.459        -587.959          33.000  
G29  23639974.186   124228971.5351      -1369.334          29.000  
G31  21383843.173   112372971.125       -1905.312          23.000  
G32  20967922.210   110187135.643       -2247.465          36.000  
J01  36349339.976   191017039.400        -608.542          35.000    36349337.877   142642607.369        -454.926          29.000  
R02  19835643.869   105846861.868       -3700.508          34.000  
> 2021  9 12 13  1 34.9979904  0 11
C06  36204143.893   188524579.289        -692.642          31.000  
C07  36415650.170   189625845.169        -623.544          24.000  
C16  36775394.824   191499214.056        -650.300          27.000  
C32  23112797.843   120354324.542         267.713          31.000  
E01  23940742.169   125809448.760       -2652.588          34.000    23940744.268    93948621.736       -1982.488          29.000  
E31  24437943.764   128422254.204        -198.024          27.000  
G26  20195412.807   106127621.578        -588.156          30.000  
G29  23639995.472   124229080.634       -1369.572          28.000  
G32  20968111.978   110188124.439       -2248.980          35.000  
J01  36349214.662   191016387.576        -609.024          37.000    36349213.463   142642119.810        -455.836          29.000  
R02  19836095.657   105849283.007       -3701.477          36.000  
> 2021  9 12 13  1 35.9979894  0 13
C06  36203977.508   188523710.380        -692.350          32.000  
C07  36415469.095   189624908.585        -625.036          24.000  
C16  36775219.445   191498303.042        -649.912          29.000  
C23  22617526.312   117775393.1121      -1760.114          19.000  
C32  23112445.287   120352496.368         266.370          32.000  
E01  23940949.326   125810537.340       -2653.193          34.000    23940949.026    93949425.286       -1981.638          29.000  
E31  24437682.045   128420877.059        -198.469          30.000  
G26  20195230.233   106126634.399        -586.862          32.000  
G29  23639959.497   124228875.320       -1370.785          23.000  
G31  21384025.147   112373946.8831      -1906.813          24.000  
G32  20968241.189   110188799.009       -2249.612          33.000  
J01  36349026.093   191015420.776        -608.319          35.000    36349029.990   142641398.879        -455.053          28.000  
R02  19836490.184   105851384.584       -3701.322          37.000  
> 2021  9 12 13  1 36.9979886  0 13
C06  36203869.283   188523153.721        -692.094          26.000  
C07  36415351.277   189624285.551        -625.586          23.000  
C10  37136260.702   193378220.0721       -575.469          19.000  
C16  36775104.925   191497704.331        -650.527          31.000  
C23  22617622.546   117775903.448       -1758.496          19.000  
C32  23112154.788   120350980.841         266.945          29.000  
E01  23941217.640   125811947.004       -2651.635          33.000    23941214.042    93950466.126       -1980.327          27.000  
E31  24437481.484   128419815.216        -198.975          28.000  
G26  20195104.020   106125963.006        -590.256          32.000  
G29  23639977.484   124228985.877       -1371.300          25.000  
G31  21384147.163   112374593.255       -1906.311          30.000  
J01                                                                  36348906.176   142640912.645        -454.608          25.000  
R02  19836940.772   105853806.507       -3702.275          34.000  
> 2021  9 12 13  1 37.9979881  0 14
C06  36203851.895   188523064.291        -692.304          27.000  
C07  36415320.998   189624130.510        -625.293          24.000  
C10  37136220.829   193378014.944        -575.592          18.000  
C16  36775080.641   191497573.974        -650.421          30.000  
C23  22617810.516   117776880.154       -1757.041          20.000  
C32  23111953.627   120349933.456         266.358          31.000  
E01  23941575.892   125813830.294       -2661.555          34.000    23941568.397    93951855.901       -1979.805          28.000  
E31  24437371.160   128419225.937        -200.496          29.000  
G26  20195070.144   106125765.498        -593.303          33.000  
G29  23640089.007   124229569.537       -1371.649          24.000  
G31  21384358.816   112375711.793       -1906.580          34.000  
G32  20968704.668   110191251.2771      -2251.780          27.000  
J01  36348872.899   191014590.1711       -603.005          33.000    36348871.700   142640779.313        -456.557          24.000  
R02  19837482.796   105856709.440       -3704.017          31.000  
> 2021  9 12 13  1 38.9979871  0 11
C06  36203685.510   188522195.073        -691.063          27.000  
C10  37136031.660   193377029.684        -576.662          20.000  
C16  36774909.460   191496664.335        -652.710          25.000  
C32  23111600.772   120348106.891         264.267          29.000  
E01  23941779.151   125814897.874       -2653.174          30.000    23941775.853    93952670.451       -1982.453          27.000  
E31  24437107.043   128417851.414        -200.183          27.000  
G26  20194881.275   106124781.018        -590.073          27.000  
G31  21384419.674   112376041.924       -1905.356          29.000  
G32  20968832.080   110191927.752       -2251.705          31.000  
J01  36348684.629   191013623.391        -610.356          29.000    36348687.327   142640059.010        -455.550          22.000  
R02  19837877.024   105858814.632       -3705.818          33.000  
> 2021  9 12 13  1 39.9979863  0  9
C06  36203580.882   188521637.012        -691.078          22.000  
C07  36415025.402   189622573.3761       -625.276          17.000  
C16  36774799.736   191496068.928        -654.234          25.000  
C23  22617945.122   117777587.1501      -1757.267          20.000  
C32  23111309.373   120346595.627         261.993          24.000  
G26  20194749.666   106124110.545        -591.328          25.000  
G29  23640077.315   124229477.7541      -1375.924          14.000  
G31  21384541.990   112376687.518       -1905.920          30.000  
J01  36348559.616   191012973.567        -610.640          24.000    36348562.914   142639572.640        -454.805          23.000  
> 2021  9 12 13  1 40.9979853  0  5
C07  36414844.028   189621635.772        -622.497          14.000  
C32  23110958.316   120344772.342         262.214          12.000  
G31  21384604.646   112377018.789       -1907.109          29.000  
J01  36348377.642   191012010.196        -612.119          22.000    36348379.740   142638851.553        -456.030          18.000  
R02  19838729.333   105863349.9241      -3708.528          27.000  
> 2021  9 12 13  1 41.9979848  0  9
C06  36203401.307   188520681.9171       -695.222          24.000  
C07  36414813.749   189621479.441        -625.688          16.000  
C23  22618168.168   117778765.3251      -1762.952          18.000  
C32  23110758.355   120343728.407         263.793          16.000  
G26  20194526.920   106122934.7911       -595.057          25.000  
G31  21384817.499   112378138.192       -1906.950          28.000  
G32  20969426.568   110195062.8231      -2253.475          25.000  
J01  36348342.866   191011834.806        -612.184          32.000    36348346.463   142638720.787        -458.186          25.000  
R02  19839269.559   105866257.584       -3707.101          31.000  
> 2021  9 12 13  1 42.9979840  0  7
C07  36414692.633   189620856.073        -622.343          15.000  
C32  23110468.456   120342216.579         262.379          27.000  
G26  20194401.906   106122269.764        -595.924          22.000  
G31  21384940.114   112378785.077       -1907.344          32.000  
G32  20969613.039   110196056.480       -2253.471          32.000  
J01  36348217.852   191011186.277        -612.856          20.000    36348224.148   142638237.451        -458.799          23.000  
R02  19839723.145   105868685.225       -3708.141          32.000  
> 2021  9 12 13  1 43.9979830  0  8
C06  36203132.693   188519263.1911       -696.586          22.000  
C23  22618300.676   117779480.3681      -1763.282          14.000  
C32  23110116.199   120340392.851         263.121          17.000  
G26  20194214.236   106121292.115        -598.799          21.000  
G31  21385002.771   112379116.892       -1907.589          30.000  
G32  20969741.950   110196734.698       -2254.710          21.000  
J01  36348032.581   191010223.768        -613.140          29.000    36348040.375   142637519.579        -457.956          24.000  
R02  19840111.077   105870794.977       -3709.152          28.000  
> 2021  9 12 13  1 44.9979822  0  4
G26  20194086.225   106120629.610        -597.109          20.000  
G31  21385125.686   112379764.459       -1908.006          33.000  
J01                                                                  36347917.760   142637034.639        -454.739          24.000  
R02  19840564.663   105873224.235       -3709.653          23.000  
> 2021  9 12 13  1 45.9979812  0  6
C16  36774031.368   191492040.5941       -652.818          20.000  
G26  20193900.953   106119651.628        -597.685          22.000  
G31  21385188.042   112380097.370       -1909.038          25.000  
G32  20970063.627   110198412.8661      -2259.437          21.000  
J01  36347729.490   191008614.1911       -613.272          24.000    36347734.587   142636314.602        -457.331          19.000  
R02  19840958.590   105875334.375       -3710.614          26.000  
> 2021  9 12 13  1 46.9979807  0  5
C16  36774006.485   191491913.023        -653.587          25.000  
G26  20193864.978   106119461.201        -597.318          26.000  
G32  20970345.132   110199885.250       -2260.343          25.000  
J01  36347694.415   191008439.947        -613.481          25.000    36347701.610   142636185.497        -460.785          24.000  
R02  19841503.613   105878245.212       -3711.041          28.000  
> 2021  9 12 13  1 47.9979796  0  7
C16  36773800.528   191490849.148        -652.765          24.000  
C32  23108899.941   120334051.2861        257.247          14.000  
G26  20193647.928   106118325.347        -597.369          25.000  
G31  21385434.472   112381394.6991      -1909.534          24.000  
G32  20970445.563   110200413.161       -2260.333          24.000  
J01  36347482.761   191007321.112        -613.971          24.000    36347488.457   142635352.721        -461.353          23.000  
R02  19841874.156   105880196.819       -3712.809          25.000  
> 2021  9 12 13  1 48.9979789  0  6
C16  36773716.586   191490409.434        -653.321          25.000  
G26  20193553.794   106117821.052        -599.048          25.000  
G31  21385589.764   112382201.093       -1909.508          26.000  
G32  20970666.210   110201570.258       -2259.681          25.000  
J01  36347388.626   191006831.730        -613.259          23.000    36347396.121   142634990.978        -459.730          24.000  
R02  19842362.218   105882789.490       -3713.388          24.000  
> 2021  9 12 13  1 49.9979781  0  6
C16  36773602.665   191489811.765        -651.239          19.000  
G26  20193423.983   106117160.770        -601.803          21.000  
G31  21385712.080   112382849.956       -1909.717          26.000  
G32  20970855.079   110202568.587       -2258.569          28.000  
J01                                                                  36347271.108   142634508.981        -458.814          17.000  
R02  19842816.704   105885223.586       -3714.555          29.000  
> 2021  9 12 13  1 50.9979773  0  4
G31  21385831.397   112383500.207       -1909.099          23.000  
G32  20971044.548   110203567.945       -2260.631          27.000  
J01  36347145.495   191005538.9161       -613.271          26.000    36347147.893   142634025.229        -456.057          19.000  
R02  19843276.286   105887659.295       -3716.019          29.000  
> 2021  9 12 13  1 51.9979766  0  6
C32  23107811.095   120328331.3191        256.646          23.000  
G26  20193203.036   106115999.9721       -601.655          20.000  
G31  21385984.891   112384306.753       -1911.771          22.000  
G32  20971263.996   110204725.345       -2261.052          31.000  
J01  36347051.360   191005049.252        -612.769          28.000    36347055.557   142633659.279        -458.127          20.000  
R02  19843764.348   105890256.150       -3717.338          33.000  
> 2021  9 12 13  1 52.9979756  0  4
C32  23107464.535   120326514.510         255.078          23.000  
G31  21386052.044   112384641.171       -1909.336          15.000  
J01  36346866.088   191004086.807        -613.455          31.000    36346871.484   142632941.758        -460.422          20.000  
R02  19844167.569   105892373.952       -3718.130          34.000  
> 2021  9 12 13  1 53.9979748  0  4
C32  23107176.135   120325010.145         254.792          20.000  
G32  20971585.673   110206412.6251      -2262.480          35.000  
J01  36346743.773   191003439.841        -613.235          31.000    36346747.071   142632458.915        -457.841          20.000  
R02  19844633.446   105894812.505       -3718.782          35.000  
> 2021  9 12 13  1 54.9979743  0  4
C32  23106978.272   120323975.483         254.130          23.000  
G32  20971872.575                       -2263.077          35.000  
J01  36346710.196   191003265.372        -613.745          28.000  
R02  19845186.863   105897731.568       -3718.602          35.000  
> 2021  9 12 13  1 55.9979732  0  4
G31  21386417.191   112386589.1111      -1910.744          24.000  
G32  20971972.406   110208464.4981      -2263.557          33.000  
J01  36346497.044   191002145.631        -613.287          24.000  
R02  19845558.306   105899691.128       -3719.919          33.000  
> 2021  9 12 13  1 56.9979725  0  4
G31  21386572.784   112387397.836       -1912.789          27.000  
G32  20972190.655   110209625.607       -2264.779          31.000  
J01  36346407.106   191001656.702        -613.617          25.000  
R02  19846049.366   105902291.656       -3720.951          30.000  
> 2021  9 12 13  1 57.9979715  0  3
C32  23105991.055   120318847.7981        252.971          20.000  
G32  20972321.664   110210315.018       -2264.427          31.000  
R02  19846448.090   105904413.447       -3722.107          32.000  
> 2021  9 12 13  1 58.9979709  0  5
C32  23105762.613   120317657.559         253.953          22.000  
G31  21386829.106   112388704.3411      -1914.373          24.000  
G32  20972580.085   110211635.026       -2266.311          32.000  
J01  36346169.970   191000366.5751       -616.575          25.000  
R02  19846964.632   105907176.331       -3723.166          32.000  
> 2021  9 12 13  1 59.9979699  0  5
C32  23105416.353   120315842.734         253.760          22.000  
G31  21386892.962   112389042.303       -1912.465          25.000  
G32  20972709.595   110212324.775       -2264.009          33.000  
J01  36345987.996   190999408.258        -616.949          25.000  
R02  19847361.258   105909300.453       -3723.998          31.000  
> 2021  9 12 13  2  0.9979692  0  3
G31  21387046.156   112389851.866       -1912.101          30.000  
J01  36345895.660   190998922.243        -617.216          29.000  
R02  19847848.121   105911904.558       -3724.841          32.000  
> 2021  9 12 13  2  1.9979681  0  4
G31  21387082.731   112390030.793       -1912.236          25.000  
G32  20973029.174   110214020.1081      -2265.347          21.000  
J01  36345682.508   190997806.721        -617.633          29.000  
R02  19848216.266   105913871.052       -3727.647          29.000  
> 2021  9 12 13  2  2.9979674  0  5
C32  23104515.177   120311194.0761        247.482          18.000  
G26  20191703.774   106108154.6501       -609.678          24.000  
G32  20973250.721   110215183.807       -2267.857          14.000  
J01  36345588.373   190997322.138        -618.933          25.000  
R02  19848702.829   105916479.278       -3728.311          27.000  
> 2021  9 12 13  2  3.9979668  0  4
G31  21387417.599   112391808.5161      -1912.679          26.000  
G32  20973500.448   110216506.577       -2268.564          29.000  
J01  36345526.316   190996994.871        -617.821          25.000  
R02  19849224.768   105919247.860       -3729.315          27.000  
> 2021  9 12 13  2  4.9979658  0  4
G31  21387483.253   112392146.719       -1912.916          21.000  
G32  20973631.457   110217200.482       -2270.422          27.000  
J01  36345343.442   190996037.334        -618.188          28.000  
R02  19849622.892   105921377.636       -3730.251          26.000  
> 2021  9 12 13  2  5.9979651  0  5
C32  23103675.758   120306858.7331        248.205          18.000  
G31  21387638.846   112392956.530       -1911.776          22.000  
G32  20973853.303   110218368.523       -2270.511          28.000  
J01  36345252.305   190995553.268        -618.985          29.000  
R02  19850110.055   105923988.725       -3731.683          25.000  
> 2021  9 12 13  2  6.9979640  0  5
C32  23103297.420   120304894.376         246.299          18.000  
G31  21387673.921   112393135.734       -1911.467          23.000  
G32  20973954.633   110218906.876       -2271.817          29.000  
J01  36345039.753   190994438.940        -619.027          29.000  
R02  19850473.703   105925960.206       -3730.846          24.000  
> 2021  9 12 13  2  7.9979635  0  5
C32  23103096.859   120303868.110         244.519          19.000  
G31  21387888.873   112394261.362       -1913.360          20.000  
G32  20974234.939   110220391.474       -2272.672          34.000  
J01  36345007.075   190994270.460        -619.207          29.000  
R02  19851026.520   105928890.526       -3728.703          25.000  
> 2021  9 12 13  2  8.9979628  0  3
G32  20974458.285   110221561.187       -2272.408          36.000  
J01  36344914.739   190993787.124        -619.507          28.000  
R02  19851521.777   105931499.976       -3730.772          25.000  
> 2021  9 12 13  2  9.9979617  0  4
C32  23102463.098   120300568.2961        245.431          23.000  
G32  20974562.313                       -2271.954          35.000  
J01  36344703.985   190992674.373        -621.023          28.000  
R02  19851896.218   105933471.757       -3732.663          25.000  
> 2021  9 12 13  2 10.9979610  0  4
C32  23102206.175   120299230.894         245.559          22.000  
G32  20974788.356   110223239.3351      -2274.137          36.000  
J01  36344612.548   190992192.559        -620.904          28.000  
R02  19852392.675   105936084.629       -3732.691          25.000  
> 2021  9 12 13  2 11.9979602  0  3
G32  20974981.423   110224253.374       -2275.246          36.000  
J01  36344490.533   190991552.976        -621.243          29.000  
R02  19852855.254   105938538.769       -3735.269          26.000  
> 2021  9 12 13  2 12.9979594  0  5
C32  23101634.471   120296246.3741        241.348          22.000  
G31  21388479.164   112397367.5481      -1913.030          17.000  
G32  20975173.889   110225268.101       -2275.001          36.000  
J01  36344367.918   190990913.528        -620.943          28.000  
R02  19853323.230   105940994.118       -3736.083          27.000  
> 2021  9 12 13  2 13.9979584  0  4
G31  21388539.122   112397705.665       -1913.643          17.000  
G32  20975306.398   110225968.529       -2276.318          35.000  
J01  36344184.744   190989959.376        -621.220          28.000  
R02  19853727.351   105943132.027       -3737.803          25.000  
> 2021  9 12 13  2 14.9979576  0  4
C32  23101003.108   120292956.6781        238.848          21.000  
G32  20975501.263   110226984.804       -2278.177          35.000  
J01  36344063.628   190989319.878        -620.988          29.000  
R02  19854184.234   105945589.949       -3738.331          23.000  
> 2021  9 12 13  2 15.9979569  0  3
G32  20975723.409   110228159.365       -2277.235          36.000  
J01  36343971.892   190988837.852        -620.269          29.000  
R02  19854679.192   105948212.415       -3745.859          19.000  
> 2021  9 12 13  2 16.9979561  0  2
G32  20975914.676   110229177.004       -2277.959          35.000  
J01  36343849.576   190988198.023        -621.254          29.000  
> 2021  9 12 13  2 17.9979553  0  3
G31  21389067.057   112400480.9001      -1915.419          16.000  
G32  20976108.342   110230195.324       -2279.546          35.000  
J01  36343727.861   190987559.212        -622.428          29.000  
> 2021  9 12 13  2 18.9979543  0  3
G31  21389131.512   112400821.208       -1915.630          23.000  
G32  20976240.251   110230899.276       -2280.799          35.000    20976247.146    82315298.4401      -1703.411          26.000  
J01  36343546.486   190986606.036        -622.399          29.000  
> 2021  9 12 13  2 19.9979535  0  3
G31  21389255.626   112401477.490       -1917.294          25.000  
G32  20976439.313   110231919.146       -2280.677          33.000    20976440.512    82316060.728       -1703.882          27.000  
J01  36343424.471   190985968.895        -623.894          29.000  
> 2021  9 12 13  2 20.9979528  0  4
G31  21389411.818   112402291.771       -1917.028          23.000  
G32  20976660.560   110233096.633       -2279.933          34.000    20976663.858    82316940.671       -1703.001          27.000  
J01  36343332.734   190985489.761        -623.222          30.000  
R02  19856954.916   105960376.9741      -3742.544          18.000  
> 2021  9 12 13  2 21.9979520  0  2
G32  20976855.425   110234116.267       -2280.185          27.000    20976857.224    82317702.373       -1703.406          24.000  
J01  36343211.019   190984852.273        -623.104          32.000  
> 2021  9 12 13  2 22.9979510  0  3
G31  21389603.386   112403290.8851      -1918.275          30.000  
G32  20976988.233   110234821.495       -2281.091          37.000    20976990.632    82318230.165       -1705.740          21.000  
J01  36343029.944   190983901.273        -625.317          27.000  
> 2021  9 12 13  2 23.9979502  0  4
G31  21389729.598   112403948.559       -1917.879          32.000  
G32  20977182.499   110235843.315       -2281.824          34.000    20977185.497    82318994.395       -1706.197          24.000  
J01  36342907.928   190983266.165        -625.046          31.000  
R02  19858267.707   105967450.2311      -3746.433          28.000  
> 2021  9 12 13  2 24.9979497  0  4
G31  21389942.751   112405077.688       -1916.923          29.000  
G32  20977471.798   110237338.209       -2284.297          38.000  
J01  36342875.551   190983103.323        -625.035          35.000  
R02  19858813.030   105970396.881       -3746.621          32.000  
> 2021  9 12 13  2 25.9979487  0  6
G10  24065714.852   126466184.1381      -4885.020          29.000  
G29  23641007.271   124234331.6491      -1408.155          24.000  
G31  21390006.307   112405419.463       -1917.976          29.000  
G32  20977610.003                       -2284.734          40.000  
J03  37271618.795   195863678.3221      -1191.208          23.000  
R02  19859211.754   105972544.284       -3748.436          32.000  
> 2021  9 12 13  2 26.9979479  0  6
G10  24066398.679   126469808.325       -4884.009          29.000  
G29  23641030.055   124234479.219       -1407.897          21.000  
G31  21390131.320   112406077.489       -1918.765          29.000  
G32  20977803.969   110239108.7681      -2285.156          39.000  
J01  36342579.955                        -626.620          36.000  
R02  19859671.336   105975013.463       -3749.777          32.000  
> 2021  9 12 13  2 27.9979469  0 10
C06  36198189.715   188493615.2581       -701.591          27.000  
C16  36769021.836   191465996.9441       -659.579          29.000  
C32  23097209.834   120273179.0971        232.601          30.000  
G10  24067025.245   126473116.695       -4883.927          29.000  
G29  23640997.078   124234313.130       -1410.392          24.000  
G31  21390196.375   112406420.771       -1918.836          30.000  
G32  20977938.875   110239818.799       -2285.573          40.000  
J01  36342402.778   190980596.6931       -625.939          35.000  
J03  37271524.660   195863223.7331      -1189.982          20.000  
R02  19860071.259   105977164.005       -3751.101          33.000  
> 2021  9 12 13  2 28.9979464  0  9
C06  36198171.427   188493536.234        -701.904          27.000  
C16  36768997.852   191465876.256        -660.016          29.000  
C32  23097014.370   120272166.366         231.890          28.000  
G10  24067802.907   126477214.346       -4885.773          28.000  
G29  23641119.094   124234935.613       -1410.846          25.000  
G31  21390411.027   112407552.033       -1918.972          30.000  
G32  20978224.278   110241317.266       -2285.721          40.000  
J01  36342369.801   190980434.864        -625.684          36.000  
R02  19860619.279   105980115.589       -3751.519          33.000  
> 2021  9 12 13  2 29.9979453  0  9
C06  36197975.663   188492521.467        -702.252          26.000  
C16  36768794.893   191464818.519        -659.586          29.000  
C32  23096639.929   120270217.426         231.458          27.000  
G29  23641057.337   124234613.671       -1411.905          26.000  
G31  21390445.203   112407738.153       -1919.604          28.000  
G32  20978330.104   110241871.141       -2287.093          38.000  
J01  36342158.747   190979327.905        -625.427          35.000  
J03  37271489.585   195863083.1341      -1188.797          20.000  
R02  19860987.724   105982107.038       -3751.606          31.000  
> 2021  9 12 13  2 30.9979446  0  9
C06  36197900.415   188492129.963        -701.713          26.000  
C16  36768712.150   191464385.399        -660.040          28.000  
C32  23096386.304   120268893.667         230.340          28.000  
