$GPGGA,042413.000,3412.979138,N,10853.131486,E,1,19,0.8,432.6,M,,M,,*4E
$GPRMC,042413.000,A,3412.979138,N,10853.131486,E,0.7,200.920658216,071221,,E,A*23
$GPGGA,042413.000,3412.979138,N,10853.131486,E,1,19,0.8,432.6,M,,M,,*4E
$GPRMC,042413.000,A,3412.979138,N,10853.131486,E,0.7,200.920658216,071221,,E,A*23
$GPGGA,042414.000,3412.979049,N,10853.131673,E,1,19,0.8,431.1,M,,M,,*42
$GPRMC,042414.000,A,3412.979049,N,10853.131673,E,0.8,201.477523545,071221,,E,A*24
$GPGGA,042414.000,3412.979049,N,10853.131673,E,1,19,0.8,431.1,M,,M,,*42
$GPRMC,042414.000,A,3412.979049,N,10853.131673,E,0.8,201.477523545,071221,,E,A*24
$GPGGA,042415.000,3412.978958,N,10853.131818,E,1,19,0.8,428.9,M,,M,,*48
$GPRMC,042415.000,A,3412.978958,N,10853.131818,E,1.0,195.785571674,071221,,E,A*21
$GPGGA,042415.000,3412.978958,N,10853.131818,E,1,19,0.8,428.9,M,,M,,*48
$GPRMC,042415.000,A,3412.978958,N,10853.131818,E,1.0,195.785571674,071221,,E,A*21
$GPGGA,042416.000,3412.978830,N,10853.131709,E,1,19,0.8,428.6,M,,M,,*44
$GPRMC,042416.000,A,3412.978830,N,10853.131709,E,1.0,206.557586083,071221,,E,A*20
$GPGGA,042416.000,3412.978830,N,10853.131709,E,1,19,0.8,428.6,M,,M,,*44
$GPRMC,042416.000,A,3412.978830,N,10853.131709,E,1.0,206.557586083,071221,,E,A*20
$GPGGA,042417.000,3412.977154,N,10853.130314,E,1,19,0.8,419.6,M,,M,,*4A
$GPRMC,042417.000,A,3412.977154,N,10853.130314,E,1.0,203.967673942,071221,,E,A*2B
$GPGGA,042417.000,3412.977154,N,10853.130314,E,1,19,0.8,419.6,M,,M,,*4A
$GPRMC,042417.000,A,3412.977154,N,10853.130314,E,1.0,203.967673942,071221,,E,A*2B
$GPGGA,042418.000,3412.976726,N,10853.129271,E,1,19,0.8,418.3,M,,M,,*49
$GPRMC,042418.000,A,3412.976726,N,10853.129271,E,0.9,194.32677985400002,071221,,E,A*19
$GPGGA,042418.000,3412.976726,N,10853.129271,E,1,19,0.8,418.3,M,,M,,*49
$GPRMC,042418.000,A,3412.976726,N,10853.129271,E,0.9,194.32677985400002,071221,,E,A*19
$GPGGA,042419.000,3412.976803,N,10853.128120,E,1,19,0.8,417.1,M,,M,,*4B
$GPRMC,042419.000,A,3412.976803,N,10853.128120,E,0.8,129.979676215,071221,,E,A*22
$GPGGA,042419.000,3412.976803,N,10853.128120,E,1,19,0.8,417.1,M,,M,,*4B
$GPRMC,042419.000,A,3412.976803,N,10853.128120,E,0.8,129.979676215,071221,,E,A*22
$GPGGA,042420.000,3412.976424,N,10853.127878,E,1,19,0.8,415.0,M,,M,,*40
$GPRMC,042420.000,A,3412.976424,N,10853.127878,E,0.7,20.267070297,071221,,E,A*13
$GPGGA,042420.000,3412.976424,N,10853.127878,E,1,19,0.8,415.0,M,,M,,*40
$GPRMC,042420.000,A,3412.976424,N,10853.127878,E,0.7,20.267070297,071221,,E,A*13
$GPGGA,042421.000,3412.976512,N,10853.127560,E,1,19,0.8,413.5,M,,M,,*42
$GPRMC,042421.000,A,3412.976512,N,10853.127560,E,0.6,33.717721005,071221,,E,A*19
$GPGGA,042421.000,3412.976512,N,10853.127560,E,1,19,0.8,413.5,M,,M,,*42
$GPRMC,042421.000,A,3412.976512,N,10853.127560,E,0.6,33.717721005,071221,,E,A*19
$GPGGA,042422.000,3412.976958,N,10853.127581,E,1,19,0.8,413.1,M,,M,,*48
$GPRMC,042422.000,A,3412.976958,N,10853.127581,E,0.4,92.831226282,071221,,E,A*1A
$GPGGA,042422.000,3412.976958,N,10853.127581,E,1,19,0.8,413.1,M,,M,,*48
$GPRMC,042422.000,A,3412.976958,N,10853.127581,E,0.4,92.831226282,071221,,E,A*1A
$GPGGA,042423.000,3412.978084,N,10853.127465,E,1,19,0.8,414.4,M,,M,,*46
$GPRMC,042423.000,A,3412.978084,N,10853.127465,E,0.1,155.67878236200002,071221,,E,A*1C
$GPGGA,042423.000,3412.978084,N,10853.127465,E,1,19,0.8,414.4,M,,M,,*46
$GPRMC,042423.000,A,3412.978084,N,10853.127465,E,0.1,155.67878236200002,071221,,E,A*1C
$GPGGA,042424.000,3412.978054,N,10853.127410,E,1,19,0.8,413.5,M,,M,,*48
$GPRMC,042424.000,A,3412.978054,N,10853.127410,E,0.3,174.388774415,071221,,E,A*23
$GPGGA,042424.000,3412.978054,N,10853.127410,E,1,19,0.8,413.5,M,,M,,*48
$GPRMC,042424.000,A,3412.978054,N,10853.127410,E,0.3,174.388774415,071221,,E,A*23
$GPGGA,042425.000,3412.977951,N,10853.127336,E,1,19,0.8,413.4,M,,M,,*48
$GPRMC,042425.000,A,3412.977951,N,10853.127336,E,0.4,204.77281665099997,071221,,E,A*1F
$GPGGA,042425.000,3412.977951,N,10853.127336,E,1,19,0.8,413.4,M,,M,,*48
$GPRMC,042425.000,A,3412.977951,N,10853.127336,E,0.4,204.77281665099997,071221,,E,A*1F
$GPGGA,042426.000,3412.978011,N,10853.127341,E,1,19,0.8,413.5,M,,M,,*48
$GPRMC,042426.000,A,3412.978011,N,10853.127341,E,0.2,209.96370583900003,071221,,E,A*13
$GPGGA,042426.000,3412.978011,N,10853.127341,E,1,19,0.8,413.5,M,,M,,*48
$GPRMC,042426.000,A,3412.978011,N,10853.127341,E,0.2,209.96370583900003,071221,,E,A*13
$GPGGA,042427.000,3412.978192,N,10853.127417,E,1,19,0.8,413.5,M,,M,,*47
$GPRMC,042427.000,A,3412.978192,N,10853.127417,E,0.1,171.99965617799998,071221,,E,A*19
$GPGGA,042427.000,3412.978192,N,10853.127417,E,1,19,0.8,413.5,M,,M,,*47
$GPRMC,042427.000,A,3412.978192,N,10853.127417,E,0.1,171.99965617799998,071221,,E,A*19
$GPGGA,042428.000,3412.978242,N,10853.127455,E,1,19,0.8,413.4,M,,M,,*41
$GPRMC,042428.000,A,3412.978242,N,10853.127455,E,0.1,228.154316642,071221,,E,A*20
$GPGGA,042428.000,3412.978242,N,10853.127455,E,1,19,0.8,413.4,M,,M,,*41
$GPRMC,042428.000,A,3412.978242,N,10853.127455,E,0.1,228.154316642,071221,,E,A*20
$GPGGA,042429.000,3412.981865,N,10853.124594,E,1,19,0.8,414.3,M,,M,,*46
$GPRMC,042429.000,A,3412.981865,N,10853.124594,E,1.8,216.162157225,071221,,E,A*25
$GPGGA,042429.000,3412.981865,N,10853.124594,E,1,19,0.8,414.3,M,,M,,*46
$GPRMC,042429.000,A,3412.981865,N,10853.124594,E,1.8,216.162157225,071221,,E,A*25
$GPGGA,042430.000,3412.982342,N,10853.123871,E,1,19,0.8,414.1,M,,M,,*40
$GPRMC,042430.000,A,3412.982342,N,10853.123871,E,1.6,209.431306248,071221,,E,A*2F
$GPGGA,042430.000,3412.982342,N,10853.123871,E,1,19,0.8,414.1,M,,M,,*40
$GPRMC,042430.000,A,3412.982342,N,10853.123871,E,1.6,209.431306248,071221,,E,A*2F
$GPGGA,042431.000,3412.982203,N,10853.123413,E,1,19,0.8,414.1,M,,M,,*4D
$GPRMC,042431.000,A,3412.982203,N,10853.123413,E,1.3,209.99430508700001,071221,,E,A*16
$GPGGA,042431.000,3412.982203,N,10853.123413,E,1,19,0.8,414.1,M,,M,,*4D
$GPRMC,042431.000,A,3412.982203,N,10853.123413,E,1.3,209.99430508700001,071221,,E,A*16
$GPGGA,042432.000,3412.982285,N,10853.122846,E,1,19,0.8,414.0,M,,M,,*4C
$GPRMC,042432.000,A,3412.982285,N,10853.122846,E,1.3,219.637671704,071221,,E,A*2A
$GPGGA,042432.000,3412.982285,N,10853.122846,E,1,19,0.8,414.0,M,,M,,*4C
$GPRMC,042432.000,A,3412.982285,N,10853.122846,E,1.3,219.637671704,071221,,E,A*2A
$GPGGA,042433.000,3412.982119,N,10853.122468,E,1,19,0.8,413.3,M,,M,,*4F
$GPRMC,042433.000,A,3412.982119,N,10853.122468,E,1.2,219.390172966,071221,,E,A*2A
$GPGGA,042433.000,3412.982119,N,10853.122468,E,1,19,0.8,413.3,M,,M,,*4F
$GPRMC,042433.000,A,3412.982119,N,10853.122468,E,1.2,219.390172966,071221,,E,A*2A
$GPGGA,042434.000,3412.982083,N,10853.121762,E,1,19,0.8,412.9,M,,M,,*4B
$GPRMC,042434.000,A,3412.982083,N,10853.121762,E,1.3,223.73108608299998,071221,,E,A*13
$GPGGA,042434.000,3412.982083,N,10853.121762,E,1,19,0.8,412.9,M,,M,,*4B
$GPRMC,042434.000,A,3412.982083,N,10853.121762,E,1.3,223.73108608299998,071221,,E,A*13
$GPGGA,042435.000,3412.981880,N,10853.120008,E,1,19,0.8,412.1,M,,M,,*40
$GPRMC,042435.000,A,3412.981880,N,10853.120008,E,1.5,219.254662011,071221,,E,A*27
$GPGGA,042435.000,3412.981880,N,10853.120008,E,1,19,0.8,412.1,M,,M,,*40
$GPRMC,042435.000,A,3412.981880,N,10853.120008,E,1.5,219.254662011,071221,,E,A*27
$GPGGA,042436.000,3412.981444,N,10853.118801,E,1,19,0.8,411.1,M,,M,,*4E
$GPRMC,042436.000,A,3412.981444,N,10853.118801,E,1.4,221.97225771,071221,,E,A*1B
$GPGGA,042436.000,3412.981444,N,10853.118801,E,1,19,0.8,411.1,M,,M,,*4E
$GPRMC,042436.000,A,3412.981444,N,10853.118801,E,1.4,221.97225771,071221,,E,A*1B
$GPGGA,042437.000,3412.981167,N,10853.116148,E,1,19,0.8,405.5,M,,M,,*40
$GPRMC,042437.000,A,3412.981167,N,10853.116148,E,1.9,221.730141162,071221,,E,A*26
$GPGGA,042437.000,3412.981167,N,10853.116148,E,1,19,0.8,405.5,M,,M,,*40
$GPRMC,042437.000,A,3412.981167,N,10853.116148,E,1.9,221.730141162,071221,,E,A*26
$GPGGA,042438.000,3412.981071,N,10853.115412,E,1,19,0.8,405.2,M,,M,,*47
$GPRMC,042438.000,A,3412.981071,N,10853.115412,E,1.9,224.014320371,071221,,E,A*27
$GPGGA,042438.000,3412.981071,N,10853.115412,E,1,19,0.8,405.2,M,,M,,*47
$GPRMC,042438.000,A,3412.981071,N,10853.115412,E,1.9,224.014320371,071221,,E,A*27
$GPGGA,042439.000,3412.981256,N,10853.116432,E,1,19,0.8,400.1,M,,M,,*46
$GPRMC,042439.000,A,3412.981256,N,10853.116432,E,1.0,206.10829623400002,071221,,E,A*1B
$GPGGA,042439.000,3412.981256,N,10853.116432,E,1,19,0.8,400.1,M,,M,,*46
$GPRMC,042439.000,A,3412.981256,N,10853.116432,E,1.0,206.10829623400002,071221,,E,A*1B
$GPGGA,042440.000,3412.981468,N,10853.116276,E,1,19,0.8,397.3,M,,M,,*4E
$GPRMC,042440.000,A,3412.981468,N,10853.116276,E,0.6,200.72625737,071221,,E,A*1D
$GPGGA,042440.000,3412.981468,N,10853.116276,E,1,19,0.8,397.3,M,,M,,*4E
$GPRMC,042440.000,A,3412.981468,N,10853.116276,E,0.6,200.72625737,071221,,E,A*1D
$GPGGA,042441.000,3412.982489,N,10853.117111,E,1,19,0.8,393.0,M,,M,,*47
$GPRMC,042441.000,A,3412.982489,N,10853.117111,E,0.1,208.790880383,071221,,E,A*2D
$GPGGA,042441.000,3412.982489,N,10853.117111,E,1,19,0.8,393.0,M,,M,,*47
$GPRMC,042441.000,A,3412.982489,N,10853.117111,E,0.1,208.790880383,071221,,E,A*2D
$GPGGA,042442.000,3412.982703,N,10853.117196,E,1,19,0.8,391.8,M,,M,,*40
$GPRMC,042442.000,A,3412.982703,N,10853.117196,E,0.1,233.668369404,071221,,E,A*2A
$GPGGA,042442.000,3412.982703,N,10853.117196,E,1,19,0.8,391.8,M,,M,,*40
$GPRMC,042442.000,A,3412.982703,N,10853.117196,E,0.1,233.668369404,071221,,E,A*2A
$GPGGA,042443.000,3412.982690,N,10853.117252,E,1,19,0.8,391.8,M,,M,,*41
$GPRMC,042443.000,A,3412.982690,N,10853.117252,E,0.0,168.128154647,071221,,E,A*2D
$GPGGA,042443.000,3412.982690,N,10853.117252,E,1,19,0.8,391.8,M,,M,,*41
$GPRMC,042443.000,A,3412.982690,N,10853.117252,E,0.0,168.128154647,071221,,E,A*2D
$GPGGA,042444.000,3412.982800,N,10853.117423,E,1,19,0.8,391.6,M,,M,,*4F
$GPRMC,042444.000,A,3412.982800,N,10853.117423,E,0.0,194.85704842599998,071221,,E,A*1D
$GPGGA,042444.000,3412.982800,N,10853.117423,E,1,19,0.8,391.6,M,,M,,*4F
$GPRMC,042444.000,A,3412.982800,N,10853.117423,E,0.0,194.85704842599998,071221,,E,A*1D
$GPGGA,042445.000,3412.982775,N,10853.117462,E,1,19,0.8,391.6,M,,M,,*46
$GPRMC,042445.000,A,3412.982775,N,10853.117462,E,0.0,267.962339816,071221,,E,A*2D
$GPGGA,042445.000,3412.982775,N,10853.117462,E,1,19,0.8,391.6,M,,M,,*46
$GPRMC,042445.000,A,3412.982775,N,10853.117462,E,0.0,267.962339816,071221,,E,A*2D
$GPGGA,042446.000,3412.982792,N,10853.117529,E,1,19,0.8,391.9,M,,M,,*4D
$GPRMC,042446.000,A,3412.982792,N,10853.117529,E,0.0,292.391959667,071221,,E,A*21
$GPGGA,042446.000,3412.982792,N,10853.117529,E,1,19,0.8,391.9,M,,M,,*4D
$GPRMC,042446.000,A,3412.982792,N,10853.117529,E,0.0,292.391959667,071221,,E,A*21
$GPGGA,042447.000,3412.982806,N,10853.117575,E,1,19,0.8,391.9,M,,M,,*47
$GPRMC,042447.000,A,3412.982806,N,10853.117575,E,0.0,285.151713176,071221,,E,A*24
$GPGGA,042447.000,3412.982806,N,10853.117575,E,1,19,0.8,391.9,M,,M,,*47
$GPRMC,042447.000,A,3412.982806,N,10853.117575,E,0.0,285.151713176,071221,,E,A*24
$GPGGA,042448.000,3412.982588,N,10853.117800,E,1,19,0.8,392.4,M,,M,,*42
$GPRMC,042448.000,A,3412.982588,N,10853.117800,E,0.0,288.32930846,071221,,E,A*13
$GPGGA,042448.000,3412.982588,N,10853.117800,E,1,19,0.8,392.4,M,,M,,*42
$GPRMC,042448.000,A,3412.982588,N,10853.117800,E,0.0,288.32930846,071221,,E,A*13
$GPGGA,042449.000,3412.982500,N,10853.117847,E,1,19,0.8,392.6,M,,M,,*42
$GPRMC,042449.000,A,3412.982500,N,10853.117847,E,0.1,259.248520975,071221,,E,A*2F
$GPGGA,042449.000,3412.982500,N,10853.117847,E,1,19,0.8,392.6,M,,M,,*42
$GPRMC,042449.000,A,3412.982500,N,10853.117847,E,0.1,259.248520975,071221,,E,A*2F
$GPGGA,042450.000,3412.982495,N,10853.118056,E,1,19,0.8,393.3,M,,M,,*44
$GPRMC,042450.000,A,3412.982495,N,10853.118056,E,0.1,284.560273428,071221,,E,A*24
$GPGGA,042450.000,3412.982495,N,10853.118056,E,1,19,0.8,393.3,M,,M,,*44
$GPRMC,042450.000,A,3412.982495,N,10853.118056,E,0.1,284.560273428,071221,,E,A*24
$GPGGA,042451.000,3412.982550,N,10853.118144,E,1,19,0.8,393.3,M,,M,,*4F
$GPRMC,042451.000,A,3412.982550,N,10853.118144,E,0.1,24.767179756999997,071221,,E,A*1F
$GPGGA,042451.000,3412.982550,N,10853.118144,E,1,19,0.8,393.3,M,,M,,*4F
$GPRMC,042451.000,A,3412.982550,N,10853.118144,E,0.1,24.767179756999997,071221,,E,A*1F
$GPGGA,042452.000,3412.982555,N,10853.118198,E,1,19,0.8,393.0,M,,M,,*4B
$GPRMC,042452.000,A,3412.982555,N,10853.118198,E,0.1,283.767998796,071221,,E,A*22
$GPGGA,042452.000,3412.982555,N,10853.118198,E,1,19,0.8,393.0,M,,M,,*4B
$GPRMC,042452.000,A,3412.982555,N,10853.118198,E,0.1,283.767998796,071221,,E,A*22
$GPGGA,042453.000,3412.982580,N,10853.118239,E,1,19,0.8,393.0,M,,M,,*4A
$GPRMC,042453.000,A,3412.982580,N,10853.118239,E,0.1,309.235260999,071221,,E,A*2F
$GPGGA,042453.000,3412.982580,N,10853.118239,E,1,19,0.8,393.0,M,,M,,*4A
$GPRMC,042453.000,A,3412.982580,N,10853.118239,E,0.1,309.235260999,071221,,E,A*2F
$GPGGA,042454.000,3412.983052,N,10853.118961,E,1,19,0.8,393.1,M,,M,,*41
$GPRMC,042454.000,A,3412.983052,N,10853.118961,E,0.4,228.265525783,071221,,E,A*24
$GPGGA,042454.000,3412.983052,N,10853.118961,E,1,19,0.8,393.1,M,,M,,*41
$GPRMC,042454.000,A,3412.983052,N,10853.118961,E,0.4,228.265525783,071221,,E,A*24
$GPGGA,042455.000,3412.983590,N,10853.119082,E,1,19,0.8,393.6,M,,M,,*49
$GPRMC,042455.000,A,3412.983590,N,10853.119082,E,0.5,303.33747454400003,071221,,E,A*1B
$GPGGA,042455.000,3412.983590,N,10853.119082,E,1,19,0.8,393.6,M,,M,,*49
$GPRMC,042455.000,A,3412.983590,N,10853.119082,E,0.5,303.33747454400003,071221,,E,A*1B
$GPGGA,042456.000,3412.983740,N,10853.119216,E,1,19,0.8,393.6,M,,M,,*4A
$GPRMC,042456.000,A,3412.983740,N,10853.119216,E,0.5,185.677315056,071221,,E,A*20
$GPGGA,042456.000,3412.983740,N,10853.119216,E,1,19,0.8,393.6,M,,M,,*4A
$GPRMC,042456.000,A,3412.983740,N,10853.119216,E,0.5,185.677315056,071221,,E,A*20
$GPGGA,042457.000,3412.983832,N,10853.119147,E,1,19,0.8,393.8,M,,M,,*48
$GPRMC,042457.000,A,3412.983832,N,10853.119147,E,0.5,102.14332189,071221,,E,A*16
$GPGGA,042457.000,3412.983832,N,10853.119147,E,1,19,0.8,393.8,M,,M,,*48
$GPRMC,042457.000,A,3412.983832,N,10853.119147,E,0.5,102.14332189,071221,,E,A*16
$GPGGA,042458.000,3412.983916,N,10853.119062,E,1,19,0.8,393.8,M,,M,,*46
$GPRMC,042458.000,A,3412.983916,N,10853.119062,E,0.4,125.107442676,071221,,E,A*28
$GPGGA,042458.000,3412.983916,N,10853.119062,E,1,19,0.8,393.8,M,,M,,*46
$GPRMC,042458.000,A,3412.983916,N,10853.119062,E,0.4,125.107442676,071221,,E,A*28
$GPGGA,042459.000,3412.983857,N,10853.118967,E,1,19,0.8,393.4,M,,M,,*42
$GPRMC,042459.000,A,3412.983857,N,10853.118967,E,0.3,271.591519892,071221,,E,A*25
$GPGGA,042459.000,3412.983857,N,10853.118967,E,1,19,0.8,393.4,M,,M,,*42
$GPRMC,042459.000,A,3412.983857,N,10853.118967,E,0.3,271.591519892,071221,,E,A*25
$GPGGA,042500.000,3412.983996,N,10853.118949,E,1,19,0.8,393.3,M,,M,,*48
$GPRMC,042500.000,A,3412.983996,N,10853.118949,E,0.3,267.27530473900003,071221,,E,A*15
$GPGGA,042500.000,3412.983996,N,10853.118949,E,1,19,0.8,393.3,M,,M,,*48
$GPRMC,042500.000,A,3412.983996,N,10853.118949,E,0.3,267.27530473900003,071221,,E,A*15
$GPGGA,042501.000,3412.984095,N,10853.118999,E,1,19,0.8,393.2,M,,M,,*48
$GPRMC,042501.000,A,3412.984095,N,10853.118999,E,0.3,142.68753018200002,071221,,E,A*1F
$GPGGA,042501.000,3412.984095,N,10853.118999,E,1,19,0.8,393.2,M,,M,,*48
$GPRMC,042501.000,A,3412.984095,N,10853.118999,E,0.3,142.68753018200002,071221,,E,A*1F
$GPGGA,042502.000,3412.984169,N,10853.119034,E,1,19,0.8,393.0,M,,M,,*44
$GPRMC,042502.000,A,3412.984169,N,10853.119034,E,0.3,205.30618612900003,071221,,E,A*14
$GPGGA,042502.000,3412.984169,N,10853.119034,E,1,19,0.8,393.0,M,,M,,*44
$GPRMC,042502.000,A,3412.984169,N,10853.119034,E,0.3,205.30618612900003,071221,,E,A*14
$GPGGA,042503.000,3412.984535,N,10853.119333,E,1,19,0.8,392.6,M,,M,,*4B
$GPRMC,042503.000,A,3412.984535,N,10853.119333,E,0.5,230.38108128,071221,,E,A*16
$GPGGA,042503.000,3412.984535,N,10853.119333,E,1,19,0.8,392.6,M,,M,,*4B
$GPRMC,042503.000,A,3412.984535,N,10853.119333,E,0.5,230.38108128,071221,,E,A*16
$GPGGA,042504.000,3412.984653,N,10853.119397,E,1,19,0.8,392.6,M,,M,,*41
$GPRMC,042504.000,A,3412.984653,N,10853.119397,E,0.5,223.526235047,071221,,E,A*21
$GPGGA,042504.000,3412.984653,N,10853.119397,E,1,19,0.8,392.6,M,,M,,*41
$GPRMC,042504.000,A,3412.984653,N,10853.119397,E,0.5,223.526235047,071221,,E,A*21
$GPGGA,042505.000,3412.984925,N,10853.119668,E,1,19,0.8,392.6,M,,M,,*4B
$GPRMC,042505.000,A,3412.984925,N,10853.119668,E,0.6,283.449165562,071221,,E,A*2E
$GPGGA,042505.000,3412.984925,N,10853.119668,E,1,19,0.8,392.6,M,,M,,*4B
$GPRMC,042505.000,A,3412.984925,N,10853.119668,E,0.6,283.449165562,071221,,E,A*2E
$GPGGA,042506.000,3412.984701,N,10853.119011,E,1,19,0.8,391.0,M,,M,,*4D
$GPRMC,042506.000,A,3412.984701,N,10853.119011,E,0.3,295.44114739400004,071221,,E,A*1C
$GPGGA,042506.000,3412.984701,N,10853.119011,E,1,19,0.8,391.0,M,,M,,*4D
$GPRMC,042506.000,A,3412.984701,N,10853.119011,E,0.3,295.44114739400004,071221,,E,A*1C
$GPGGA,042507.000,3412.984736,N,10853.118903,E,1,19,0.8,390.9,M,,M,,*4B
$GPRMC,042507.000,A,3412.984736,N,10853.118903,E,0.3,285.585266269,071221,,E,A*2D
$GPGGA,042507.000,3412.984736,N,10853.118903,E,1,19,0.8,390.9,M,,M,,*4B
$GPRMC,042507.000,A,3412.984736,N,10853.118903,E,0.3,285.585266269,071221,,E,A*2D
$GPGGA,042508.000,3412.984786,N,10853.118787,E,1,19,0.8,390.9,M,,M,,*4D
$GPRMC,042508.000,A,3412.984786,N,10853.118787,E,0.3,287.052991976,071221,,E,A*20
$GPGGA,042508.000,3412.984786,N,10853.118787,E,1,19,0.8,390.9,M,,M,,*4D
$GPRMC,042508.000,A,3412.984786,N,10853.118787,E,0.3,287.052991976,071221,,E,A*20
$GPGGA,042509.000,3412.984651,N,10853.118514,E,1,19,0.8,390.6,M,,M,,*40
$GPRMC,042509.000,A,3412.984651,N,10853.118514,E,0.2,255.450908431,071221,,E,A*24
$GPGGA,042509.000,3412.984651,N,10853.118514,E,1,19,0.8,390.6,M,,M,,*40
$GPRMC,042509.000,A,3412.984651,N,10853.118514,E,0.2,255.450908431,071221,,E,A*24
$GPGGA,042510.000,3412.985006,N,10853.118409,E,1,19,0.8,388.7,M,,M,,*48
$GPRMC,042510.000,A,3412.985006,N,10853.118409,E,0.3,228.057915351,071221,,E,A*21
$GPGGA,042510.000,3412.985006,N,10853.118409,E,1,19,0.8,388.7,M,,M,,*48
$GPRMC,042510.000,A,3412.985006,N,10853.118409,E,0.3,228.057915351,071221,,E,A*21
$GPGGA,042511.000,3412.985384,N,10853.117956,E,1,19,0.8,387.4,M,,M,,*44
$GPRMC,042511.000,A,3412.985384,N,10853.117956,E,0.4,111.62570094600001,071221,,E,A*1B
$GPGGA,042511.000,3412.985384,N,10853.117956,E,1,19,0.8,387.4,M,,M,,*44
$GPRMC,042511.000,A,3412.985384,N,10853.117956,E,0.4,111.62570094600001,071221,,E,A*1B
$GPGGA,042512.000,3412.985417,N,10853.117912,E,1,19,0.8,387.4,M,,M,,*4A
$GPRMC,042512.000,A,3412.985417,N,10853.117912,E,0.3,123.377109852,071221,,E,A*2B
$GPGGA,042512.000,3412.985417,N,10853.117912,E,1,19,0.8,387.4,M,,M,,*4A
$GPRMC,042512.000,A,3412.985417,N,10853.117912,E,0.3,123.377109852,071221,,E,A*2B
$GPGGA,042513.000,3412.985425,N,10853.117976,E,1,19,0.8,387.2,M,,M,,*4E
$GPRMC,042513.000,A,3412.985425,N,10853.117976,E,0.3,121.455996182,071221,,E,A*26
$GPGGA,042513.000,3412.985425,N,10853.117976,E,1,19,0.8,387.2,M,,M,,*4E
$GPRMC,042513.000,A,3412.985425,N,10853.117976,E,0.3,121.455996182,071221,,E,A*26
$GPGGA,042514.000,3412.985453,N,10853.117984,E,1,19,0.8,387.2,M,,M,,*45
$GPRMC,042514.000,A,3412.985453,N,10853.117984,E,0.2,110.28118502299999,071221,,E,A*19
$GPGGA,042514.000,3412.985453,N,10853.117984,E,1,19,0.8,387.2,M,,M,,*45
$GPRMC,042514.000,A,3412.985453,N,10853.117984,E,0.2,110.28118502299999,071221,,E,A*19
$GPGGA,042515.000,3412.985435,N,10853.117936,E,1,19,0.8,387.1,M,,M,,*4E
$GPRMC,042515.000,A,3412.985435,N,10853.117936,E,0.2,95.981944772,071221,,E,A*18
$GPGGA,042515.000,3412.985435,N,10853.117936,E,1,19,0.8,387.1,M,,M,,*4E
$GPRMC,042515.000,A,3412.985435,N,10853.117936,E,0.2,95.981944772,071221,,E,A*18
$GPGGA,042516.000,3412.985454,N,10853.117884,E,1,19,0.8,387.0,M,,M,,*43
$GPRMC,042516.000,A,3412.985454,N,10853.117884,E,0.2,96.283115136,071221,,E,A*14
$GPGGA,042516.000,3412.985454,N,10853.117884,E,1,19,0.8,387.0,M,,M,,*43
$GPRMC,042516.000,A,3412.985454,N,10853.117884,E,0.2,96.283115136,071221,,E,A*14
$GPGGA,042517.000,3412.985432,N,10853.117938,E,1,19,0.8,386.9,M,,M,,*4C
$GPRMC,042517.000,A,3412.985432,N,10853.117938,E,0.1,98.59428042399999,071221,,E,A*28
$GPGGA,042517.000,3412.985432,N,10853.117938,E,1,19,0.8,386.9,M,,M,,*4C
$GPRMC,042517.000,A,3412.985432,N,10853.117938,E,0.1,98.59428042399999,071221,,E,A*28
$GPGGA,042518.000,3412.985380,N,10853.117840,E,1,19,0.8,387.0,M,,M,,*4B
$GPRMC,042518.000,A,3412.985380,N,10853.117840,E,0.1,91.971981644,071221,,E,A*19
$GPGGA,042518.000,3412.985380,N,10853.117840,E,1,19,0.8,387.0,M,,M,,*4B
$GPRMC,042518.000,A,3412.985380,N,10853.117840,E,0.1,91.971981644,071221,,E,A*19
$GPGGA,042519.000,3412.985146,N,10853.117395,E,1,19,0.8,386.8,M,,M,,*48
$GPRMC,042519.000,A,3412.985146,N,10853.117395,E,0.2,115.71712091100001,071221,,E,A*1E
$GPGGA,042519.000,3412.985146,N,10853.117395,E,1,19,0.8,386.8,M,,M,,*48
$GPRMC,042519.000,A,3412.985146,N,10853.117395,E,0.2,115.71712091100001,071221,,E,A*1E
$GPGGA,042520.000,3412.984361,N,10853.117699,E,1,19,0.8,386.0,M,,M,,*45
$GPRMC,042520.000,A,3412.984361,N,10853.117699,E,0.2,175.817622685,071221,,E,A*24
$GPGGA,042520.000,3412.984361,N,10853.117699,E,1,19,0.8,386.0,M,,M,,*45
$GPRMC,042520.000,A,3412.984361,N,10853.117699,E,0.2,175.817622685,071221,,E,A*24
$GPGGA,042521.000,3412.982752,N,10853.119862,E,1,19,0.8,388.2,M,,M,,*4E
$GPRMC,042521.000,A,3412.982752,N,10853.119862,E,0.6,151.126133378,071221,,E,A*2A
$GPGGA,042521.000,3412.982752,N,10853.119862,E,1,19,0.8,388.2,M,,M,,*4E
$GPRMC,042521.000,A,3412.982752,N,10853.119862,E,0.6,151.126133378,071221,,E,A*2A
$GPGGA,042522.000,3412.982443,N,10853.120725,E,1,19,0.8,389.3,M,,M,,*48
$GPRMC,042522.000,A,3412.982443,N,10853.120725,E,0.6,11.515580401,071221,,E,A*18
$GPGGA,042522.000,3412.982443,N,10853.120725,E,1,19,0.8,389.3,M,,M,,*48
$GPRMC,042522.000,A,3412.982443,N,10853.120725,E,0.6,11.515580401,071221,,E,A*18
$GPGGA,042523.000,3412.982391,N,10853.120925,E,1,19,0.8,389.4,M,,M,,*48
$GPRMC,042523.000,A,3412.982391,N,10853.120925,E,0.6,356.28553874,071221,,E,A*14
$GPGGA,042523.000,3412.982391,N,10853.120925,E,1,19,0.8,389.4,M,,M,,*48
$GPRMC,042523.000,A,3412.982391,N,10853.120925,E,0.6,356.28553874,071221,,E,A*14
$GPGGA,042524.000,3412.982208,N,10853.121018,E,1,19,0.8,389.4,M,,M,,*48
$GPRMC,042524.000,A,3412.982208,N,10853.121018,E,0.6,96.97474693,071221,,E,A*2C
$GPGGA,042524.000,3412.982208,N,10853.121018,E,1,19,0.8,389.4,M,,M,,*48
$GPRMC,042524.000,A,3412.982208,N,10853.121018,E,0.6,96.97474693,071221,,E,A*2C
$GPGGA,042525.000,3412.982229,N,10853.120788,E,1,19,0.8,388.8,M,,M,,*48
$GPRMC,042525.000,A,3412.982229,N,10853.120788,E,0.5,61.083543593,071221,,E,A*19
$GPGGA,042525.000,3412.982229,N,10853.120788,E,1,19,0.8,388.8,M,,M,,*48
$GPRMC,042525.000,A,3412.982229,N,10853.120788,E,0.5,61.083543593,071221,,E,A*19
$GPGGA,042526.000,3412.982208,N,10853.120745,E,1,19,0.8,388.8,M,,M,,*49
$GPRMC,042526.000,A,3412.982208,N,10853.120745,E,0.3,75.680600585,071221,,E,A*1D
$GPGGA,042527.000,3412.982145,N,10853.120882,E,1,19,0.8,388.9,M,,M,,*47
$GPRMC,042527.000,A,3412.982145,N,10853.120882,E,0.3,82.75153351600001,071221,,E,A*2F
$GPGGA,042528.000,3412.981910,N,10853.120639,E,1,19,0.8,388.8,M,,M,,*4C
$GPRMC,042528.000,A,3412.981910,N,10853.120639,E,0.3,335.728417627,071221,,E,A*23
$GPGGA,042529.000,3412.981915,N,10853.120569,E,1,19,0.8,388.8,M,,M,,*4E
$GPRMC,042529.000,A,3412.981915,N,10853.120569,E,0.3,216.711113195,071221,,E,A*24
$GPGGA,042530.000,3412.981830,N,10853.120659,E,1,19,0.8,388.7,M,,M,,*4F
$GPRMC,042530.000,A,3412.981830,N,10853.120659,E,0.3,197.674679077,071221,,E,A*24
$GPGGA,042531.000,3412.981919,N,10853.120721,E,1,19,0.8,388.7,M,,M,,*4A
$GPRMC,042531.000,A,3412.981919,N,10853.120721,E,0.2,129.266577137,071221,,E,A*2A
$GPGGA,042532.000,3412.982045,N,10853.120643,E,1,19,0.8,388.6,M,,M,,*4E
$GPRMC,042532.000,A,3412.982045,N,10853.120643,E,0.1,274.942164851,071221,,E,A*25
$GPGGA,042533.000,3412.982183,N,10853.120669,E,1,19,0.8,388.5,M,,M,,*4F
$GPRMC,042533.000,A,3412.982183,N,10853.120669,E,0.0,304.17324382099997,071221,,E,A*1D
$GPGGA,042534.000,3412.982267,N,10853.120537,E,1,19,0.8,388.6,M,,M,,*4A
$GPRMC,042534.000,A,3412.982267,N,10853.120537,E,0.1,55.222489896000006,071221,,E,A*16
$GPGGA,042535.000,3412.982301,N,10853.120533,E,1,19,0.8,388.4,M,,M,,*4C
$GPRMC,042535.000,A,3412.982301,N,10853.120533,E,0.1,75.38906078699999,071221,,E,A*22
$GPGGA,042536.000,3412.982547,N,10853.121044,E,1,19,0.8,388.9,M,,M,,*42
$GPRMC,042536.000,A,3412.982547,N,10853.121044,E,0.1,319.801536447,071221,,E,A*22
$GPGGA,042537.000,3412.982832,N,10853.121269,E,1,19,0.8,389.2,M,,M,,*4B
$GPRMC,042537.000,A,3412.982832,N,10853.121269,E,0.1,245.618932968,071221,,E,A*27
$GPGGA,042538.000,3412.981719,N,10853.122341,E,1,19,0.8,392.5,M,,M,,*44
$GPRMC,042538.000,A,3412.981719,N,10853.122341,E,0.2,339.819619025,071221,,E,A*25
$GPGGA,042539.000,3412.981686,N,10853.121974,E,1,19,0.8,392.6,M,,M,,*4E
$GPRMC,042539.000,A,3412.981686,N,10853.121974,E,0.1,140.52771505799998,071221,,E,A*13
$GPGGA,042540.000,3412.981524,N,10853.122191,E,1,19,0.8,394.7,M,,M,,*4C
$GPRMC,042540.000,A,3412.981524,N,10853.122191,E,0.1,257.757272095,071221,,E,A*24
$GPGGA,042541.000,3412.981611,N,10853.121789,E,1,19,0.8,395.1,M,,M,,*43
$GPRMC,042541.000,A,3412.981611,N,10853.121789,E,0.2,251.824624355,071221,,E,A*2A
$GPGGA,042542.000,3412.981917,N,10853.121777,E,1,19,0.8,395.7,M,,M,,*4E
$GPRMC,042542.000,A,3412.981917,N,10853.121777,E,0.2,287.64705451599997,071221,,E,A*15
$GPGGA,042543.000,3412.981967,N,10853.121495,E,1,19,0.8,396.3,M,,M,,*40
$GPRMC,042543.000,A,3412.981967,N,10853.121495,E,0.3,9.555990567,071221,,E,A*2A
$GPGGA,042544.000,3412.982103,N,10853.121484,E,1,19,0.8,396.2,M,,M,,*4F
$GPRMC,042544.000,A,3412.982103,N,10853.121484,E,0.4,108.817523278,071221,,E,A*25
$GPGGA,042545.000,3412.982055,N,10853.121299,E,1,19,0.8,396.1,M,,M,,*45
$GPRMC,042545.000,A,3412.982055,N,10853.121299,E,0.4,277.959769783,071221,,E,A*21
$GPGGA,042546.000,3412.982062,N,10853.121322,E,1,19,0.8,396.1,M,,M,,*43
$GPRMC,042546.000,A,3412.982062,N,10853.121322,E,0.3,355.679373105,071221,,E,A*2B
$GPGGA,042547.000,3412.982160,N,10853.121061,E,1,19,0.8,396.2,M,,M,,*46
$GPRMC,042547.000,A,3412.982160,N,10853.121061,E,0.6,60.027282146000005,071221,,E,A*1D
$GPGGA,042548.000,3412.981495,N,10853.120962,E,1,19,0.8,395.8,M,,M,,*47
$GPRMC,042548.000,A,3412.981495,N,10853.120962,E,0.4,44.97843887,071221,,E,A*2C
$GPGGA,042549.000,3412.980776,N,10853.120844,E,1,19,0.8,394.0,M,,M,,*45
$GPRMC,042549.000,A,3412.980776,N,10853.120844,E,0.7,47.685861001999996,071221,,E,A*1B
$GPGGA,042550.000,3412.980760,N,10853.120916,E,1,19,0.8,394.1,M,,M,,*4D
$GPRMC,042550.000,A,3412.980760,N,10853.120916,E,0.7,119.6614869,071221,,E,A*20
$GPGGA,042551.000,3412.980061,N,10853.121089,E,1,19,0.8,394.3,M,,M,,*46
$GPRMC,042551.000,A,3412.980061,N,10853.121089,E,1.3,122.565901935,071221,,E,A*27
$GPGGA,042552.000,3412.979532,N,10853.121190,E,1,19,0.8,394.5,M,,M,,*4F
$GPRMC,042552.000,A,3412.979532,N,10853.121190,E,1.4,127.318648144,071221,,E,A*2A
$GPGGA,042553.000,3412.979493,N,10853.121615,E,1,19,0.8,395.3,M,,M,,*49
$GPRMC,042553.000,A,3412.979493,N,10853.121615,E,1.5,127.84110298,071221,,E,A*14
$GPGGA,042554.000,3412.978408,N,10853.122025,E,1,19,0.8,395.7,M,,M,,*4F
$GPRMC,042554.000,A,3412.978408,N,10853.122025,E,2.6,125.162917473,071221,,E,A*21
$GPGGA,042555.000,3412.978102,N,10853.122555,E,1,19,0.8,396.1,M,,M,,*46
$GPRMC,042555.000,A,3412.978102,N,10853.122555,E,1.9,123.26017701200001,071221,,E,A*1A
$GPGGA,042556.000,3412.978657,N,10853.123098,E,1,19,0.8,397.1,M,,M,,*46
$GPRMC,042556.000,A,3412.978657,N,10853.123098,E,0.9,109.903748765,071221,,E,A*20
$GPGGA,042557.000,3412.978615,N,10853.123228,E,1,19,0.8,397.0,M,,M,,*49
$GPRMC,042557.000,A,3412.978615,N,10853.123228,E,0.8,107.826872629,071221,,E,A*28
$GPGGA,042558.000,3412.978665,N,10853.123503,E,1,19,0.8,397.0,M,,M,,*4F
$GPRMC,042558.000,A,3412.978665,N,10853.123503,E,0.8,101.451737908,071221,,E,A*26
$GPGGA,042559.000,3412.978616,N,10853.123433,E,1,19,0.8,397.0,M,,M,,*48
$GPRMC,042559.000,A,3412.978616,N,10853.123433,E,0.6,99.82844098,071221,,E,A*2E
$GPGGA,042600.000,3412.978633,N,10853.123413,E,1,19,0.8,396.8,M,,M,,*4B
$GPRMC,042600.000,A,3412.978633,N,10853.123413,E,0.4,107.142965779,071221,,E,A*27
$GPGGA,042601.000,3412.978575,N,10853.123216,E,1,19,0.8,396.8,M,,M,,*48
$GPRMC,042601.000,A,3412.978575,N,10853.123216,E,0.3,96.975771458,071221,,E,A*1D
$GPGGA,042602.000,3412.978533,N,10853.123103,E,1,19,0.8,396.7,M,,M,,*41
$GPRMC,042602.000,A,3412.978533,N,10853.123103,E,0.2,165.397458645,071221,,E,A*27
$GPGGA,042603.000,3412.978416,N,10853.123132,E,1,19,0.8,396.6,M,,M,,*45
$GPRMC,042603.000,A,3412.978416,N,10853.123132,E,0.3,147.953961264,071221,,E,A*21
$GPGGA,042604.000,3412.978000,N,10853.123170,E,1,19,0.8,396.7,M,,M,,*46
$GPRMC,042604.000,A,3412.978000,N,10853.123170,E,0.4,191.833774438,071221,,E,A*2D
$GPGGA,042605.000,3412.977280,N,10853.123214,E,1,19,0.8,396.7,M,,M,,*43
$GPRMC,042605.000,A,3412.977280,N,10853.123214,E,0.6,109.458440916,071221,,E,A*2F
$GPGGA,042606.000,3412.977175,N,10853.123041,E,1,19,0.8,396.8,M,,M,,*44
$GPRMC,042606.000,A,3412.977175,N,10853.123041,E,0.6,112.992572079,071221,,E,A*26
$GPGGA,042607.000,3412.976618,N,10853.122951,E,1,19,0.8,396.5,M,,M,,*4C
$GPRMC,042607.000,A,3412.976618,N,10853.122951,E,0.7,110.356699595,071221,,E,A*23
$GPGGA,042608.000,3412.976741,N,10853.123066,E,1,19,0.8,396.4,M,,M,,*43
$GPRMC,042608.000,A,3412.976741,N,10853.123066,E,0.4,103.24270232200001,071221,,E,A*10
$GPGGA,042609.000,3412.976502,N,10853.123223,E,1,19,0.8,396.3,M,,M,,*43
$GPRMC,042609.000,A,3412.976502,N,10853.123223,E,0.4,93.983294793,071221,,E,A*1C
$GPGGA,042610.000,3412.976292,N,10853.123536,E,1,19,0.8,396.4,M,,M,,*41
$GPRMC,042610.000,A,3412.976292,N,10853.123536,E,0.6,106.930137082,071221,,E,A*23
$GPGGA,042611.000,3412.975877,N,10853.124003,E,1,19,0.8,396.4,M,,M,,*46
$GPRMC,042611.000,A,3412.975877,N,10853.124003,E,1.0,110.46019745299999,071221,,E,A*16
$GPGGA,042612.000,3412.975570,N,10853.124251,E,1,19,0.8,396.4,M,,M,,*4A
$GPRMC,042612.000,A,3412.975570,N,10853.124251,E,1.0,105.62429369,071221,,E,A*1E
$GPGGA,042613.000,3412.975346,N,10853.124334,E,1,19,0.8,397.0,M,,M,,*4F
$GPRMC,042613.000,A,3412.975346,N,10853.124334,E,1.3,100.575827608,071221,,E,A*2B
$GPGGA,042614.000,3412.975528,N,10853.124705,E,1,19,0.8,397.1,M,,M,,*41
$GPRMC,042614.000,A,3412.975528,N,10853.124705,E,1.4,102.183551705,071221,,E,A*2C
$GPGGA,042615.000,3412.974988,N,10853.124788,E,1,19,0.8,397.3,M,,M,,*40
$GPRMC,042615.000,A,3412.974988,N,10853.124788,E,1.5,100.547564285,071221,,E,A*2B
$GPGGA,042616.000,3412.975070,N,10853.125324,E,1,19,0.8,397.6,M,,M,,*4A
$GPRMC,042616.000,A,3412.975070,N,10853.125324,E,1.5,98.271048548,071221,,E,A*1B
$GPGGA,042617.000,3412.975022,N,10853.125734,E,1,19,0.8,397.7,M,,M,,*48
$GPRMC,042617.000,A,3412.975022,N,10853.125734,E,1.5,99.611111188,071221,,E,A*1E
$GPGGA,042618.000,3412.974857,N,10853.126065,E,1,19,0.8,397.6,M,,M,,*4D
$GPRMC,042618.000,A,3412.974857,N,10853.126065,E,1.4,98.25821462200001,071221,,E,A*23
$GPGGA,042619.000,3412.974863,N,10853.126666,E,1,19,0.8,397.4,M,,M,,*4C
$GPRMC,042619.000,A,3412.974863,N,10853.126666,E,1.5,96.56368565,071221,,E,A*28
$GPGGA,042620.000,3412.975163,N,10853.127378,E,1,19,0.8,397.1,M,,M,,*40
$GPRMC,042620.000,A,3412.975163,N,10853.127378,E,1.4,95.175914138,071221,,E,A*1E
$GPGGA,042621.000,3412.975199,N,10853.128049,E,1,19,0.8,397.0,M,,M,,*4B
$GPRMC,042621.000,A,3412.975199,N,10853.128049,E,1.4,95.79974264299999,071221,,E,A*2E
$GPGGA,042622.000,3412.975177,N,10853.128568,E,1,19,0.8,396.9,M,,M,,*46
$GPRMC,042622.000,A,3412.975177,N,10853.128568,E,1.4,96.27144234299999,071221,,E,A*2D
$GPGGA,042623.000,3412.975045,N,10853.129572,E,1,19,0.8,396.8,M,,M,,*4C
$GPRMC,042623.000,A,3412.975045,N,10853.129572,E,1.8,93.253311487,071221,,E,A*19
$GPGGA,042624.000,3412.975051,N,10853.130547,E,1,19,0.8,396.7,M,,M,,*4F
$GPRMC,042624.000,A,3412.975051,N,10853.130547,E,1.9,91.730561775,071221,,E,A*19
$GPGGA,042625.000,3412.975321,N,10853.132077,E,1,19,0.8,396.4,M,,M,,*4D
$GPRMC,042625.000,A,3412.975321,N,10853.132077,E,2.4,93.103382003,071221,,E,A*1F
$GPGGA,042626.000,3412.975788,N,10853.133568,E,1,19,0.8,396.0,M,,M,,*47
$GPRMC,042626.000,A,3412.975788,N,10853.133568,E,2.6,92.328818051,071221,,E,A*16
$GPGGA,042627.000,3412.978024,N,10853.135779,E,1,19,0.8,394.0,M,,M,,*4C
$GPRMC,042627.000,A,3412.978024,N,10853.135779,E,3.1,93.924860722,071221,,E,A*12
$GPGGA,042628.000,3412.978972,N,10853.137464,E,1,19,0.8,394.2,M,,M,,*46
$GPRMC,042628.000,A,3412.978972,N,10853.137464,E,3.3,89.78108596700001,071221,,E,A*2F
$GPGGA,042629.000,3412.980028,N,10853.139053,E,1,19,0.8,394.3,M,,M,,*49
$GPRMC,042629.000,A,3412.980028,N,10853.139053,E,3.7,83.401709068,071221,,E,A*10
$GPGGA,042630.000,3412.980232,N,10853.140478,E,1,19,0.8,394.2,M,,M,,*4A
$GPRMC,042630.000,A,3412.980232,N,10853.140478,E,3.8,85.825250686,071221,,E,A*1E
$GPGGA,042631.000,3412.981130,N,10853.142408,E,1,19,0.8,392.9,M,,M,,*43
$GPRMC,042631.000,A,3412.981130,N,10853.142408,E,4.0,82.37374594100001,071221,,E,A*2E
$GPGGA,042632.000,3412.981715,N,10853.143945,E,1,19,0.8,392.6,M,,M,,*4B
$GPRMC,042632.000,A,3412.981715,N,10853.143945,E,4.1,80.192839944,071221,,E,A*17
$GPGGA,042633.000,3412.982677,N,10853.145928,E,1,19,0.8,390.9,M,,M,,*4C
$GPRMC,042633.000,A,3412.982677,N,10853.145928,E,4.3,76.483390449,071221,,E,A*1B
$GPGGA,042634.000,3412.983012,N,10853.147302,E,1,19,0.8,390.7,M,,M,,*41
$GPRMC,042634.000,A,3412.983012,N,10853.147302,E,4.3,76.413624089,071221,,E,A*13
$GPGGA,042635.000,3412.983623,N,10853.148535,E,1,19,0.8,389.8,M,,M,,*4E
$GPRMC,042635.000,A,3412.983623,N,10853.148535,E,4.3,74.246150499,071221,,E,A*1E
$GPGGA,042636.000,3412.984075,N,10853.149748,E,1,19,0.8,389.5,M,,M,,*4B
$GPRMC,042636.000,A,3412.984075,N,10853.149748,E,4.2,73.295678001,071221,,E,A*16
$GPGGA,042637.000,3412.984224,N,10853.150711,E,1,19,0.8,389.2,M,,M,,*4F
$GPRMC,042637.000,A,3412.984224,N,10853.150711,E,4.1,74.097873795,071221,,E,A*1E
$GPGGA,042638.000,3412.984578,N,10853.152017,E,1,19,0.8,388.8,M,,M,,*46
$GPRMC,042638.000,A,3412.984578,N,10853.152017,E,4.1,73.931145266,071221,,E,A*1B
$GPGGA,042639.000,3412.984913,N,10853.153164,E,1,19,0.8,388.6,M,,M,,*4C
$GPRMC,042639.000,A,3412.984913,N,10853.153164,E,4.0,73.645548087,071221,,E,A*16
$GPGGA,042640.000,3412.985515,N,10853.154555,E,1,19,0.8,388.5,M,,M,,*4B
$GPRMC,042640.000,A,3412.985515,N,10853.154555,E,4.1,72.329338503,071221,,E,A*15
$GPGGA,042641.000,3412.987502,N,10853.155669,E,1,19,0.8,388.0,M,,M,,*46
$GPRMC,042641.000,A,3412.987502,N,10853.155669,E,4.3,64.28628810800001,071221,,E,A*28
$GPGGA,042642.000,3412.988532,N,10853.156227,E,1,19,0.8,387.3,M,,M,,*48
$GPRMC,042642.000,A,3412.988532,N,10853.156227,E,4.1,61.27394047,071221,,E,A*23
$GPGGA,042643.000,3412.991290,N,10853.156913,E,1,19,0.8,386.6,M,,M,,*46
$GPRMC,042643.000,A,3412.991290,N,10853.156913,E,4.4,52.237590743,071221,,E,A*1E
$GPGGA,042644.000,3412.992861,N,10853.157963,E,1,19,0.8,386.3,M,,M,,*45
$GPRMC,042644.000,A,3412.992861,N,10853.157963,E,4.5,49.952407742,071221,,E,A*15
$GPGGA,042645.000,3412.994610,N,10853.158936,E,1,19,0.8,385.7,M,,M,,*42
$GPRMC,042645.000,A,3412.994610,N,10853.158936,E,4.7,46.596006757,071221,,E,A*1D
$GPGGA,042646.000,3412.996303,N,10853.160071,E,1,19,0.8,385.1,M,,M,,*43
$GPRMC,042646.000,A,3412.996303,N,10853.160071,E,5.0,43.318819358,071221,,E,A*14
$GPGGA,042647.000,3412.997218,N,10853.161077,E,1,19,0.8,385.0,M,,M,,*4E
$GPRMC,042647.000,A,3412.997218,N,10853.161077,E,4.9,43.781253893,071221,,E,A*1C
$GPGGA,042648.000,3412.997819,N,10853.162089,E,1,19,0.8,384.9,M,,M,,*40
$GPRMC,042648.000,A,3412.997819,N,10853.162089,E,4.6,46.33268382600001,071221,,E,A*2A
$GPGGA,042649.000,3412.998476,N,10853.162769,E,1,19,0.8,384.8,M,,M,,*43
$GPRMC,042649.000,A,3412.998476,N,10853.162769,E,4.4,46.814171173000005,071221,,E,A*12
$GPGGA,042650.000,3412.999160,N,10853.163719,E,1,19,0.8,384.8,M,,M,,*4E
$GPRMC,042650.000,A,3412.999160,N,10853.163719,E,4.3,47.474195468999994,071221,,E,A*1E
$GPGGA,042651.000,3412.998919,N,10853.163474,E,1,19,0.8,384.7,M,,M,,*4F
$GPRMC,042651.000,A,3412.998919,N,10853.163474,E,3.8,49.59467742100001,071221,,E,A*27
$GPGGA,042652.000,3412.999349,N,10853.164312,E,1,19,0.8,384.6,M,,M,,*43
$GPRMC,042652.000,A,3412.999349,N,10853.164312,E,3.7,50.996160108999995,071221,,E,A*11
$GPGGA,042653.000,3412.998207,N,10853.164992,E,1,19,0.8,384.1,M,,M,,*4D
$GPRMC,042653.000,A,3412.998207,N,10853.164992,E,3.2,60.268952668999994,071221,,E,A*1D
$GPGGA,042654.000,3412.998547,N,10853.165726,E,1,19,0.8,383.9,M,,M,,*46
$GPRMC,042654.000,A,3412.998547,N,10853.165726,E,3.1,61.395745473000005,071221,,E,A*10
$GPGGA,042655.000,3412.997999,N,10853.165803,E,1,19,0.8,383.5,M,,M,,*43
$GPRMC,042655.000,A,3412.997999,N,10853.165803,E,2.7,95.485717862,071221,,E,A*1D
$GPGGA,042656.000,3412.997781,N,10853.166299,E,1,19,0.8,383.2,M,,M,,*4A
$GPRMC,042656.000,A,3412.997781,N,10853.166299,E,2.5,95.73504026,071221,,E,A*24
$GPGGA,042657.000,3412.997577,N,10853.166817,E,1,19,0.8,382.9,M,,M,,*46
$GPRMC,042657.000,A,3412.997577,N,10853.166817,E,2.4,100.271925168,071221,,E,A*2A
$GPGGA,042658.000,3412.997095,N,10853.167072,E,1,19,0.8,382.5,M,,M,,*46
$GPRMC,042658.000,A,3412.997095,N,10853.167072,E,2.2,114.883988086,071221,,E,A*24
$GPGGA,042659.000,3412.997072,N,10853.167597,E,1,19,0.8,382.5,M,,M,,*40
$GPRMC,042659.000,A,3412.997072,N,10853.167597,E,2.2,110.306060572,071221,,E,A*21
$GPGGA,042700.000,3412.997047,N,10853.168188,E,1,19,0.8,382.4,M,,M,,*4F
$GPRMC,042700.000,A,3412.997047,N,10853.168188,E,2.1,104.023727632,071221,,E,A*2E
$GPGGA,042701.000,3412.998174,N,10853.167968,E,1,19,0.8,382.1,M,,M,,*4C
$GPRMC,042701.000,A,3412.998174,N,10853.167968,E,2.0,79.374995309,071221,,E,A*19
$GPGGA,042702.000,3412.998264,N,10853.167449,E,1,19,0.8,381.8,M,,M,,*49
$GPRMC,042702.000,A,3412.998264,N,10853.167449,E,1.8,85.946504801,071221,,E,A*12
$GPGGA,042703.000,3412.998662,N,10853.167416,E,1,19,0.8,381.7,M,,M,,*4F
$GPRMC,042703.000,A,3412.998662,N,10853.167416,E,1.7,69.484785653,071221,,E,A*17
$GPGGA,042704.000,3412.997387,N,10853.167391,E,1,19,0.8,380.4,M,,M,,*43
$GPRMC,042704.000,A,3412.997387,N,10853.167391,E,1.5,77.33336978,071221,,E,A*26
$GPGGA,042705.000,3412.997569,N,10853.167549,E,1,19,0.8,380.4,M,,M,,*47
$GPRMC,042705.000,A,3412.997569,N,10853.167549,E,1.4,72.691101883,071221,,E,A*1B
$GPGGA,042706.000,3412.997749,N,10853.167477,E,1,19,0.8,380.1,M,,M,,*4D
$GPRMC,042706.000,A,3412.997749,N,10853.167477,E,1.3,94.28350210100001,071221,,E,A*29
$GPGGA,042707.000,3412.997727,N,10853.167752,E,1,19,0.8,379.4,M,,M,,*43
$GPRMC,042707.000,A,3412.997727,N,10853.167752,E,1.2,85.19633145600001,071221,,E,A*23
$GPGGA,042708.000,3412.998070,N,10853.167376,E,1,19,0.8,378.9,M,,M,,*48
$GPRMC,042708.000,A,3412.998070,N,10853.167376,E,1.1,53.46864073,071221,,E,A*29
$GPGGA,042709.000,3412.997155,N,10853.168539,E,1,19,0.8,378.5,M,,M,,*4E
$GPRMC,042709.000,A,3412.997155,N,10853.168539,E,1.2,43.909999196,071221,,E,A*1A
$GPGGA,043916.000,3413.052693,N,10853.283156,E,1,19,0.8,380.3,M,,M,,*49
$GPRMC,043916.000,A,3413.052693,N,10853.283156,E,3.1,-8.345722631000001,071221,,E,A*08
$GPGGA,043917.000,3413.053941,N,10853.282816,E,1,19,0.8,378.5,M,,M,,*44
$GPRMC,043917.000,A,3413.053941,N,10853.282816,E,3.6,-4.563137277,071221,,E,A*08
$GPGGA,043918.000,3413.054767,N,10853.282819,E,1,19,0.8,375.6,M,,M,,*47
$GPRMC,043918.000,A,3413.054767,N,10853.282819,E,3.3,-10.114666377999999,071221,,E,A*33
$GPGGA,043919.000,3413.055407,N,10853.282770,E,1,19,0.8,375.3,M,,M,,*47
$GPRMC,043919.000,A,3413.055407,N,10853.282770,E,2.8,17.267741244,071221,,E,A*14
$GPGGA,043920.000,3413.056500,N,10853.282703,E,1,19,0.8,375.3,M,,M,,*4C
$GPRMC,043920.000,A,3413.056500,N,10853.282703,E,2.8,20.165370486,071221,,E,A*14
$GPGGA,043921.000,3413.056760,N,10853.282627,E,1,19,0.8,375.4,M,,M,,*49
$GPRMC,043921.000,A,3413.056760,N,10853.282627,E,2.1,16.608820934,071221,,E,A*1C
$GPGGA,043922.000,3413.057333,N,10853.282173,E,1,19,0.8,376.2,M,,M,,*4A
$GPRMC,043922.000,A,3413.057333,N,10853.282173,E,2.0,12.827220062,071221,,E,A*1C
$GPGGA,043923.000,3413.057409,N,10853.282383,E,1,19,0.8,375.9,M,,M,,*40
$GPRMC,043923.000,A,3413.057409,N,10853.282383,E,1.4,13.295110224,071221,,E,A*1B
$GPGGA,043924.000,3413.057606,N,10853.282366,E,1,19,0.8,376.4,M,,M,,*4F
$GPRMC,043924.000,A,3413.057606,N,10853.282366,E,1.1,22.289089766999997,071221,,E,A*1C
$GPGGA,043925.000,3413.057508,N,10853.282091,E,1,19,0.8,376.9,M,,M,,*45
$GPRMC,043925.000,A,3413.057508,N,10853.282091,E,0.8,32.845871253,071221,,E,A*1A
$GPGGA,043926.000,3413.057376,N,10853.282572,E,1,19,0.8,376.0,M,,M,,*48
$GPRMC,043926.000,A,3413.057376,N,10853.282572,E,0.6,32.586590439,071221,,E,A*1A
$GPGGA,043927.000,3413.057505,N,10853.282957,E,1,19,0.8,376.8,M,,M,,*48
$GPRMC,043927.000,A,3413.057505,N,10853.282957,E,0.5,33.918678833,071221,,E,A*18
$GPGGA,043928.000,3413.057406,N,10853.282804,E,1,19,0.8,376.8,M,,M,,*42
$GPRMC,043928.000,A,3413.057406,N,10853.282804,E,0.3,43.831732056999996,071221,,E,A*12
$GPGGA,043929.000,3413.057434,N,10853.282892,E,1,19,0.8,376.9,M,,M,,*4C
$GPRMC,043929.000,A,3413.057434,N,10853.282892,E,0.2,57.985929823999996,071221,,E,A*19
$GPGGA,043930.000,3413.057604,N,10853.283055,E,1,19,0.8,377.2,M,,M,,*4D
$GPRMC,043930.000,A,3413.057604,N,10853.283055,E,0.3,63.8389922,071221,,E,A*17
$GPGGA,043931.000,3413.057901,N,10853.283673,E,1,19,0.8,377.7,M,,M,,*41
$GPRMC,043931.000,A,3413.057901,N,10853.283673,E,0.5,75.831383843,071221,,E,A*11
$GPGGA,043932.000,3413.057938,N,10853.284606,E,1,19,0.8,377.7,M,,M,,*4D
$GPRMC,043932.000,A,3413.057938,N,10853.284606,E,0.8,66.93123744,071221,,E,A*22
$GPGGA,043933.000,3413.058268,N,10853.285173,E,1,19,0.8,378.0,M,,M,,*41
$GPRMC,043933.000,A,3413.058268,N,10853.285173,E,1.0,66.468034495,071221,,E,A*17
$GPGGA,043934.000,3413.058518,N,10853.285502,E,1,19,0.8,378.1,M,,M,,*45
$GPRMC,043934.000,A,3413.058518,N,10853.285502,E,1.0,4.058579988,071221,,E,A*2C
$GPGGA,043935.000,3413.058911,N,10853.285878,E,1,19,0.8,378.1,M,,M,,*41
$GPRMC,043935.000,A,3413.058911,N,10853.285878,E,1.2,10.056269486,071221,,E,A*14
$GPGGA,043936.000,3413.058903,N,10853.285743,E,1,19,0.8,378.3,M,,M,,*44
$GPRMC,043936.000,A,3413.058903,N,10853.285743,E,0.9,7.188010058,071221,,E,A*26
$GPGGA,043937.000,3413.059200,N,10853.285709,E,1,19,0.8,378.4,M,,M,,*45
$GPRMC,043937.000,A,3413.059200,N,10853.285709,E,0.9,356.12352665099996,071221,,E,A*1E
$GPGGA,043938.000,3413.059741,N,10853.285634,E,1,19,0.8,378.7,M,,M,,*46
$GPRMC,043938.000,A,3413.059741,N,10853.285634,E,0.9,350.860237457,071221,,E,A*22
$GPGGA,043939.000,3413.059898,N,10853.285643,E,1,19,0.8,378.7,M,,M,,*4C
$GPRMC,043939.000,A,3413.059898,N,10853.285643,E,0.8,348.793148982,071221,,E,A*2D
$GPGGA,043940.000,3413.060135,N,10853.285604,E,1,19,0.8,378.7,M,,M,,*45
$GPRMC,043940.000,A,3413.060135,N,10853.285604,E,0.8,348.200015348,071221,,E,A*2E
$GPGGA,043941.000,3413.060305,N,10853.284856,E,1,19,0.8,378.9,M,,M,,*43
$GPRMC,043941.000,A,3413.060305,N,10853.284856,E,0.8,341.216665934,071221,,E,A*28
$GPGGA,043942.000,3413.060508,N,10853.284878,E,1,19,0.8,378.9,M,,M,,*47
$GPRMC,043942.000,A,3413.060508,N,10853.284878,E,0.8,334.23470987900004,071221,,E,A*19
$GPGGA,043943.000,3413.060407,N,10853.284806,E,1,19,0.8,378.8,M,,M,,*40
$GPRMC,043943.000,A,3413.060407,N,10853.284806,E,0.6,322.808841453,071221,,E,A*20
$GPGGA,043944.000,3413.060260,N,10853.284610,E,1,19,0.8,378.7,M,,M,,*46
$GPRMC,043944.000,A,3413.060260,N,10853.284610,E,0.5,318.056341132,071221,,E,A*29
$GPGGA,043945.000,3413.060335,N,10853.284386,E,1,19,0.8,378.7,M,,M,,*4C
$GPRMC,043945.000,A,3413.060335,N,10853.284386,E,0.5,315.298146788,071221,,E,A*2C
$GPGGA,043946.000,3413.060325,N,10853.284113,E,1,19,0.8,378.8,M,,M,,*4F
$GPRMC,043946.000,A,3413.060325,N,10853.284113,E,0.5,317.002087761,071221,,E,A*28
$GPGGA,043947.000,3413.060714,N,10853.284560,E,1,19,0.8,379.0,M,,M,,*41
$GPRMC,043947.000,A,3413.060714,N,10853.284560,E,0.6,313.599997816,071221,,E,A*28
$GPGGA,043948.000,3413.060964,N,10853.284375,E,1,19,0.8,378.8,M,,M,,*4C
$GPRMC,043948.000,A,3413.060964,N,10853.284375,E,0.8,313.620160535,071221,,E,A*2F
$GPGGA,043949.000,3413.060859,N,10853.284361,E,1,19,0.8,378.3,M,,M,,*4C
$GPRMC,043949.000,A,3413.060859,N,10853.284361,E,0.6,314.39268226,071221,,E,A*1D
$GPGGA,043950.000,3413.060972,N,10853.284198,E,1,19,0.8,378.2,M,,M,,*49
$GPRMC,043950.000,A,3413.060972,N,10853.284198,E,0.6,314.963904647,071221,,E,A*2D
$GPGGA,043951.000,3413.061186,N,10853.284161,E,1,19,0.8,378.1,M,,M,,*4F
$GPRMC,043951.000,A,3413.061186,N,10853.284161,E,0.6,315.79705113200004,071221,,E,A*14
$GPGGA,043952.000,3413.061475,N,10853.283932,E,1,19,0.8,378.0,M,,M,,*4D
$GPRMC,043952.000,A,3413.061475,N,10853.283932,E,0.7,318.864407162,071221,,E,A*2E
$GPGGA,043953.000,3413.060403,N,10853.281618,E,1,19,0.8,375.5,M,,M,,*41
$GPRMC,043953.000,A,3413.060403,N,10853.281618,E,0.7,315.899886461,071221,,E,A*26
$GPGGA,043954.000,3413.060418,N,10853.281495,E,1,19,0.8,375.3,M,,M,,*4D
$GPRMC,043954.000,A,3413.060418,N,10853.281495,E,0.7,310.578048885,071221,,E,A*27
$GPGGA,043955.000,3413.060368,N,10853.280275,E,1,19,0.8,372.8,M,,M,,*49
$GPRMC,043955.000,A,3413.060368,N,10853.280275,E,1.0,310.207552099,071221,,E,A*2D
$GPGGA,043956.000,3413.060471,N,10853.279969,E,1,19,0.8,372.7,M,,M,,*4A
$GPRMC,043956.000,A,3413.060471,N,10853.279969,E,1.0,311.53875598400003,071221,,E,A*18
$GPGGA,043957.000,3413.060556,N,10853.279822,E,1,19,0.8,372.3,M,,M,,*45
$GPRMC,043957.000,A,3413.060556,N,10853.279822,E,1.0,316.51263639900003,071221,,E,A*1E
$GPGGA,043958.000,3413.060723,N,10853.279412,E,1,19,0.8,372.2,M,,M,,*44
$GPRMC,043958.000,A,3413.060723,N,10853.279412,E,1.0,310.626433945,071221,,E,A*23
$GPGGA,043959.000,3413.060778,N,10853.278940,E,1,19,0.8,372.0,M,,M,,*42
$GPRMC,043959.000,A,3413.060778,N,10853.278940,E,1.1,308.168631325,071221,,E,A*2E
$GPGGA,044000.000,3413.061052,N,10853.278466,E,1,19,0.8,371.9,M,,M,,*4D
$GPRMC,044000.000,A,3413.061052,N,10853.278466,E,1.2,312.745787028,071221,,E,A*28
$GPGGA,044001.000,3413.061150,N,10853.278305,E,1,19,0.8,371.9,M,,M,,*4D
$GPRMC,044001.000,A,3413.061150,N,10853.278305,E,1.1,315.06990918400004,071221,,E,A*1E
$GPGGA,044002.000,3413.061473,N,10853.276927,E,1,19,0.8,370.2,M,,M,,*44
$GPRMC,044002.000,A,3413.061473,N,10853.276927,E,1.2,319.974367556,071221,,E,A*2A
$GPGGA,044003.000,3413.060653,N,10853.274684,E,1,19,0.8,366.4,M,,M,,*41
$GPRMC,044003.000,A,3413.060653,N,10853.274684,E,1.6,323.520574494,071221,,E,A*25
$GPGGA,044004.000,3413.060269,N,10853.273160,E,1,19,0.8,364.2,M,,M,,*45
$GPRMC,044004.000,A,3413.060269,N,10853.273160,E,1.8,323.769712477,071221,,E,A*2B
$GPGGA,044005.000,3413.059676,N,10853.273310,E,1,19,0.8,363.1,M,,M,,*45
$GPRMC,044005.000,A,3413.059676,N,10853.273310,E,1.6,323.243405414,071221,,E,A*2C
$GPGGA,044006.000,3413.059041,N,10853.271892,E,1,19,0.8,360.4,M,,M,,*41
$GPRMC,044006.000,A,3413.059041,N,10853.271892,E,1.8,322.644097289,071221,,E,A*2F
$GPGGA,044007.000,3413.059063,N,10853.270849,E,1,19,0.8,359.3,M,,M,,*4A
$GPRMC,044007.000,A,3413.059063,N,10853.270849,E,2.0,322.218139366,071221,,E,A*2A
$GPGGA,044008.000,3413.058855,N,10853.269470,E,1,19,0.8,358.7,M,,M,,*42
$GPRMC,044008.000,A,3413.058855,N,10853.269470,E,2.2,327.357638211,071221,,E,A*2D
$GPGGA,044009.000,3413.058652,N,10853.267857,E,1,19,0.8,358.4,M,,M,,*4E
$GPRMC,044009.000,A,3413.058652,N,10853.267857,E,2.5,326.319668011,071221,,E,A*29
$GPGGA,044010.000,3413.058475,N,10853.266482,E,1,19,0.8,358.4,M,,M,,*44
$GPRMC,044010.000,A,3413.058475,N,10853.266482,E,2.7,322.526945883,071221,,E,A*2C
$GPGGA,044011.000,3413.058576,N,10853.265604,E,1,19,0.8,358.4,M,,M,,*48
$GPRMC,044011.000,A,3413.058576,N,10853.265604,E,2.7,321.11211316099997,071221,,E,A*18
$GPGGA,044012.000,3413.057314,N,10853.263690,E,1,19,0.8,357.3,M,,M,,*45
$GPRMC,044012.000,A,3413.057314,N,10853.263690,E,2.9,318.274770584,071221,,E,A*20
$GPGGA,044013.000,3413.057415,N,10853.262962,E,1,19,0.8,356.9,M,,M,,*4A
$GPRMC,044013.000,A,3413.057415,N,10853.262962,E,2.8,315.620422438,071221,,E,A*2F
$GPGGA,044014.000,3413.056982,N,10853.262068,E,1,19,0.8,356.8,M,,M,,*4D
$GPRMC,044014.000,A,3413.056982,N,10853.262068,E,2.6,315.61747179599996,071221,,E,A*17
$GPGGA,044015.000,3413.057372,N,10853.261780,E,1,19,0.8,356.7,M,,M,,*45
$GPRMC,044015.000,A,3413.057372,N,10853.261780,E,2.4,322.410395533,071221,,E,A*26
$GPGGA,044016.000,3413.062743,N,10853.265880,E,1,19,0.8,358.8,M,,M,,*4C
$GPRMC,044016.000,A,3413.062743,N,10853.265880,E,1.9,321.383681485,071221,,E,A*22
$GPGGA,044017.000,3413.068264,N,10853.269797,E,1,19,0.8,360.7,M,,M,,*46
$GPRMC,044017.000,A,3413.068264,N,10853.269797,E,2.4,316.237133886,071221,,E,A*29
$GPGGA,044018.000,3413.069601,N,10853.270443,E,1,19,0.8,360.9,M,,M,,*43
$GPRMC,044018.000,A,3413.069601,N,10853.270443,E,2.7,306.518566885,071221,,E,A*2D
$GPGGA,044019.000,3413.070663,N,10853.270896,E,1,19,0.8,361.2,M,,M,,*40
$GPRMC,044019.000,A,3413.070663,N,10853.270896,E,3.0,-2.8483919039999996,071221,,E,A*37
$GPGGA,044020.000,3413.071585,N,10853.271653,E,1,19,0.8,361.5,M,,M,,*41
$GPRMC,044020.000,A,3413.071585,N,10853.271653,E,3.1,6.859751104,071221,,E,A*28
$GPGGA,044021.000,3413.071556,N,10853.272526,E,1,19,0.8,361.1,M,,M,,*48
$GPRMC,044021.000,A,3413.071556,N,10853.272526,E,2.6,294.366184889,071221,,E,A*2F
$GPGGA,044022.000,3413.071799,N,10853.272963,E,1,19,0.8,361.0,M,,M,,*46
$GPRMC,044022.000,A,3413.071799,N,10853.272963,E,2.4,291.44816411700003,071221,,E,A*1F
$GPGGA,044023.000,3413.072924,N,10853.273419,E,1,19,0.8,360.8,M,,M,,*44
$GPRMC,044023.000,A,3413.072924,N,10853.273419,E,2.8,288.914273188,071221,,E,A*24
$GPGGA,044024.000,3413.073822,N,10853.273459,E,1,19,0.8,360.8,M,,M,,*41
$GPRMC,044024.000,A,3413.073822,N,10853.273459,E,2.9,291.196813153,071221,,E,A*20
$GPGGA,044025.000,3413.074851,N,10853.273461,E,1,19,0.8,360.6,M,,M,,*46
$GPRMC,044025.000,A,3413.074851,N,10853.273461,E,3.1,9.016500873,071221,,E,A*2E
$GPGGA,044026.000,3413.076103,N,10853.273627,E,1,19,0.8,360.5,M,,M,,*4A
$GPRMC,044026.000,A,3413.076103,N,10853.273627,E,3.3,7.86533935,071221,,E,A*17
$GPGGA,044027.000,3413.076925,N,10853.273751,E,1,19,0.8,360.5,M,,M,,*47
$GPRMC,044027.000,A,3413.076925,N,10853.273751,E,3.2,7.915813127000001,071221,,E,A*2D
$GPGGA,044028.000,3413.079125,N,10853.274385,E,1,19,0.8,359.7,M,,M,,*4D
$GPRMC,044028.000,A,3413.079125,N,10853.274385,E,3.8,8.554256153999999,071221,,E,A*2A
$GPGGA,044029.000,3413.076567,N,10853.272928,E,1,19,0.8,358.8,M,,M,,*44
$GPRMC,044029.000,A,3413.076567,N,10853.272928,E,2.2,285.482704147,071221,,E,A*2C
$GPGGA,044030.000,3413.076420,N,10853.272550,E,1,19,0.8,358.6,M,,M,,*43
$GPRMC,044030.000,A,3413.076420,N,10853.272550,E,0.3,287.798138303,071221,,E,A*27
$GPGGA,044031.000,3413.076058,N,10853.271718,E,1,19,0.8,358.3,M,,M,,*41
$GPRMC,044031.000,A,3413.076058,N,10853.271718,E,0.4,299.676848276,071221,,E,A*24
$GPGGA,044032.000,3413.075613,N,10853.270924,E,1,19,0.8,357.9,M,,M,,*4D
$GPRMC,044032.000,A,3413.075613,N,10853.270924,E,0.5,301.968622656,071221,,E,A*28
$GPGGA,044033.000,3413.075473,N,10853.270220,E,1,19,0.8,357.8,M,,M,,*46
$GPRMC,044033.000,A,3413.075473,N,10853.270220,E,0.7,300.53777997,071221,,E,A*13
$GPGGA,044034.000,3413.075585,N,10853.269568,E,1,19,0.8,357.7,M,,M,,*45
$GPRMC,044034.000,A,3413.075585,N,10853.269568,E,0.9,298.020991836,071221,,E,A*29
$GPGGA,044035.000,3413.075762,N,10853.268452,E,1,19,0.8,358.1,M,,M,,*4F
$GPRMC,044035.000,A,3413.075762,N,10853.268452,E,1.1,295.484915247,071221,,E,A*24
$GPGGA,044036.000,3413.075817,N,10853.268091,E,1,19,0.8,358.1,M,,M,,*4A
$GPRMC,044036.000,A,3413.075817,N,10853.268091,E,1.1,301.135312247,071221,,E,A*2F
$GPGGA,044037.000,3413.075587,N,10853.266690,E,1,19,0.8,357.9,M,,M,,*41
$GPRMC,044037.000,A,3413.075587,N,10853.266690,E,1.5,313.206578915,071221,,E,A*21
$GPGGA,044038.000,3413.075297,N,10853.266226,E,1,19,0.8,357.1,M,,M,,*49
$GPRMC,044038.000,A,3413.075297,N,10853.266226,E,1.5,307.341550048,071221,,E,A*2D
$GPGGA,044039.000,3413.075780,N,10853.266101,E,1,19,0.8,356.7,M,,M,,*4A
$GPRMC,044039.000,A,3413.075780,N,10853.266101,E,1.3,308.720701862,071221,,E,A*25
$GPGGA,044040.000,3413.076345,N,10853.265487,E,1,19,0.8,356.2,M,,M,,*47
$GPRMC,044040.000,A,3413.076345,N,10853.265487,E,1.7,310.250117838,071221,,E,A*2C
$GPGGA,044041.000,3413.076932,N,10853.265097,E,1,19,0.8,355.8,M,,M,,*40
$GPRMC,044041.000,A,3413.076932,N,10853.265097,E,1.8,309.932978491,071221,,E,A*24
$GPGGA,044042.000,3413.077128,N,10853.264755,E,1,19,0.8,355.6,M,,M,,*47
$GPRMC,044042.000,A,3413.077128,N,10853.264755,E,1.8,309.105869894,071221,,E,A*29
$GPGGA,044043.000,3413.077621,N,10853.264220,E,1,19,0.8,355.9,M,,M,,*40
$GPRMC,044043.000,A,3413.077621,N,10853.264220,E,1.9,315.880925856,071221,,E,A*2E
$GPGGA,044044.000,3413.078380,N,10853.263914,E,1,19,0.8,355.9,M,,M,,*4D
$GPRMC,044044.000,A,3413.078380,N,10853.263914,E,2.2,302.74811117400003,071221,,E,A*13
$GPGGA,044045.000,3413.078312,N,10853.263256,E,1,19,0.8,357.0,M,,M,,*41
$GPRMC,044045.000,A,3413.078312,N,10853.263256,E,2.1,308.75769416599996,071221,,E,A*1C
$GPGGA,044046.000,3413.077937,N,10853.261261,E,1,19,0.8,356.8,M,,M,,*4F
$GPRMC,044046.000,A,3413.077937,N,10853.261261,E,2.3,292.574271079,071221,,E,A*2D
$GPGGA,044047.000,3413.077384,N,10853.259726,E,1,19,0.8,356.7,M,,M,,*4E
$GPRMC,044047.000,A,3413.077384,N,10853.259726,E,2.4,296.197877721,071221,,E,A*2F
$GPGGA,044048.000,3413.076550,N,10853.257388,E,1,19,0.8,357.2,M,,M,,*45
$GPRMC,044048.000,A,3413.076550,N,10853.257388,E,3.0,-88.14864104700001,071221,,E,A*0A
$GPGGA,044049.000,3413.076113,N,10853.255638,E,1,19,0.8,356.9,M,,M,,*41
$GPRMC,044049.000,A,3413.076113,N,10853.255638,E,3.4,-91.044434866,071221,,E,A*3F
$GPGGA,044050.000,3413.075185,N,10853.254133,E,1,19,0.8,357.0,M,,M,,*40
$GPRMC,044050.000,A,3413.075185,N,10853.254133,E,3.5,-99.863475771,071221,,E,A*3E
$GPGGA,044051.000,3413.074279,N,10853.252212,E,1,19,0.8,356.9,M,,M,,*4E
$GPRMC,044051.000,A,3413.074279,N,10853.252212,E,3.9,-104.108524051,071221,,E,A*05
$GPGGA,044052.000,3413.073847,N,10853.249930,E,1,19,0.8,356.5,M,,M,,*40
$GPRMC,044052.000,A,3413.073847,N,10853.249930,E,4.4,-101.27972263299999,071221,,E,A*33
$GPGGA,044053.000,3413.073645,N,10853.247688,E,1,19,0.8,356.4,M,,M,,*4E
$GPRMC,044053.000,A,3413.073645,N,10853.247688,E,4.8,-97.006670905,071221,,E,A*30
$GPGGA,044054.000,3413.073147,N,10853.245964,E,1,19,0.8,356.0,M,,M,,*47
$GPRMC,044054.000,A,3413.073147,N,10853.245964,E,4.9,-98.57715577100001,071221,,E,A*0C
$GPGGA,044055.000,3413.073048,N,10853.244566,E,1,19,0.8,356.0,M,,M,,*47
$GPRMC,044055.000,A,3413.073048,N,10853.244566,E,4.7,-98.051400898,071221,,E,A*3F
$GPGGA,044056.000,3413.073005,N,10853.242863,E,1,19,0.8,355.6,M,,M,,*46
$GPRMC,044056.000,A,3413.073005,N,10853.242863,E,4.6,-96.93346013899999,071221,,E,A*05
$GPGGA,044057.000,3413.073040,N,10853.242021,E,1,19,0.8,355.4,M,,M,,*4A
$GPRMC,044057.000,A,3413.073040,N,10853.242021,E,4.3,-96.34326656100001,071221,,E,A*03
$GPGGA,044058.000,3413.073014,N,10853.240715,E,1,19,0.8,355.3,M,,M,,*41
$GPRMC,044058.000,A,3413.073014,N,10853.240715,E,4.2,-95.964374361,071221,,E,A*37
$GPGGA,044059.000,3413.072904,N,10853.239515,E,1,19,0.8,355.3,M,,M,,*45
$GPRMC,044059.000,A,3413.072904,N,10853.239515,E,4.1,-96.36921375,071221,,E,A*02
$GPGGA,044100.000,3413.072796,N,10853.238151,E,1,19,0.8,355.3,M,,M,,*48
$GPRMC,044100.000,A,3413.072796,N,10853.238151,E,4.1,-96.26871404299999,071221,,E,A*00
$GPGGA,044101.000,3413.073027,N,10853.236284,E,1,19,0.8,355.1,M,,M,,*42
$GPRMC,044101.000,A,3413.073027,N,10853.236284,E,4.4,-92.06874586299999,071221,,E,A*05
$GPGGA,044102.000,3413.073136,N,10853.235256,E,1,19,0.8,355.0,M,,M,,*4D
$GPRMC,044102.000,A,3413.073136,N,10853.235256,E,4.2,-92.03943103200001,071221,,E,A*0C
$GPGGA,044103.000,3413.073178,N,10853.233972,E,1,19,0.8,355.0,M,,M,,*4D
$GPRMC,044103.000,A,3413.073178,N,10853.233972,E,4.1,-91.84362756899999,071221,,E,A*0E
$GPGGA,044104.000,3413.073148,N,10853.232843,E,1,19,0.8,355.0,M,,M,,*4B
$GPRMC,044104.000,A,3413.073148,N,10853.232843,E,4.0,-92.53110601700001,071221,,E,A*03
$GPGGA,044105.000,3413.073084,N,10853.231920,E,1,19,0.8,354.8,M,,M,,*45
$GPRMC,044105.000,A,3413.073084,N,10853.231920,E,3.9,-92.968748045,071221,,E,A*30
$GPGGA,044106.000,3413.072996,N,10853.231670,E,1,19,0.8,354.3,M,,M,,*4C
$GPRMC,044106.000,A,3413.072996,N,10853.231670,E,3.6,-93.460357614,071221,,E,A*31
$GPGGA,044107.000,3413.072976,N,10853.230510,E,1,19,0.8,354.3,M,,M,,*47
$GPRMC,044107.000,A,3413.072976,N,10853.230510,E,3.6,-93.277886118,071221,,E,A*36
$GPGGA,044108.000,3413.072924,N,10853.229603,E,1,19,0.8,354.3,M,,M,,*46
$GPRMC,044108.000,A,3413.072924,N,10853.229603,E,3.5,-94.228664494,071221,,E,A*3A
$GPGGA,044109.000,3413.073708,N,10853.229229,E,1,19,0.8,354.3,M,,M,,*4A
$GPRMC,044109.000,A,3413.073708,N,10853.229229,E,3.3,-89.04886120799999,071221,,E,A*06
$GPGGA,044110.000,3413.073574,N,10853.227983,E,1,19,0.8,354.2,M,,M,,*4F
$GPRMC,044110.000,A,3413.073574,N,10853.227983,E,3.4,-91.47118528,071221,,E,A*07
$GPGGA,044111.000,3413.074166,N,10853.227578,E,1,19,0.8,354.0,M,,M,,*44
$GPRMC,044111.000,A,3413.074166,N,10853.227578,E,3.3,-91.318705436,071221,,E,A*34
$GPGGA,044112.000,3413.074886,N,10853.226495,E,1,19,0.8,354.0,M,,M,,*43
$GPRMC,044112.000,A,3413.074886,N,10853.226495,E,3.7,-87.626743911,071221,,E,A*32
$GPGGA,044113.000,3413.074719,N,10853.225296,E,1,19,0.8,354.1,M,,M,,*4C
$GPRMC,044113.000,A,3413.074719,N,10853.225296,E,3.6,-89.643813065,071221,,E,A*30
$GPGGA,044114.000,3413.074796,N,10853.224224,E,1,19,0.8,354.0,M,,M,,*45
$GPRMC,044114.000,A,3413.074796,N,10853.224224,E,3.6,-89.677111896,071221,,E,A*30
$GPGGA,044115.000,3413.074729,N,10853.223099,E,1,19,0.8,353.8,M,,M,,*4C
$GPRMC,044115.000,A,3413.074729,N,10853.223099,E,3.6,-91.25949024799999,071221,,E,A*04
$GPGGA,044116.000,3413.074923,N,10853.222508,E,1,19,0.8,353.5,M,,M,,*4A
$GPRMC,044116.000,A,3413.074923,N,10853.222508,E,3.5,-90.35399286100001,071221,,E,A*0F
$GPGGA,044117.000,3413.075006,N,10853.221894,E,1,19,0.8,353.3,M,,M,,*49
$GPRMC,044117.000,A,3413.075006,N,10853.221894,E,3.4,-91.453311326,071221,,E,A*35
$GPGGA,044118.000,3413.075057,N,10853.220788,E,1,19,0.8,353.2,M,,M,,*40
$GPRMC,044118.000,A,3413.075057,N,10853.220788,E,3.5,-92.130595591,071221,,E,A*3F
$GPGGA,044119.000,3413.075401,N,10853.220748,E,1,19,0.8,352.9,M,,M,,*40
$GPRMC,044119.000,A,3413.075401,N,10853.220748,E,3.4,-92.356760008,071221,,E,A*3B
$GPGGA,044120.000,3413.075294,N,10853.219888,E,1,19,0.8,352.9,M,,M,,*49
$GPRMC,044120.000,A,3413.075294,N,10853.219888,E,3.4,-93.957876856,071221,,E,A*33
$GPGGA,044121.000,3413.075696,N,10853.220045,E,1,19,0.8,353.0,M,,M,,*45
$GPRMC,044121.000,A,3413.075696,N,10853.220045,E,3.1,-93.93991923799999,071221,,E,A*06
$GPGGA,044122.000,3413.075934,N,10853.219543,E,1,19,0.8,353.2,M,,M,,*4A
$GPRMC,044122.000,A,3413.075934,N,10853.219543,E,3.1,-94.07882262,071221,,E,A*02
$GPGGA,044123.000,3413.075450,N,10853.218944,E,1,19,0.8,354.1,M,,M,,*4A
$GPRMC,044123.000,A,3413.075450,N,10853.218944,E,2.9,273.627626628,071221,,E,A*27
$GPGGA,044124.000,3413.075104,N,10853.217907,E,1,19,0.8,355.3,M,,M,,*42
$GPRMC,044124.000,A,3413.075104,N,10853.217907,E,2.9,273.347042454,071221,,E,A*22
$GPGGA,044125.000,3413.075460,N,10853.217283,E,1,19,0.8,356.1,M,,M,,*42
$GPRMC,044125.000,A,3413.075460,N,10853.217283,E,2.5,273.832204457,071221,,E,A*25
$GPGGA,044126.000,3413.075694,N,10853.216591,E,1,19,0.8,356.5,M,,M,,*49
$GPRMC,044126.000,A,3413.075694,N,10853.216591,E,2.5,274.449434999,071221,,E,A*27
$GPGGA,044127.000,3413.075659,N,10853.215691,E,1,19,0.8,356.8,M,,M,,*44
$GPRMC,044127.000,A,3413.075659,N,10853.215691,E,2.5,275.400333946,071221,,E,A*29
