     3.03           OBSERVATION DATA    M: Mixed            RINEX VERSION / TYPE
RTKCONV demo5 b33c                      20210610 070948 UTC PGM / RUN BY / DATE 
log: C:\Users\Ivan_PolyU_Dktp\Dropbox\HUAWEI Exp\20210610\  COMMENT             
format: RINEX                                               COMMENT             
                                                            MARKER NAME         
                                                            MARKER NUMBER       
                                                            MARKER TYPE         
                                                            OBSERVER / AGENCY   
                                                            REC # / TYPE / VERS 
                                                            ANT # / TYPE        
        0.0000        0.0000        0.0000                  APPROX POSITION XYZ 
        0.0000        0.0000        0.0000                  ANTENNA: DELTA H/E/N
G   11 C1C L1C D1C S1C C2L L2L D2L S2L C2S D2S S2S          SYS / # / OBS TYPES 
R    8 C1C L1C D1C S1C C2C L2C D2C S2C                      SYS / # / OBS TYPES 
E    8 C1C L1C D1C S1C C7Q L7Q D7Q S7Q                      SYS / # / OBS TYPES 
J    8 C1C L1C D1C S1C C2L L2L D2L S2L                      SYS / # / OBS TYPES 
S    4 C1C L1C D1C S1C                                      SYS / # / OBS TYPES 
C    8 C2I L2I D2I S2I C7I L7I D7I S7I                      SYS / # / OBS TYPES 
  2021     6    10     3    52   31.0010000     GPS         TIME OF FIRST OBS   
  2021     6    10     3    59   16.9980000     GPS         TIME OF LAST OBS    
G                                                           SYS / PHASE SHIFT   
R                                                           SYS / PHASE SHIFT   
E                                                           SYS / PHASE SHIFT   
J                                                           SYS / PHASE SHIFT   
S                                                           SYS / PHASE SHIFT   
C                                                           SYS / PHASE SHIFT   
  0                                                         GLONASS SLOT / FRQ #
 C1C    0.000 C1P    0.000 C2C    0.000 C2P    0.000        GLONASS COD/PHS/BIS 
                                                            END OF HEADER       
> 2021  6 10  3 52 31.0010000  0 28                     
G 3  22260190.173 9                       277.216          16.000                                                                                                                  
G 1  21852090.903 4                     -3601.833          29.000    21852087.727 2                     -2806.770          29.000                                                  
G 7  22944467.903 2                     -3889.948          29.000    22944463.141 8                     -3031.665          26.000                                                  
G17  22544628.034 9                      -162.323          24.000    22544635.484 9                      -125.139          21.000                                                  
C13  37087278.614 9                       -78.157          20.000    37087270.741 9                       -64.324          23.000  
C 7  36258971.305 9                      -230.101          22.000    36258962.089 8                      -182.788          25.000  
C23  23287766.539 9                       363.329          23.000                                                                  
C11  23306613.956 2 121363665.475 5     -2005.181          32.000    23306605.475 1  93846034.067 4     -1550.931          35.000  
C25  22891451.873 9                     -2558.261          17.000                                                                  
R 9  21204361.599 4 113230088.627 4     -4169.165          34.000    21204361.329 2  88067860.374 4     -3243.304          34.000  
R21  21256154.935 8 113745967.741 5      -432.795          28.000    21256151.151 9                      -335.182          25.000  
G30  21927687.758 4                     -2366.340          29.000    21927689.165 2                     -1844.709          30.000                                                  
G22  23165189.409 4                     -1763.303          30.000                                                                                                                  
G19  23604044.854 9                       840.797          18.000                                                                                                                  
G21  24661802.634 8                     -3840.380          27.000                                                                                                                  
C 8  36696197.851 9                      -450.419          15.000                                                                  
C34  24662758.884 2                     -2427.928          29.000                                                                  
J 7  36819042.458 9                      -695.053          17.000    36819032.648 4                      -546.134          29.000  
E14  19474476.715 2 102339068.519 5     -2600.622          32.000    19474478.159 1  78415645.077 3     -1993.076          35.000  
E13  24207026.780 8                     -2177.275          26.000    24207024.145 1                     -1668.078          30.000  
E26  24185823.937 9                       121.015          17.000    24185827.668 9                        89.173          17.000  
J 2  36710984.298 8                        33.739          26.000    36710981.272 4                        26.541          27.000  
J 3  40064276.067 8                      -891.705          26.000    40064273.934 8                      -694.820          28.000  
E27  24612704.922 2 129340630.116 5     -2217.401          32.000    24612705.042 1  99105166.763 4     -1699.326          33.000  
E21  24056790.401 9                       360.382          16.000    24056791.000 8                       278.749          25.000  
C10                                                                  36786510.528 9                        -8.889          21.000  
G 6                                                                  23728956.799 9                      1681.290          21.000                                                  
R20                                                                  21591302.183 9                     -2453.588          27.000  
> 2021  6 10  3 52 31.1010000  0 28                     
G 3  22260184.829 9                       277.216          16.000                                                                                                                  
G 1  21852159.457 4                     -3602.295          29.000    21852156.322 2                     -2807.016          29.000                                                  
G 7  22944541.866 2                     -3890.296          29.000    22944537.313 8                     -3030.917          26.000                                                  
G17  22544631.137 9                      -160.094          24.000    22544638.233 9                      -112.223          21.000                                                  
C13  37087280.148 9                       -74.140          20.000    37087272.566 9                       -64.324          23.000  
C 7  36258975.585 9                      -230.101          22.000    36258966.542 8                      -182.909          25.000  
C23  23287759.659 9                       363.329          23.000                                                                  
C11  23306652.506 2 121363866.085 5     -2006.134          32.000    23306643.968 1  93846189.147 4     -1551.118          35.000  
C25  22891501.196 9                     -2561.666          17.000                                                                  
R 9  21204439.666 4 113230505.576 4     -4169.788          34.000    21204439.418 2  88068184.668 3     -3242.963          34.000  
R21  21256162.893 8                      -433.216          28.000    21256159.089 9                      -334.768          25.000  
G30  21927732.619 8                     -2366.578          29.000    21927734.177 2                     -1844.441          30.000                                                  
G22  23165222.942 4                     -1763.671          30.000                                                                                                                  
G19  23604028.721 9                       840.797          18.000                                                                                                                  
G21  24661875.919 8                     -3840.109          27.000                                                                                                                  
C 8  36696206.557 9                      -450.419          14.000                                                                  
C34  24662805.513 2                     -2428.018          29.000                                                                  
J 7  36819055.880 9                      -695.053          17.000    36819046.047 2                      -546.343          30.000  
E14  19474526.370 2 102339328.631 5     -2601.194          32.000    19474527.638 1  78415844.389 3     -1993.244          35.000  
E13  24207068.187 8                     -2177.385          26.000    24207065.573 1                     -1667.952          30.000  
E26  24185822.006 9                       121.015          17.000    24185825.541 9                        89.173          17.000  
J 2  36710983.679 8                        33.048          26.000    36710980.665 4                        25.931          27.000  
J 3  40064293.114 8                      -892.026          26.000    40064291.050 8                      -694.793          28.000  
E27  24612747.199 2 129340851.888 5     -2217.950          32.000    24612747.247 1  99105336.636 4     -1698.622          33.000  
E21  24056783.495 9                       360.382          16.000    24056784.127 8                       278.042          25.000  
C10                                                                  36786511.020 9                        -1.993          21.000  
G 6                                                                  23728916.047 9                      1677.134          21.000                                                  
R20                                                                  21591360.914 8                     -2452.775          27.000  
> 2021  6 10  3 52 31.2010000  0 28                     
G 3  22260179.971 9                       261.995          16.000                                                                                                                  
G 1  21852227.978 4                     -3603.073          29.000    21852224.928 2                     -2807.397          29.000                                                  
G 7  22944615.861 2                     -3890.035          29.000    22944611.273 8                     -3029.744          26.000                                                  
G17  22544634.258 9                      -149.603          24.000    22544641.036 9                      -112.223          21.000                                                  
C13  37087281.512 9                       -74.140          20.000    37087274.023 9                       -59.875          23.000  
C 7  36258980.719 9                      -228.907          22.000    36258970.837 8                      -182.194          25.000  
C23  23287752.417 9                       363.329          23.000                                                                  
C11  23306691.037 2 121364066.640 5     -2005.510          32.000    23306682.476 1  93846344.264 4     -1551.399          35.000  
C25  22891550.522 9                     -2561.666          17.000                                                                  
R 9  21204517.808 4 113230922.513 4     -4169.367          34.000    21204517.476 2  88068508.947 4     -3242.566          34.000  
R21  21256171.007 8 113746054.401 5      -433.299          28.000    21256167.340 9                      -337.180          25.000  
G30  21927778.258 8                     -2366.956          29.000    21927779.223 2                     -1843.565          30.000                                                  
G22  23165256.429 4                     -1764.066          30.000                                                                                                                  
G19  23604012.848 9                       834.360          18.000                                                                                                                  
G21  24661949.295 8                     -3839.465          27.000                                                                                                                  
C 8  36696215.135 9                      -450.419          14.000                                                                  
C34  24662852.176 2                     -2428.268          29.000                                                                  
J 7  36819068.804 9                      -695.053          17.000    36819059.309 2                      -543.159          30.000  
E14  19474575.738 2 102339588.711 5     -2600.725          32.000    19474577.073 1  78416043.647 3     -1992.463          35.000  
E13  24207110.095 8                     -2177.281          26.000    24207107.023 1                     -1668.481          30.000  
E26  24185819.650 9                       121.015          17.000    24185823.285 9                        89.173          17.000  
J 2  36710983.087 8                        33.402          26.000    36710980.013 4                        26.009          27.000  
J 3  40064310.471 8                      -891.973          26.000    40064307.921 8                      -694.859          28.000  
E27  24612789.410 2 129341073.638 5     -2217.622          32.000    24612789.454 1  99105506.585 4     -1699.580          33.000  
E21  24056776.298 9                       370.110          16.000    24056777.170 4                       277.354          25.000  
C10                                                                  36786510.943 9                        -1.993          21.000  
G 6                                                                  23728874.892 9                      1677.134          21.000                                                  
R20                                                                  21591419.757 8                     -2453.282          27.000  
> 2021  6 10  3 52 31.3010000  0 28                     
G 3  22260175.080 9                       261.995          16.000                                                                                                                  
G 1  21852296.498 4                     -3601.924          29.000    21852293.518 2                     -2807.440          29.000                                                  
G 7  22944689.909 2                     -3889.452          29.000    22944685.102 8                     -3031.263          26.000                                                  
G17  22544636.927 9                      -155.406          24.000    22544643.952 9                      -112.360          21.000                                                  
C13  37087282.960 9                       -79.617          20.000    37087275.533 9                       -61.135          23.000  
C 7  36258984.992 9                      -237.632          22.000    36258975.466 8                      -183.015          25.000  
C23  23287745.036 9                       359.316          23.000                                                                  
C11  23306729.517 1 121364267.222 4     -2005.976          32.000    23306721.008 1  93846499.351 3     -1550.956          35.000  
C25  22891600.136 9                     -2561.666          18.000                                                                  
R 9  21204595.857 4 113231339.480 4     -4169.775          34.000    21204595.561 2  88068833.233 4     -3243.164          34.000  
R21  21256179.103 4 113746097.694 5      -433.088          28.000    21256175.875 9                      -337.745          25.000  
G30  21927823.575 4                     -2366.037          29.000    21927824.202 2                     -1843.298          30.000                                                  
G22  23165289.990 4                     -1764.310          30.000                                                                                                                  
G19  23603996.528 9                       839.519          19.000                                                                                                                  
G21  24662022.258 4                     -3839.689          27.000                                                                                                                  
C 8  36696224.358 9                      -450.419          14.000                                                                  
C34  24662898.812 2                     -2428.091          29.000                                                                  
J 7  36819082.438 9                      -697.154          18.000    36819072.604 2                      -544.406          30.000  
E14  19474625.133 2 102339848.798 5     -2600.855          32.000    19474626.587 1  78416242.953 3     -1993.111          35.000  
E13  24207151.287 8                     -2176.666          26.000    24207148.446 2                     -1668.471          30.000  
E26  24185818.060 9                       113.660          17.000    24185821.334 9                        90.809          17.000  
J 2  36710982.254 8                        33.573          26.000    36710979.359 4                        25.693          27.000  
J 3  40064327.326 8                      -891.398          26.000    40064325.311 8                      -694.951          28.000  
E27  24612831.682 2 129341295.366 5     -2217.590          32.000    24612831.563 1  99105676.492 4     -1699.113          33.000  
E21  24056769.433 9                       370.110          16.000    24056770.256 4                       277.850          25.000  
C10                                                                  36786511.127 9                        -4.386          21.000  
G 6                                                                  23728833.684 9                      1682.612          21.000                                                  
R20                                                                  21591478.386 8                     -2453.419          27.000  
> 2021  6 10  3 52 31.4010000  0 28                     
G 3  22260169.991 9                       261.995          16.000                                                                                                                  
G 1  21852365.021 2                     -3601.758          29.000    21852362.028 2                     -2807.175          28.000                                                  
G 7  22944763.917 2                     -3889.792          29.000    22944759.165 8                     -3031.085          26.000                                                  
G17  22544639.911 9                      -162.083          24.000    22544646.962 9                      -112.360          21.000                                                  
C13  37087284.692 9                       -77.380          20.000    37087277.184 9                       -58.038          23.000  
C 7  36258989.366 9                      -226.114          22.000    36258980.296 8                      -181.419          25.000  
C23  23287738.126 9                       359.316          23.000                                                                  
C11  23306767.979 2 121364467.772 4     -2004.975          32.000    23306759.532 1  93846654.433 3     -1551.164          35.000  
C25  22891648.875 9                     -2552.740          18.000                                                                  
R 9  21204673.888 4 113231756.419 4     -4169.275          34.000    21204673.606 2  88069157.532 4     -3242.926          34.000  
R21  21256187.244 4 113746141.053 5      -433.589          28.000    21256183.840 9                      -335.407          25.000  
G30  21927868.162 4                     -2366.059          29.000    21927869.254 2                     -1844.297          30.000                                                  
G22  23165323.585 4                     -1763.735          30.000                                                                                                                  
G19  23603980.546 9                       839.519          18.000                                                                                                                  
G21  24662095.048 4                     -3840.023          27.000                                                                                                                  
C 8  36696233.325 9                      -450.419          14.000                                                                  
C34  24662945.458 2                     -2427.423          29.000                                                                  
J 7  36819095.764 9                      -697.154          18.000    36819085.931 4                      -545.327          30.000  
E14  19474674.540 2 102340108.927 5     -2601.560          32.000    19474676.086 1  78416442.270 3     -1993.093          35.000  
E13  24207192.765 8                     -2177.320          26.000    24207189.830 2                     -1667.679          30.000  
E26  24185816.302 9                       113.660          17.000    24185819.359 9                        90.809          17.000  
J 2  36710981.493 8                        33.678          26.000    36710978.771 4                        25.696          27.000  
J 3  40064344.191 8                      -891.204          26.000    40064342.426 8                      -694.746          28.000  
E27  24612873.929 2 129341517.137 5     -2218.074          32.000    24612873.728 1  99105846.400 4     -1698.790          33.000  
E21  24056762.485 9                       370.110          16.000    24056763.124 8                       277.275          25.000  
C10                                                                  36786511.292 9                        -1.882          21.000  
G 6                                                                  23728792.313 9                      1682.612          21.000                                                  
R20                                                                  21591537.307 8                     -2452.873          27.000  
> 2021  6 10  3 52 31.5010000  0 28                     
G 3  22260164.729 9                       261.995          16.000                                                                                                                  
G 1  21852433.584 2                     -3602.025          29.000    21852430.552 2                     -2806.912          28.000                                                  
G 7  22944837.962 2                     -3889.691          29.000    22944832.945 8                     -3030.710          26.000                                                  
G17  22544643.184 9                      -160.588          24.000    22544649.460 9                      -122.790          21.000                                                  
C13  37087285.889 9                       -77.380          20.000    37087278.476 9                       -58.038          22.000  
C 7  36258993.541 9                      -226.114          22.000    36258984.911 8                      -181.794          25.000  
C23  23287731.135 9                       367.615          22.000                                                                  
C11  23306806.456 2 121364668.363 5     -2005.673          32.000    23306798.051 1  93846809.507 3     -1550.785          35.000  
C25  22891697.794 9                     -2552.740          18.000                                                                  
R 9  21204752.017 4 113232173.374 4     -4169.586          34.000    21204751.693 2  88069481.828 4     -3242.871          34.000  
R21  21256195.370 4                      -432.944          28.000    21256191.836 9                      -337.504          25.000  
G30  21927913.344 4 115231934.081 5     -2366.442          29.000    21927914.245 4                     -1843.525          30.000                                                  
G22  23165357.158 4                     -1765.035          30.000                                                                                                                  
G19  23603964.781 9                       839.519          18.000                                                                                                                  
G21  24662167.607 4                     -3840.001          27.000                                                                                                                  
C 8  36696241.738 9                      -450.419          14.000                                                                  
C34  24662992.038 2                     -2427.958          29.000                                                                  
J 7  36819108.825 9                      -694.085          18.000    36819099.290 2                      -545.703          30.000  
E14  19474724.168 2 102340368.996 5     -2600.551          32.000    19474725.537 1  78416641.523 3     -1992.506          35.000  
E13  24207234.497 8                     -2177.713          25.000    24207231.280 2                     -1667.851          30.000  
E26  24185814.072 9                       122.293          18.000    24185817.178 9                        87.183          17.000  
J 2  36710981.507 8                        34.361          26.000    36710978.094 4                        26.452          27.000  
J 3  40064360.830 8                      -891.715          26.000    40064359.026 8                      -695.063          28.000  
E27  24612916.190 2 129341738.882 5     -2217.696          32.000    24612915.910 1  99106016.301 5     -1699.065          33.000  
E21  24056755.417 9                       370.110          15.000    24056756.032 8                       279.253          25.000  
C10                                                                  36786511.336 9                        -2.136          21.000  
G 6                                                                  23728751.258 9                      1687.385          21.000                                                  
R20                                                                  21591596.628 8                     -2453.150          27.000  
> 2021  6 10  3 52 31.6010000  0 28                     
G 3  22260159.762 9                       276.189          16.000                                                                                                                  
G 1  21852502.102 2                     -3602.199          29.000    21852499.117 2                     -2806.663          28.000                                                  
G 7  22944911.948 2                     -3889.989          29.000    22944907.024 8                     -3030.828          26.000                                                  
G17  22544646.341 9                      -162.183          24.000    22544652.100 9                      -122.669          21.000                                                  
C13  37087287.438 9                       -91.228          20.000    37087279.911 9                       -66.939          22.000  
C 7  36258998.273 9                      -235.590          22.000    36258989.594 8                      -181.265          25.000  
C23  23287723.690 9                       367.615          22.000                                                                  
C11  23306845.003 2 121364868.901 5     -2005.143          32.000    23306836.538 1  93846964.574 4     -1550.159          35.000  
C25  22891746.688 9                     -2556.118          18.000                                                                  
R 9  21204830.050 2 113232590.325 4     -4169.312          34.000    21204829.739 2  88069806.112 4     -3242.938          34.000  
R21  21256203.562 4                      -432.688          28.000    21256199.655 9                      -336.638          25.000  
G30  21927957.908 4 115232170.729 5     -2366.521          29.000    21927959.340 4                     -1843.627          30.000                                                  
G22  23165390.730 4                     -1761.845          30.000                                                                                                                  
G19  23603948.947 9                       839.519          18.000                                                                                                                  
G21  24662240.666 4                     -3839.784          26.000                                                                                                                  
C 8  36696250.441 9                      -450.419          14.000                                                                  
C34  24663038.662 2                     -2428.050          29.000                                                                  
J 7  36819121.974 9                      -694.085          18.000    36819112.620 2                      -545.578          30.000  
E14  19474773.669 2 102340629.106 5     -2601.120          32.000    19474775.098 1  78416840.853 3     -1993.280          35.000  
E13  24207276.054 8                     -2177.278          25.000    24207272.688 2                     -1668.091          30.000  
E26  24185811.982 9                       122.293          18.000    24185814.799 9                        87.183          17.000  
J 2  36710980.361 8                        33.421          26.000    36710977.468 4                        26.097          27.000  
J 3  40064377.770 8                      -891.643          26.000    40064375.878 8                      -694.647          27.000  
E27  24612958.392 2 129341960.573 5     -2216.560          32.000    24612958.096 1  99106186.231 5     -1699.326          33.000  
E21  24056748.110 9                       370.110          15.000    24056748.971 8                       278.002          25.000  
C10                                                                  36786511.583 9                        -2.136          21.000  
G 6                                                                  23728710.201 9                      1688.108          21.000                                                  
R20                                                                  21591655.766 8                     -2453.081          27.000  
> 2021  6 10  3 52 31.7010000  0 28                     
G 3  22260154.526 9                       276.189          16.000                                                                                                                  
G 1  21852570.651 2                     -3602.639          29.000    21852567.645 2                     -2806.801          28.000                                                  
G 7  22944985.943 2                     -3889.534          29.000    22944980.986 8                     -3030.487          25.000                                                  
G17  22544649.581 9                      -162.183          24.000    22544654.785 9                      -122.669          20.000                                                  
C13  37087289.065 9                       -91.228          20.000    37087281.836 9                       -66.939          22.000  
C 7  36259002.558 9                      -236.739          22.000    36258993.862 8                      -182.290          26.000  
C23  23287716.975 9                       359.653          22.000                                                                  
C11  23306883.495 2 121365069.461 5     -2005.917          32.000    23306875.041 1  93847119.655 4     -1550.635          35.000  
C25  22891795.955 9                     -2556.118          18.000                                                                  
R 9  21204908.177 2 113233007.291 4     -4169.550          34.000    21204907.760 2  88070130.417 4     -3243.182          34.000  
R21  21256211.896 4                      -432.898          28.000    21256207.997 9                      -335.879          25.000  
G30  21928002.841 4 115232407.350 5     -2366.319          29.000    21928004.361 4                     -1843.525          29.000                                                  
G22  23165424.360 4                     -1763.130          30.000                                                                                                                  
G19  23603933.250 9                       839.519          18.000                                                                                                                  
G21  24662313.683 4                     -3839.191          26.000                                                                                                                  
C 8  36696258.477 9                      -450.419          14.000                                                                  
C34  24663085.314 2                     -2427.999          29.000                                                                  
J 7  36819134.918 9                      -694.085          18.000    36819125.914 2                      -544.669          29.000  
E14  19474823.200 2 102340889.229 5     -2601.471          32.000    19474824.564 1  78417040.186 3     -1993.244          35.000  
E13  24207317.710 8                     -2176.171          25.000    24207314.116 2                     -1668.480          30.000  
E26  24185809.656 9                       123.380          18.000    24185812.657 9                        87.183          17.000  
J 2  36710979.449 8                        33.606          26.000    36710976.808 4                        26.600          27.000  
J 3  40064394.804 8                      -892.138          26.000    40064393.170 8                      -694.817          27.000  
E27  24613000.499 2 129342182.342 5     -2217.347          32.000    24613000.300 1  99106356.120 5     -1698.990          33.000  
E21  24056740.882 9                       370.110          15.000    24056742.088 8                       276.905          24.000  
C10                                                                  36786512.143 9                       -13.633          21.000  
G 6                                                                  23728668.759 9                      1688.108          20.000                                                  
R20                                                                  21591714.925 8                     -2452.597          27.000  
> 2021  6 10  3 52 31.8010000  0 28                     
G 3  22260149.463 9                       276.189          16.000                                                                                                                  
G 1  21852639.165 2                     -3602.520          29.000    21852636.230 2                     -2807.049          28.000                                                  
G 7  22945059.988 2                     -3889.573          29.000    22945055.169 8                     -3031.979          25.000                                                  
G17  22544652.298 9                      -150.849          24.000    22544658.040 9                      -122.669          20.000                                                  
C13  37087290.834 9                       -83.275          20.000    37087283.151 9                       -59.306          22.000  
C 7  36259007.405 9                      -236.739          22.000    36258998.304 8                      -181.416          25.000  
C23  23287709.940 9                       362.037          22.000                                                                  
C11  23306922.001 2 121365270.043 5     -2005.939          32.000    23306913.554 1  93847274.772 4     -1550.962          35.000  
C25  22891845.657 9                     -2560.811          18.000                                                                  
R 9  21204986.267 2 113233424.265 4     -4170.203          33.000    21204985.836 2  88070454.738 4     -3243.231          34.000  
R21  21256219.936 4                      -433.537          28.000    21256215.838 9                      -338.186          25.000  
G30  21928047.925 4 115232644.035 5     -2366.873          29.000    21928049.426 4                     -1844.213          29.000                                                  
G22  23165457.945 4                     -1763.730          30.000                                                                                                                  
G19  23603917.328 9                       839.758          18.000                                                                                                                  
G21  24662387.134 4                     -3839.935          26.000                                                                                                                  
C 8  36696266.984 9                      -451.144          15.000                                                                  
C34  24663131.934 2                     -2427.821          29.000                                                                  
J 7  36819148.094 9                      -694.085          17.000    36819139.246 2                      -544.839          29.000  
E14  19474872.650 2 102341149.394 5     -2601.686          32.000    19474874.093 1  78417239.485 3     -1993.084          36.000  
E13  24207358.898 8                     -2176.186          25.000    24207355.523 2                     -1667.993          30.000  
E26  24185806.831 9                       123.380          18.000    24185810.456 9                        90.655          17.000  
J 2  36710978.809 8                        33.975          26.000    36710976.136 2                        26.428          27.000  
J 3  40064412.172 8                      -891.883          26.000    40064410.104 8                      -694.967          27.000  
E27  24613042.545 2 129342404.120 5     -2217.859          32.000    24613042.526 1  99106526.038 5     -1699.568          33.000  
E21  24056733.934 9                       370.110          15.000    24056734.980 8                       277.465          25.000  
C10                                                                  36786512.330 9                       -13.633          21.000  
G 6                                                                  23728627.865 9                      1670.721          20.000                                                  
R20                                                                  21591773.392 8                     -2452.136          27.000  
> 2021  6 10  3 52 31.9010000  0 28                     
G 3  22260144.378 9                       272.174          16.000                                                                                                                  
G 1  21852707.676 2                     -3602.262          29.000    21852704.801 2                     -2807.311          28.000                                                  
G 7  22945133.988 2                     -3889.817          29.000    22945129.152 8                     -3028.780          25.000                                                  
G17  22544654.793 9                      -154.357          24.000    22544661.165 9                      -119.928          20.000                                                  
C13  37087292.421 9                       -83.275          20.000    37087284.641 9                       -56.715          22.000  
C 7  36259011.459 9                      -231.860          22.000    36259002.849 8                      -182.121          26.000  
C23  23287703.069 9                       362.037          22.000                                                                  
C11  23306960.552 1 121365470.594 4     -2005.712          32.000    23306952.050 1  93847429.840 4     -1550.656          35.000  
C25  22891894.288 9                     -2560.811          18.000                                                                  
R 9  21205064.347 4 113233841.217 4     -4169.781          33.000    21205063.997 2  88070779.043 3     -3243.005          34.000  
R21  21256227.998 4                      -433.649          28.000    21256224.461 9                      -337.359          25.000  
G30  21928093.114 4 115232880.657 5     -2366.447          29.000    21928094.488 4                     -1843.868          29.000                                                  
G22  23165491.567 4                     -1764.181          30.000                                                                                                                  
G19  23603901.647 9                       839.758          18.000                                                                                                                  
G21  24662460.774 4                     -3839.628          26.000                                                                                                                  
C 8  36696275.845 9                      -451.144          15.000                                                                  
C34  24663178.568 2                     -2427.597          29.000                                                                  
J 7  36819161.044 9                      -694.085          17.000    36819152.602 2                      -545.619          29.000  
E14  19474922.107 2 102341409.497 5     -2601.139          32.000    19474923.579 1  78417438.808 3     -1993.361          36.000  
E13  24207400.488 8                     -2177.373          25.000    24207397.004 1                     -1667.613          30.000  
E26  24185804.696 9                       123.380          18.000    24185807.631 9                        90.655          18.000  
J 2  36710977.857 8                        34.068          26.000    36710975.531 2                        26.482          27.000  
J 3  40064429.011 8                      -891.585          26.000    40064427.218 8                      -694.535          27.000  
E27  24613084.777 2 129342625.912 5     -2218.000          32.000    24613084.699 1  99106695.971 5     -1699.156          33.000  
E21  24056726.997 9                       370.110          15.000    24056727.803 8                       278.452          25.000  
C10                                                                  36786512.594 9                       -13.187          21.000  
G 6                                                                  23728586.954 9                      1690.759          20.000                                                  
R20                                                                  21591831.881 8                     -2452.923          27.000  
> 2021  6 10  3 52 32.0010000  0 28                     
G 3  22260138.941 9                       272.174          16.000                                                                                                                  
G 1  21852776.209 2                     -3602.358          29.000    21852773.327 2                     -2806.578          28.000                                                  
G 7  22945207.964 2                     -3889.680          29.000    22945203.301 8                     -3029.911          25.000                                                  
G17  22544658.371 9                      -157.155          24.000    22544664.090 9                      -119.928          20.000                                                  
C13  37087293.865 9                       -80.408          20.000    37087286.028 9                       -59.383          22.000  
C 7  36259015.845 9                      -233.501          22.000    36259007.237 8                      -181.117          25.000  
C23  23287695.882 9                       364.563          22.000                                                                  
C11  23306999.082 2 121365671.106 4     -2005.025          32.000    23306990.570 1  93847584.906 4     -1550.607          35.000  
C25  22891943.718 9                     -2560.811          18.000                                                                  
R 9  21205142.363 2 113234258.115 4     -4168.842          33.000    21205142.069 2  88071103.338 3     -3243.060          34.000  
R21  21256236.043 4                      -433.146          29.000    21256232.730 9                      -336.143          25.000  
G30  21928138.451 4 115233117.291 5     -2366.362          29.000    21928139.482 4                     -1843.823          29.000                                                  
G22  23165525.149 4                     -1764.388          30.000                                                                                                                  
G19  23603885.495 9                       842.427          18.000                                                                                                                  
G21  24662533.603 8                     -3840.291          26.000                                                                                                                  
C 8  36696284.714 9                      -451.144          15.000                                                                  
C34  24663225.162 2                     -2427.432          29.000                                                                  
J 7  36819174.108 9                      -696.693          17.000    36819165.910 2                      -545.406          29.000  
E14  19474971.626 2 102341669.625 5     -2601.068          32.000    19474973.085 1  78417638.132 3     -1993.248          36.000  
E13  24207441.742 8                     -2176.839          25.000    24207438.473 1                     -1667.616          30.000  
E26  24185803.076 9                       123.380          17.000    24185805.573 9                        84.977          18.000  
J 2  36710976.656 8                        35.624          26.000    36710974.848 2                        27.322          27.000  
J 3  40064446.290 8                      -891.304          26.000    40064443.878 8                      -694.334          27.000  
E27  24613126.846 2 129342847.566 5     -2216.515          32.000    24613126.841 1  99106865.836 5     -1698.286          33.000  
E21  24056719.941 9                       370.110          15.000    24056721.111 8                       276.777          25.000  
C10                                                                  36786512.762 9                       -13.187          21.000  
G 6                                                                  23728545.151 9                      1688.897          20.000                                                  
R20                                                                  21591890.349 8                     -2453.279          27.000  
> 2021  6 10  3 52 32.1010000  0 28                     
G 3  22260133.719 9                       273.456          16.000                                                                                                                  
G 1  21852844.765 2                     -3601.854          29.000    21852841.902 2                     -2806.854          27.000                                                  
G 7  22945281.958 2                     -3889.787          29.000    22945277.267 8                     -3031.557          25.000                                                  
G17  22544661.808 9                      -153.416          24.000    22544666.718 9                      -118.032          20.000                                                  
C13  37087295.124 9                       -80.565          20.000    37087287.403 9                       -60.194          23.000  
C 7  36259020.222 9                      -237.996          22.000    36259011.526 8                      -182.155          25.000  
C23  23287688.757 9                       364.985          22.000                                                                  
C11  23307037.638 2 121365871.639 5     -2004.895          32.000    23307029.106 1  93847739.980 4     -1550.889          35.000  
C25  22891993.351 9                     -2560.622          18.000                                                                  
R 9  21205220.416 2 113234675.115 4     -4170.026          33.000    21205220.118 2  88071427.626 3     -3242.920          34.000  
R21  21256244.156 4                      -432.858          28.000    21256240.489 9                      -336.621          25.000  
G30  21928183.403 4 115233353.987 5     -2366.872          29.000    21928184.524 4                     -1843.627          29.000                                                  
G22  23165558.685 2                     -1763.889          30.000                                                                                                                  
G19  23603869.797 9                       842.427          18.000                                                                                                                  
G21  24662606.768 4                     -3839.194          26.000                                                                                                                  
C 8  36696293.365 9                      -451.144          15.000                                                                  
C34  24663271.795 2                     -2427.220          29.000                                                                  
J 7  36819187.239 9                      -694.787          18.000    36819179.230 2                      -544.852          29.000  
E14  19475021.267 2 102341929.751 5     -2601.072          32.000    19475022.643 1  78417837.448 3     -1993.265          36.000  
E13  24207482.706 8                     -2176.705          26.000    24207479.844 2                     -1667.698          30.000  
E26  24185801.120 9                       123.380          17.000    24185803.444 9                        84.977          18.000  
J 2  36710976.034 8                        33.188          26.000    36710974.231 2                        26.468          26.000  
J 3  40064462.959 4                      -891.023          26.000    40064460.878 8                      -694.009          27.000  
E27  24613169.003 2 129343069.363 5     -2217.870          32.000    24613169.089 1  99107035.775 5     -1699.333          33.000  
E21  24056713.318 9                       370.110          14.000    24056713.935 4                       277.048          25.000  
C10                                                                  36786512.946 9                        -7.031          21.000  
G 6                                                                  23728503.849 9                      1688.897          20.000                                                  
R20                                                                  21591949.074 8                     -2452.544          27.000  
> 2021  6 10  3 52 32.2010000  0 28                     
G 3  22260128.913 9                       273.456          16.000                                                                                                                  
G 1  21852913.326 2                     -3602.213          29.000    21852910.427 2                     -2806.724          27.000                                                  
G 7  22945355.998 2                     -3889.513          29.000    22945351.250 8                     -3030.307          25.000                                                  
G17  22544664.977 9                      -153.101          24.000    22544669.475 9                      -118.032          20.000                                                  
C13  37087296.709 9                       -86.096          20.000    37087288.674 9                       -57.357          23.000  
C 7  36259024.803 9                      -228.596          22.000    36259015.836 8                      -180.281          25.000  
C23  23287681.811 9                       364.985          22.000                                                                  
C11  23307076.178 2 121366072.174 5     -2004.879          32.000    23307067.634 1  93847895.062 4     -1550.838          35.000  
C25  22892042.730 9                     -2562.198          18.000                                                                  
R 9  21205298.500 2 113235092.121 4     -4170.312          33.000    21205298.249 2  88071751.944 3     -3243.396          34.000  
R21  21256252.275 4                      -433.073          28.000    21256248.246 9                      -337.591          25.000  
G30  21928228.861 4 115233590.621 5     -2366.559          29.000    21928229.617 2                     -1844.404          29.000                                                  
G22  23165592.240 2                     -1764.288          30.000                                                                                                                  
G19  23603853.648 9                       836.459          18.000                                                                                                                  
G21  24662679.319 8                     -3838.810          26.000                                                                                                                  
C 8  36696302.010 9                      -455.485          15.000                                                                  
C34  24663318.475 2                     -2427.898          29.000                                                                  
J 7  36819200.222 9                      -694.787          18.000    36819192.576 2                      -545.118          29.000  
E14  19475070.736 2 102342189.937 5     -2601.964          32.000    19475072.167 1  78418036.800 3     -1993.655          36.000  
E13  24207524.215 8                     -2176.559          26.000    24207521.263 2                     -1668.500          30.000  
E26  24185798.663 9                       111.102          17.000    24185800.926 9                        91.795          18.000  
J 2  36710975.321 8                        35.048          26.000    36710973.620 2                        26.166          26.000  
J 3  40064479.911 4                      -891.182          26.000    40064478.139 8                      -694.735          26.000  
E27  24613211.088 2 129343291.120 5     -2217.510          32.000    24613211.297 1  99107205.704 5     -1699.050          33.000  
E21  24056706.063 9                       379.049          15.000    24056706.765 4                       277.463          25.000  
C10                                                                  36786513.365 9                        -2.742          21.000  
G 6                                                                  23728462.741 9                      1686.452          20.000                                                  
R20                                                                  21592007.916 8                     -2453.110          27.000  
> 2021  6 10  3 52 32.3010000  0 28                     
G 3  22260123.161 9                       273.456          15.000                                                                                                                  
G 1  21852981.927 2                     -3602.336          29.000    21852978.983 2                     -2807.370          27.000                                                  
G 7  22945430.002 2                     -3889.743          29.000    22945425.278 8                     -3032.453          25.000                                                  
G17  22544667.517 9                      -153.101          24.000    22544671.907 9                      -112.852          20.000                                                  
C13  37087298.427 9                       -86.096          21.000    37087290.117 9                       -57.357          23.000  
C 7  36259029.122 9                      -228.596          22.000    36259020.472 8                      -179.968          25.000  
C23  23287674.591 9                       364.562          22.000                                                                  
C11  23307114.653 2 121366272.772 5     -2006.202          32.000    23307106.156 1  93848050.124 3     -1550.691          35.000  
C25  22892091.964 9                     -2562.198          18.000                                                                  
R 9  21205376.585 2 113235509.067 4     -4169.586          33.000    21205376.315 2  88072076.282 3     -3243.652          34.000  
R21  21256260.317 4                      -434.074          28.000    21256256.436 9                      -334.788          25.000  
G30  21928273.365 4 115233827.289 5     -2366.588          29.000    21928274.669 2                     -1844.477          29.000                                                  
G22  23165625.813 2                     -1764.725          30.000                                                                                                                  
G19  23603837.741 9                       836.459          18.000                                                                                                                  
G21  24662752.595 4                     -3839.672          27.000                                                                                                                  
C 8  36696310.672 9                      -455.485          15.000                                                                  
C34  24663365.122 2                     -2427.871          29.000                                                                  
J 7  36819213.780 9                      -679.563          18.000    36819205.854 2                      -544.796          29.000  
