% program   : RTKPOST ver.demo5 b33e
% inp file  : C:\Users\Administrator\Dropbox\1. Research Papers && UC Berkeley\63. 3D Vision Adied GNSS-RTK in Urban Canyons\20210610\extracted\3_klt_3\10hz\f9p\rtk\20210610.klt3.ublox.f9p.10Hz.obs
% inp file  : C:\Users\Administrator\Dropbox\1. Research Papers && UC Berkeley\63. 3D Vision Adied GNSS-RTK in Urban Canyons\20210610\extracted\3_klt_3\10hz\f9p\rtk\hksc1610.21o
% inp file  : C:\Users\Administrator\Dropbox\1. Research Papers && UC Berkeley\63. 3D Vision Adied GNSS-RTK in Urban Canyons\20210610\extracted\3_klt_3\10hz\f9p\rtk\hksc1610.21n
% inp file  : C:\Users\Administrator\Dropbox\1. Research Papers && UC Berkeley\63. 3D Vision Adied GNSS-RTK in Urban Canyons\20210610\extracted\3_klt_3\10hz\f9p\rtk\hksc1610.21f
% obs start : 2021/06/10 03:52:31.0 GPST (week2161 359551.0s)
% obs end   : 2021/06/10 03:59:17.0 GPST (week2161 359957.0s)
% pos mode  : kinematic
% freqs     : L1+L2/E5b
% solution  : forward
% elev mask : 15.0 deg
% dynamics  : on
% tidecorr  : off
% ionos opt : broadcast
% tropo opt : saastamoinen
% ephemeris : broadcast
% navi sys  : gps glonass galileo qzss beidou
% amb res   : instantaneous
% amb glo   : fix and hold
% val thres : 3.0
% antenna1  :                       ( 0.0000  0.0000  0.0000)
% antenna2  :                       ( 0.0000  0.0000  0.0000)
% ref pos   : 22.322172082  114.141187963    20.2386
%
% (lat/lon/height=WGS84/ellipsoidal,Q=1:fix,2:float,3:sbas,4:dgps,5:single,6:ppp,ns=# of satellites)
%  GPST          latitude(deg) longitude(deg)  height(m)   Q  ns   sdn(m)   sde(m)   sdu(m)  sdne(m)  sdeu(m)  sdun(m) age(s)  ratio
2161 359575.100   22.330413459  114.180727558    24.0758   2   4   9.4367  10.4506  29.8000  -9.6088  -5.9195   9.3355  25.10    0.0
2161 359575.700   22.330432630  114.180681807    19.9398   2   4   6.0141   5.8381  30.1316  -5.4383  -6.7350   9.9038  25.70    0.0
2161 359575.800   22.330428529  114.180681438    18.8223   2   4   4.9145   5.5014  15.6786  -5.0094  -4.6974   4.7513  25.80    0.0
2161 359575.900   22.330423289  114.180683755    19.6009   2   4   4.6755   5.3360  12.3389  -4.8444  -4.0935   3.7274  25.90    0.0
2161 359576.000   22.330414880  114.180692676    18.0950   2   4   4.5058   5.1451   9.6823  -4.6712  -3.0177   2.6221  26.00    0.0
2161 359579.300   22.330326568  114.180775606    19.0298   2   5   1.1606   1.1994   4.5820  -0.7192  -0.8566   1.5343  29.30    0.0
2161 359580.000   22.330325315  114.180781604    19.3435   2   5   1.1380   1.0981   4.5208  -0.6392  -0.6973   1.3671   0.00    0.0
2161 359580.200   22.330324984  114.180781914    19.4528   2   5   1.1020   1.0815   4.5228  -0.6565  -0.7096   1.4100   0.20    0.0
2161 359580.300   22.330323740  114.180782292    19.2060   2   5   1.0824   1.0676   4.4498  -0.6752  -0.6966   1.4161   0.30    0.0
2161 359580.400   22.330322716  114.180781992    18.9850   2   5   1.0715   1.0587   4.3861  -0.6843  -0.6857   1.4166   0.40    0.0
2161 359580.500   22.330322609  114.180781262    18.8033   2   5   1.0654   1.0526   4.3292  -0.6882  -0.6751   1.4136   0.50    0.0
2161 359580.600   22.330323460  114.180779330    18.8289   2   5   1.0302   1.0343   4.2531  -0.6564  -0.6032   1.3659   0.60    0.0
2161 359580.700   22.330323865  114.180777856    18.8481   2   5   1.0074   1.0220   4.1880  -0.6340  -0.5463   1.3293   0.70    0.0
2161 359580.800   22.330324101  114.180776287    18.8211   2   5   1.0200   1.0257   4.1512  -0.6472  -0.5610   1.3364   0.80    0.0
2161 359580.900   22.330324367  114.180775407    18.7910   2   5   1.0295   1.0286   4.1164  -0.6568  -0.5721   1.3394   0.90    0.0
2161 359581.000   22.330324548  114.180774291    18.8269   2   5   1.0360   1.0307   4.0832  -0.6635  -0.5800   1.3389   1.00    0.0
2161 359581.100   22.330324862  114.180772495    18.9262   2   5   1.0398   1.0320   4.0515  -0.6681  -0.5854   1.3356   1.10    0.0
2161 359581.200   22.330325724  114.180770293    19.0166   2   5   1.0415   1.0327   4.0212  -0.6709  -0.5889   1.3300   1.20    0.0
2161 359581.300   22.330326846  114.180768093    19.1223   2   5   1.0416   1.0329   3.9922  -0.6726  -0.5908   1.3227   1.30    0.0
2161 359581.500   22.330328032  114.180766126    19.1647   2   5   1.0553   1.0429   3.9403  -0.6530  -0.5744   1.3151   1.50    0.0
2161 359582.000   22.330327770  114.180764221    18.3649   2   4   1.1029   1.0792   3.6599  -0.5682  -0.5939   1.2476   2.00    0.0
2161 359582.300   22.330327133  114.180766189    17.7019   2   4   1.1004   1.0807   3.5196  -0.5628  -0.6128   1.1993   2.30    0.0
2161 359582.400   22.330326832  114.180765898    17.1822   2   4   1.0950   1.0786   3.4039  -0.5679  -0.6529   1.1573   2.40    0.0
2161 359582.500   22.330324349  114.180767682    16.8271   2   5   1.1132   1.0975   3.3155  -0.7095  -0.6543   1.0959   2.50    0.0
2161 359582.600   22.330323924  114.180767847    16.4587   2   4   1.1018   1.0889   3.2427  -0.6716  -0.6750   1.0784   2.60    0.0
2161 359582.700   22.330323665  114.180768334    16.0714   2   4   1.0944   1.0842   3.1842  -0.6417  -0.6865   1.0634   2.70    0.0
2161 359582.800   22.330323405  114.180768585    15.7269   2   4   1.0895   1.0815   3.1370  -0.6186  -0.6922   1.0510   2.80    0.0
2161 359582.900   22.330320900  114.180770482    15.5598   2   5   1.1157   1.1051   3.1007  -0.7369  -0.6710   1.0191   2.90    0.0
2161 359583.200   22.330316164  114.180774486    15.1599   2   5   1.1683   1.2028   3.0446  -0.8708  -0.6011   1.0571   3.20    0.0
2161 359583.300   22.330316080  114.180775056    14.9621   2   5   1.1369   1.2117   3.0263  -0.8897  -0.6124   1.0966   3.30    0.0
2161 359583.400   22.330315949  114.180775567    14.8207   2   6   1.1112   1.2169   2.9975  -0.9023  -0.6325   1.1004   3.40    0.0
2161 359583.500   22.330318572  114.180772414    14.7245   2   7   1.0409   1.1401   2.9741  -0.8217  -0.6425   1.0994   3.50    0.0
2161 359583.600   22.330319854  114.180770495    14.6259   2   6   1.0226   1.0936   2.9644  -0.7685  -0.6529   1.0736   3.60    0.0
2161 359583.700   22.330321152  114.180769184    14.8307   2   5   1.0152   1.0673   3.0437  -0.7289  -0.6192   1.0745   3.70    0.0
2161 359583.800   22.330322174  114.180768167    15.0295   2   5   1.0122   1.0506   3.1187  -0.7022  -0.5940   1.0789   3.80    0.0
2161 359583.900   22.330322960  114.180767259    15.2381   2   6   0.9837   1.0384   3.1869  -0.6958  -0.5697   1.0956   3.90    0.0
2161 359584.000   22.330323736  114.180766524    15.4475   2   6   0.9674   1.0313   3.2488  -0.6920  -0.5509   1.1113   4.00    0.0
2161 359584.100   22.330324452  114.180765942    15.6741   2   6   0.9585   1.0276   3.3042  -0.6904  -0.5370   1.1258   4.10    0.0
2161 359584.300   22.330325814  114.180765441    16.1747   2   4   0.9950   1.0522   3.4010  -0.6446  -0.4841   1.1632   4.30    0.0
2161 359584.500   22.330326290  114.180765430    16.5421   2   4   0.9725   1.0485   3.4469  -0.5692  -0.3392   1.1393   4.50    0.0
2161 359584.600   22.330326139  114.180765280    16.6843   2   6   0.9341   1.0234   3.4601  -0.5948  -0.3255   1.1238   4.60    0.0
2161 359584.700   22.330325758  114.180765343    16.8269   2   5   0.9280   1.0090   3.4708  -0.6114  -0.3152   1.1174   4.70    0.0
2161 359584.800   22.330325662  114.180765357    16.9890   2   5   0.9482   1.0123   3.4908  -0.6468  -0.3743   1.1400   4.80    0.0
2161 359584.900   22.330325378  114.180765649    17.1038   2   4   0.9534   1.0074   3.4975  -0.6351  -0.3750   1.1217   4.90    0.0
2161 359585.000   22.330325764  114.180765899    17.4209   2   4   1.0009   1.0050   3.5941  -0.6172  -0.3362   1.2086   5.00    0.0
2161 359585.100   22.330326484  114.180765986    17.7741   2   5   1.0332   1.0018   3.6887  -0.5942  -0.2803   1.2853   5.10    0.0
2161 359585.200   22.330327242  114.180766041    18.1330   2   5   1.0737   1.0128   3.7829  -0.5992  -0.2693   1.3640   5.20    0.0
2161 359585.300   22.330330395  114.180763814    18.7093   2   6   1.0778   0.9961   3.8688  -0.5561  -0.1905   1.4195   5.30    0.0
2161 359585.400   22.330330727  114.180764416    19.1049   2   5   1.1092   1.0081   3.9507  -0.5721  -0.2052   1.4797   5.40    0.0
2161 359585.500   22.330329302  114.180764515    18.9312   2   5   1.0776   1.0131   3.8758  -0.6118  -0.3859   1.4003   5.50    0.0
2161 359585.600   22.330330534  114.180762228    18.9953   2   6   1.0299   0.9920   3.8195  -0.5919  -0.4336   1.3314   5.60    0.0
2161 359585.700   22.330331848  114.180761839    19.1240   2   5   1.0036   1.0155   3.7781  -0.5535  -0.4273   1.2861   5.70    0.0
2161 359585.800   22.330332917  114.180761391    19.2834   2   5   0.9860   1.0354   3.7432  -0.5248  -0.4288   1.2506   5.80    0.0
2161 359585.900   22.330333718  114.180761091    19.4512   2   5   0.9743   1.0506   3.7131  -0.5042  -0.4320   1.2227   5.90    0.0
2161 359586.000   22.330334054  114.180760920    19.5849   2   5   0.9666   1.0613   3.6870  -0.4903  -0.4342   1.2010   6.00    0.0
2161 359586.100   22.330334163  114.180760829    19.6831   2   5   0.9618   1.0684   3.6642  -0.4814  -0.4348   1.1843   6.10    0.0
2161 359586.200   22.330333400  114.180758767    19.7254   2   6   0.9523   1.0216   3.6436  -0.5133  -0.4596   1.1683   6.20    0.0
2161 359586.300   22.330332682  114.180757377    19.7773   2   6   0.9471   0.9936   3.6259  -0.5304  -0.4733   1.1568   6.30    0.0
2161 359586.400   22.330332365  114.180757492    19.7876   2   5   0.9553   1.0266   3.6800  -0.4989  -0.3395   1.1831   6.40    0.0
2161 359586.500   22.330332142  114.180757663    19.7690   2   5   0.9632   1.0548   3.7335  -0.4690  -0.0867   1.2101   6.50    0.0
2161 359586.600   22.330331912  114.180758101    19.8518   2   5   0.9625   1.0635   3.7030  -0.4656  -0.2089   1.1968   6.60    0.0
2161 359586.700   22.330331649  114.180758305    19.8684   2   5   0.9693   1.0834   3.7564  -0.4407   0.2442   1.2246   6.70    0.0
2161 359586.800   22.330330560  114.180758772    19.6870   2   5   0.9479   1.0965   3.7698  -0.4018   0.4294   1.2004   6.80    0.0
2161 359586.900   22.330329625  114.180759499    19.6512   2   5   0.9312   1.0841   3.7187  -0.3920   0.3593   1.1642   6.90    0.0
2161 359587.000   22.330328881  114.180760096    19.6741   2   5   0.9196   1.0750   3.6770  -0.3867   0.2924   1.1363   7.00    0.0
2161 359587.600   22.330312780  114.180767388    19.6724   2   4   1.2479   1.1664   3.4014  -0.7362   0.1363   1.0670   7.60    0.0
2161 359597.700   22.330288487  114.180533312     7.3330   2   4   2.2016   7.3414  26.6132   2.9041 -13.1315  -6.0364  17.70    0.0
2161 359597.900   22.330281614  114.180492116    15.7941   2   4   1.6922   3.4859  13.2171   0.2207  -5.2150  -2.6376  17.90    0.0
2161 359598.100   22.330284093  114.180476497    18.4292   2   4   1.6198   2.9939  10.7541  -0.6440  -3.7060  -2.0881  18.10    0.0
2161 359598.200   22.330284839  114.180469378    19.3824   2   4   1.5003   2.8225  10.1013  -0.3667  -3.5045  -1.8134  18.20    0.0
2161 359598.400   22.330287281  114.180457144    20.7356   2   4   1.5152   3.0287  10.3803   0.7928  -3.9202  -1.6582  18.40    0.0
2161 359598.500   22.330288453  114.180451852    16.4843   2   4   1.7182   3.4380   9.6130   1.3288  -4.3780  -1.4603  18.50    0.0
2161 359598.700   22.330286340  114.180435057    13.7978   2   4   2.1542   3.4722   9.2679   1.1873  -4.1044   1.0043  18.70    0.0
2161 359599.100   22.330291208  114.180420347     9.6613   2   5   1.7132   4.4573  13.7865   1.8169  -6.5866  -2.4766  19.10    0.0
2161 359599.200   22.330293505  114.180419188     8.0517   2   5   1.5381   4.6013  15.0247   1.7331  -7.3671  -2.9837  19.20    0.0
2161 359599.300   22.330294800  114.180417188     5.9776   2   5   1.4834   4.8332  16.3016   1.7988  -8.0864  -3.3590  19.30    0.0
2161 359599.400   22.330292172  114.180391968    11.8732   2   5   1.3078   3.6396  13.2759   1.1109  -5.9941  -2.3991  19.40    0.0
2161 359599.500   22.330291887  114.180378146    14.3859   2   5   1.2432   3.1564  12.0060   0.8001  -5.1069  -2.0186  19.50    0.0
2161 359599.600   22.330294334  114.180373900    14.0828   2   6   1.1974   3.3960  12.7349   0.9506  -5.6650  -2.3736  19.60    0.0
2161 359599.700   22.330295610  114.180369733    13.2197   2   6   1.1865   3.6530  13.5740   1.1057  -6.2314  -2.6493  19.70    0.0
2161 359599.800   22.330294562  114.180354930    15.2280   2   5   1.1796   3.2169  12.1447   0.6316  -5.1351  -2.3959  19.80    0.0
2161 359599.900   22.330295068  114.180349285    13.8892   2   5   1.2479   3.5260  12.9825   0.6670  -5.5451  -2.7280  19.90    0.0
2161 359600.000   22.330295016  114.180336990    15.5496   2   6   1.1671   3.0964  11.7143   0.4871  -4.8197  -2.3631  20.00    0.0
2161 359600.100   22.330295138  114.180326118    16.5259   2   6   1.1173   2.8455  10.9151   0.3770  -4.3838  -2.1293  20.10    0.0
2161 359600.200   22.330295019  114.180315828    17.0975   2   6   1.0840   2.6833  10.3548   0.3007  -4.0919  -1.9680  20.20    0.0
2161 359600.300   22.330295118  114.180305721    17.5338   2   6   1.0605   2.5727   9.9373   0.2407  -3.8849  -1.8524  20.30    0.0
2161 359600.400   22.330295494  114.180298687    16.9681   2   6   1.0651   2.7678  10.4076   0.5389  -4.3256  -1.9941  20.40    0.0
2161 359600.500   22.330295592  114.180291888    16.1282   2   6   1.0738   2.9794  10.9745   0.7278  -4.7860  -2.1518  20.50    0.0
2161 359600.600   22.330295901  114.180285789    14.9939   2   6   1.0854   3.2015  11.6176   0.8811  -5.2584  -2.3182  20.60    0.0
2161 359600.700   22.330295533  114.180274199    15.8841   2   6   1.0522   2.8987  10.7046   0.6690  -4.6622  -2.0624  20.70    0.0
2161 359600.800   22.330294344  114.180266753    14.6547   2   5   1.1027   3.1187  11.3118   0.8533  -5.0950  -2.2045  20.80    0.0
2161 359600.900   22.330293684  114.180259706    13.5956   2   5   1.1498   3.3482  11.9673   1.0181  -5.5432  -2.3716  20.90    0.0
2161 359660.000   22.330320464  114.179134772     5.4632   2   4   5.7097   2.2578   9.2559  -1.5373  -1.6978   6.0130  20.00    0.0
2161 359661.000   22.330324339  114.179135647     7.5250   2   4   2.9360   2.2515   7.0334  -1.7781  -1.8675   3.0038  21.00    0.0
2161 359662.000   22.330315440  114.179138248    10.0845   2   4   7.2188   2.3161   8.3881  -2.1825  -1.4005   5.0627  22.00    0.0
2161 359759.000   22.327138378  114.178591200    12.3548   2   4   1.6647   2.8893   5.5239  -1.3464   1.9255  -1.6276  29.00    0.0
2161 359760.000   22.327137485  114.178588933    11.0142   2   4   1.7450   3.0156   5.2811  -1.5108   1.8485  -1.6387  -0.00    0.0
2161 359764.000   22.327136802  114.178584230    12.5230   2   4   1.6523   2.8839   5.2875  -1.3389   1.9056  -1.6378   4.00    0.0
2161 359766.000   22.327135821  114.178585001    13.4685   2   4   1.7491   3.0603   5.2649  -1.5428   1.9426  -1.6592   6.00    0.0
