$GPGGA,080208.000,3411.560479,N,10850.312234,E,1,19,0.8,370.8,M,,M,,*4B
$GPRMC,080208.000,A,3411.560479,N,10850.312234,E,2.3,93.112008532,061221,,E,A*1D
$GPGGA,080209.000,3411.560219,N,10850.312862,E,1,19,0.8,370.8,M,,M,,*43
$GPRMC,080209.000,A,3411.560219,N,10850.312862,E,2.0,104.14084488700001,061221,,E,A*1C
$GPGGA,080210.000,3411.560146,N,10850.313364,E,1,19,0.8,370.8,M,,M,,*4E
$GPRMC,080210.000,A,3411.560146,N,10850.313364,E,1.7,100.291056528,061221,,E,A*2C
$GPGGA,080211.000,3411.560172,N,10850.313752,E,1,19,0.8,370.8,M,,M,,*49
$GPRMC,080211.000,A,3411.560172,N,10850.313752,E,1.5,94.753951877,061221,,E,A*17
$GPGGA,080212.000,3411.560203,N,10850.314206,E,1,19,0.8,370.7,M,,M,,*43
$GPRMC,080212.000,A,3411.560203,N,10850.314206,E,1.4,91.92799522600001,061221,,E,A*2C
$GPGGA,080213.000,3411.560216,N,10850.314678,E,1,19,0.8,370.7,M,,M,,*4B
$GPRMC,080213.000,A,3411.560216,N,10850.314678,E,1.4,89.88009958299999,061221,,E,A*25
$GPGGA,080214.000,3411.560287,N,10850.315165,E,1,19,0.8,370.7,M,,M,,*4E
$GPRMC,080214.000,A,3411.560287,N,10850.315165,E,1.4,93.97025596200001,061221,,E,A*2D
$GPGGA,080215.000,3411.559146,N,10850.320352,E,1,19,0.8,360.8,M,,M,,*45
$GPRMC,080215.000,A,3411.559146,N,10850.320352,E,1.6,101.09380184,061221,,E,A*1F
$GPGGA,080216.000,3411.559171,N,10850.324177,E,1,19,0.8,354.6,M,,M,,*4A
$GPRMC,080216.000,A,3411.559171,N,10850.324177,E,1.7,93.25800382700001,061221,,E,A*2D
$GPGGA,080217.000,3411.558883,N,10850.327567,E,1,19,0.8,350.6,M,,M,,*4C
$GPRMC,080217.000,A,3411.558883,N,10850.327567,E,1.8,99.334898335,061221,,E,A*12
$GPGGA,080218.000,3411.560165,N,10850.330944,E,1,19,0.8,346.1,M,,M,,*42
$GPRMC,080218.000,A,3411.560165,N,10850.330944,E,1.9,87.615502526,061221,,E,A*1E
$GPGGA,080219.000,3411.560051,N,10850.332680,E,1,19,0.8,344.4,M,,M,,*47
$GPRMC,080219.000,A,3411.560051,N,10850.332680,E,2.0,80.616416356,061221,,E,A*17
$GPGGA,080220.000,3411.560170,N,10850.333787,E,1,19,0.8,342.8,M,,M,,*42
$GPRMC,080220.000,A,3411.560170,N,10850.333787,E,1.9,90.399275928,061221,,E,A*11
$GPGGA,080221.000,3411.560055,N,10850.335157,E,1,19,0.8,342.7,M,,M,,*47
$GPRMC,080221.000,A,3411.560055,N,10850.335157,E,1.9,86.55534787100001,061221,,E,A*26
$GPGGA,080222.000,3411.560300,N,10850.336211,E,1,19,0.8,343.3,M,,M,,*40
$GPRMC,080222.000,A,3411.560300,N,10850.336211,E,1.9,99.645446549,061221,,E,A*19
$GPGGA,080223.000,3411.560238,N,10850.337531,E,1,19,0.8,343.9,M,,M,,*45
$GPRMC,080223.000,A,3411.560238,N,10850.337531,E,1.9,107.411433198,061221,,E,A*29
$GPGGA,080224.000,3411.560218,N,10850.338634,E,1,19,0.8,343.5,M,,M,,*45
$GPRMC,080224.000,A,3411.560218,N,10850.338634,E,1.9,105.787460081,061221,,E,A*24
$GPGGA,080225.000,3411.560088,N,10850.339407,E,1,19,0.8,343.6,M,,M,,*4F
$GPRMC,080225.000,A,3411.560088,N,10850.339407,E,1.8,81.852967478,061221,,E,A*1E
$GPGGA,080226.000,3411.559948,N,10850.340282,E,1,19,0.8,343.5,M,,M,,*45
$GPRMC,080226.000,A,3411.559948,N,10850.340282,E,1.9,82.063535383,061221,,E,A*17
$GPGGA,080227.000,3411.559877,N,10850.341023,E,1,19,0.8,343.4,M,,M,,*40
$GPRMC,080227.000,A,3411.559877,N,10850.341023,E,1.8,92.086271201,061221,,E,A*14
$GPGGA,080228.000,3411.559693,N,10850.341642,E,1,19,0.8,343.4,M,,M,,*4A
$GPRMC,080228.000,A,3411.559693,N,10850.341642,E,1.8,93.51905366,061221,,E,A*2D
$GPGGA,080229.000,3411.559462,N,10850.342389,E,1,19,0.8,343.5,M,,M,,*47
$GPRMC,080229.000,A,3411.559462,N,10850.342389,E,1.8,87.373529411,061221,,E,A*12
$GPGGA,080230.000,3411.559347,N,10850.343463,E,1,19,0.8,344.1,M,,M,,*4E
$GPRMC,080230.000,A,3411.559347,N,10850.343463,E,1.8,93.599547441,061221,,E,A*12
$GPGGA,080231.000,3411.559287,N,10850.344480,E,1,19,0.8,344.4,M,,M,,*4D
$GPRMC,080231.000,A,3411.559287,N,10850.344480,E,1.8,106.289615595,061221,,E,A*23
$GPGGA,080232.000,3411.559221,N,10850.345521,E,1,19,0.8,345.4,M,,M,,*48
$GPRMC,080232.000,A,3411.559221,N,10850.345521,E,1.9,92.249171215,061221,,E,A*1C
$GPGGA,080233.000,3411.559366,N,10850.346247,E,1,19,0.8,345.2,M,,M,,*49
$GPRMC,080233.000,A,3411.559366,N,10850.346247,E,1.8,84.221902506,061221,,E,A*1A
$GPGGA,080234.000,3411.559552,N,10850.346976,E,1,19,0.8,345.5,M,,M,,*41
$GPRMC,080234.000,A,3411.559552,N,10850.346976,E,1.7,94.901736681,061221,,E,A*17
$GPGGA,080235.000,3411.559578,N,10850.347773,E,1,19,0.8,345.3,M,,M,,*44
$GPRMC,080235.000,A,3411.559578,N,10850.347773,E,1.7,87.742605517,061221,,E,A*12
$GPGGA,080236.000,3411.559372,N,10850.348669,E,1,19,0.8,345.1,M,,M,,*4C
$GPRMC,080236.000,A,3411.559372,N,10850.348669,E,1.7,82.956732891,061221,,E,A*10
$GPGGA,080237.000,3411.559303,N,10850.349549,E,1,19,0.8,345.1,M,,M,,*4B
$GPRMC,080237.000,A,3411.559303,N,10850.349549,E,1.8,83.242105028,061221,,E,A*1F
$GPGGA,080238.000,3411.559244,N,10850.350098,E,1,19,0.8,345.1,M,,M,,*47
$GPRMC,080238.000,A,3411.559244,N,10850.350098,E,1.7,87.419899566,061221,,E,A*13
$GPGGA,080239.000,3411.559234,N,10850.350913,E,1,19,0.8,344.9,M,,M,,*42
$GPRMC,080239.000,A,3411.559234,N,10850.350913,E,1.7,76.43491985600001,061221,,E,A*28
$GPGGA,080240.000,3411.559200,N,10850.351448,E,1,19,0.8,344.9,M,,M,,*49
$GPRMC,080240.000,A,3411.559200,N,10850.351448,E,1.7,65.94862592300001,061221,,E,A*24
$GPGGA,080241.000,3411.558951,N,10850.352632,E,1,19,0.8,346.4,M,,M,,*45
$GPRMC,080241.000,A,3411.558951,N,10850.352632,E,1.8,72.53727919100001,061221,,E,A*26
$GPGGA,080242.000,3411.558931,N,10850.353218,E,1,19,0.8,346.4,M,,M,,*4D
$GPRMC,080242.000,A,3411.558931,N,10850.353218,E,1.8,74.81133606,061221,,E,A*25
$GPGGA,080243.000,3411.558923,N,10850.353789,E,1,19,0.8,346.4,M,,M,,*42
$GPRMC,080243.000,A,3411.558923,N,10850.353789,E,1.8,88.31380058399999,061221,,E,A*2F
$GPGGA,080244.000,3411.558796,N,10850.354448,E,1,19,0.8,346.4,M,,M,,*4C
$GPRMC,080244.000,A,3411.558796,N,10850.354448,E,1.8,103.78422021600001,061221,,E,A*12
$GPGGA,080245.000,3411.559033,N,10850.355171,E,1,19,0.8,346.3,M,,M,,*4D
$GPRMC,080245.000,A,3411.559033,N,10850.355171,E,1.8,97.59013332100001,061221,,E,A*2B
$GPGGA,080246.000,3411.559391,N,10850.355897,E,1,19,0.8,346.3,M,,M,,*44
$GPRMC,080246.000,A,3411.559391,N,10850.355897,E,1.8,103.11897344299999,061221,,E,A*1C
$GPGGA,080247.000,3411.559273,N,10850.356915,E,1,19,0.8,347.2,M,,M,,*40
$GPRMC,080247.000,A,3411.559273,N,10850.356915,E,1.9,95.646070215,061221,,E,A*1C
$GPGGA,080248.000,3411.559381,N,10850.357638,E,1,19,0.8,347.2,M,,M,,*42
$GPRMC,080248.000,A,3411.559381,N,10850.357638,E,1.9,109.258432484,061221,,E,A*2D
$GPGGA,080249.000,3411.559503,N,10850.358477,E,1,19,0.8,347.3,M,,M,,*48
$GPRMC,080249.000,A,3411.559503,N,10850.358477,E,1.9,111.454242705,061221,,E,A*2E
$GPGGA,080250.000,3411.559619,N,10850.359505,E,1,19,0.8,347.3,M,,M,,*4D
$GPRMC,080250.000,A,3411.559619,N,10850.359505,E,2.0,98.558244345,061221,,E,A*1A
$GPGGA,080251.000,3411.559605,N,10850.360166,E,1,19,0.8,347.3,M,,M,,*4A
$GPRMC,080251.000,A,3411.559605,N,10850.360166,E,2.0,89.320399725,061221,,E,A*17
$GPGGA,080252.000,3411.559521,N,10850.360703,E,1,19,0.8,347.4,M,,M,,*4E
$GPRMC,080252.000,A,3411.559521,N,10850.360703,E,1.9,99.848590038,061221,,E,A*1E
$GPGGA,080253.000,3411.559486,N,10850.361296,E,1,19,0.8,347.4,M,,M,,*4B
$GPRMC,080253.000,A,3411.559486,N,10850.361296,E,1.9,99.538499446,061221,,E,A*14
$GPGGA,080254.000,3411.559458,N,10850.361961,E,1,19,0.8,347.4,M,,M,,*4C
$GPRMC,080254.000,A,3411.559458,N,10850.361961,E,1.9,105.34342947799999,061221,,E,A*1D
$GPGGA,080255.000,3411.559563,N,10850.362573,E,1,19,0.8,347.3,M,,M,,*4F
$GPRMC,080255.000,A,3411.559563,N,10850.362573,E,1.9,88.78391568,061221,,E,A*24
$GPGGA,080256.000,3411.559458,N,10850.363132,E,1,19,0.8,347.4,M,,M,,*42
$GPRMC,080256.000,A,3411.559458,N,10850.363132,E,1.9,80.37111693899999,061221,,E,A*21
$GPGGA,080257.000,3411.559465,N,10850.363727,E,1,19,0.8,347.4,M,,M,,*4F
$GPRMC,080257.000,A,3411.559465,N,10850.363727,E,1.9,87.927437269,061221,,E,A*12
$GPGGA,080258.000,3411.559436,N,10850.364770,E,1,19,0.8,347.4,M,,M,,*43
$GPRMC,080258.000,A,3411.559436,N,10850.364770,E,1.9,82.892884282,061221,,E,A*15
$GPGGA,080259.000,3411.559333,N,10850.365743,E,1,19,0.8,347.2,M,,M,,*47
$GPRMC,080259.000,A,3411.559333,N,10850.365743,E,1.9,90.859446268,061221,,E,A*15
$GPGGA,080300.000,3411.559369,N,10850.366166,E,1,19,0.8,347.2,M,,M,,*47
$GPRMC,080300.000,A,3411.559369,N,10850.366166,E,1.8,93.113661438,061221,,E,A*14
$GPGGA,080301.000,3411.559319,N,10850.366731,E,1,19,0.8,347.2,M,,M,,*45
$GPRMC,080301.000,A,3411.559319,N,10850.366731,E,1.8,83.562816565,061221,,E,A*12
$GPGGA,080302.000,3411.559242,N,10850.367375,E,1,19,0.8,347.2,M,,M,,*4C
$GPRMC,080302.000,A,3411.559242,N,10850.367375,E,1.8,91.755676381,061221,,E,A*1A
$GPGGA,080303.000,3411.559452,N,10850.368634,E,1,19,0.8,347.1,M,,M,,*46
$GPRMC,080303.000,A,3411.559452,N,10850.368634,E,1.9,90.036326501,061221,,E,A*1F
$GPGGA,080304.000,3411.559550,N,10850.369435,E,1,19,0.8,347.1,M,,M,,*40
$GPRMC,080304.000,A,3411.559550,N,10850.369435,E,2.0,81.156383797,061221,,E,A*16
$GPGGA,080305.000,3411.559571,N,10850.370147,E,1,19,0.8,347.1,M,,M,,*4A
$GPRMC,080305.000,A,3411.559571,N,10850.370147,E,2.0,85.397002416,061221,,E,A*17
$GPGGA,080306.000,3411.559556,N,10850.370889,E,1,19,0.8,347.2,M,,M,,*44
$GPRMC,080306.000,A,3411.559556,N,10850.370889,E,2.0,88.569843888,061221,,E,A*16
$GPGGA,080307.000,3411.559606,N,10850.371582,E,1,19,0.8,347.3,M,,M,,*45
$GPRMC,080307.000,A,3411.559606,N,10850.371582,E,2.0,83.500614031,061221,,E,A*14
$GPGGA,080308.000,3411.535137,N,10850.343694,E,1,19,0.8,367.9,M,,M,,*48
$GPRMC,080308.000,A,3411.535137,N,10850.343694,E,1.1,82.776975971,061221,,E,A*14
$GPGGA,080309.000,3411.531531,N,10850.342797,E,1,19,0.8,378.8,M,,M,,*43
$GPRMC,080309.000,A,3411.531531,N,10850.342797,E,1.3,83.569967773,061221,,E,A*10
$GPGGA,080310.000,3411.529125,N,10850.340933,E,1,19,0.8,387.7,M,,M,,*4E
$GPRMC,080310.000,A,3411.529125,N,10850.340933,E,1.9,89.314874102,061221,,E,A*1D
$GPGGA,080311.000,3411.527627,N,10850.340677,E,1,19,0.8,392.9,M,,M,,*41
$GPRMC,080311.000,A,3411.527627,N,10850.340677,E,1.6,87.987604406,061221,,E,A*11
$GPGGA,080312.000,3411.527072,N,10850.341550,E,1,19,0.8,395.6,M,,M,,*4B
$GPRMC,080312.000,A,3411.527072,N,10850.341550,E,1.2,83.429238553,061221,,E,A*10
$GPGGA,080313.000,3411.526531,N,10850.341740,E,1,19,0.8,400.5,M,,M,,*42
$GPRMC,080313.000,A,3411.526531,N,10850.341740,E,1.0,89.93705653100001,061221,,E,A*24
$GPGGA,080314.000,3411.526539,N,10850.343579,E,1,19,0.8,400.7,M,,M,,*45
$GPRMC,080314.000,A,3411.526539,N,10850.343579,E,1.9,90.026340765,061221,,E,A*1F
$GPGGA,080315.000,3411.526776,N,10850.344244,E,1,19,0.8,401.3,M,,M,,*46
$GPRMC,080315.000,A,3411.526776,N,10850.344244,E,1.9,94.724985044,061221,,E,A*1F
$GPGGA,080316.000,3411.526776,N,10850.344540,E,1,19,0.8,403.3,M,,M,,*44
$GPRMC,080316.000,A,3411.526776,N,10850.344540,E,1.8,96.11985995299999,061221,,E,A*23
$GPGGA,080317.000,3411.526618,N,10850.344680,E,1,19,0.8,404.4,M,,M,,*43
$GPRMC,080317.000,A,3411.526618,N,10850.344680,E,1.5,98.83883535,061221,,E,A*26
$GPGGA,080318.000,3411.526759,N,10850.345061,E,1,19,0.8,405.8,M,,M,,*4D
$GPRMC,080318.000,A,3411.526759,N,10850.345061,E,1.5,91.800926385,061221,,E,A*1C
$GPGGA,080319.000,3411.526783,N,10850.345581,E,1,19,0.8,405.8,M,,M,,*40
$GPRMC,080319.000,A,3411.526783,N,10850.345581,E,1.5,91.83904567100001,061221,,E,A*28
$GPGGA,080320.000,3411.525050,N,10850.346797,E,1,19,0.8,411.1,M,,M,,*4A
$GPRMC,080320.000,A,3411.525050,N,10850.346797,E,1.9,91.526339116,061221,,E,A*1E
$GPGGA,080321.000,3411.524982,N,10850.347452,E,1,19,0.8,411.1,M,,M,,*47
$GPRMC,080321.000,A,3411.524982,N,10850.347452,E,1.9,95.885352235,061221,,E,A*1C
$GPGGA,080322.000,3411.524595,N,10850.349709,E,1,19,0.8,412.0,M,,M,,*4F
$GPRMC,080322.000,A,3411.524595,N,10850.349709,E,2.6,77.236504036,061221,,E,A*10
$GPGGA,080323.000,3411.524280,N,10850.351040,E,1,19,0.8,413.2,M,,M,,*4D
$GPRMC,080323.000,A,3411.524280,N,10850.351040,E,2.8,77.231791206,061221,,E,A*17
$GPGGA,080324.000,3411.524552,N,10850.352531,E,1,19,0.8,414.0,M,,M,,*47
$GPRMC,080324.000,A,3411.524552,N,10850.352531,E,3.0,91.183059829,061221,,E,A*17
$GPGGA,080325.000,3411.524591,N,10850.353378,E,1,19,0.8,415.0,M,,M,,*42
$GPRMC,080325.000,A,3411.524591,N,10850.353378,E,3.0,88.96417343,061221,,E,A*27
$GPGGA,080326.000,3411.524611,N,10850.354374,E,1,19,0.8,415.0,M,,M,,*41
$GPRMC,080326.000,A,3411.524611,N,10850.354374,E,3.0,88.892991189,061221,,E,A*1F
$GPGGA,080327.000,3411.524769,N,10850.355363,E,1,19,0.8,415.4,M,,M,,*4D
$GPRMC,080327.000,A,3411.524769,N,10850.355363,E,3.0,86.80918764399999,061221,,E,A*2C
$GPGGA,080328.000,3411.524770,N,10850.356802,E,1,19,0.8,415.9,M,,M,,*48
$GPRMC,080328.000,A,3411.524770,N,10850.356802,E,3.2,86.41795960399999,061221,,E,A*2A
$GPGGA,080329.000,3411.524824,N,10850.357864,E,1,19,0.8,415.9,M,,M,,*46
$GPRMC,080329.000,A,3411.524824,N,10850.357864,E,3.2,86.44153393799999,061221,,E,A*2F
$GPGGA,080330.000,3411.524606,N,10850.359121,E,1,19,0.8,416.9,M,,M,,*45
$GPRMC,080330.000,A,3411.524606,N,10850.359121,E,3.2,86.927291466,061221,,E,A*1D
$GPGGA,080331.000,3411.524496,N,10850.359671,E,1,19,0.8,417.3,M,,M,,*46
$GPRMC,080331.000,A,3411.524496,N,10850.359671,E,3.1,87.641615967,061221,,E,A*1C
$GPGGA,080332.000,3411.524413,N,10850.360535,E,1,19,0.8,417.3,M,,M,,*41
$GPRMC,080332.000,A,3411.524413,N,10850.360535,E,3.0,88.461472517,061221,,E,A*1D
$GPGGA,080333.000,3411.524148,N,10850.361983,E,1,19,0.8,417.6,M,,M,,*4E
$GPRMC,080333.000,A,3411.524148,N,10850.361983,E,3.1,90.271031562,061221,,E,A*19
$GPGGA,080334.000,3411.524149,N,10850.363026,E,1,19,0.8,417.6,M,,M,,*4C
$GPRMC,080334.000,A,3411.524149,N,10850.363026,E,3.1,90.21414645799999,061221,,E,A*27
$GPGGA,080335.000,3411.524150,N,10850.364085,E,1,19,0.8,417.6,M,,M,,*4B
$GPRMC,080335.000,A,3411.524150,N,10850.364085,E,3.1,90.137744259,061221,,E,A*17
$GPGGA,080336.000,3411.524117,N,10850.365159,E,1,19,0.8,417.6,M,,M,,*4A
$GPRMC,080336.000,A,3411.524117,N,10850.365159,E,3.1,90.505481968,061221,,E,A*10
$GPGGA,080337.000,3411.518858,N,10850.366613,E,1,19,0.8,430.5,M,,M,,*4A
$GPRMC,080337.000,A,3411.518858,N,10850.366613,E,3.4,108.419456341,061221,,E,A*24
$GPGGA,080338.000,3411.515836,N,10850.368024,E,1,19,0.8,439.6,M,,M,,*46
$GPRMC,080338.000,A,3411.515836,N,10850.368024,E,3.7,114.779222834,061221,,E,A*25
$GPGGA,080339.000,3411.514070,N,10850.368655,E,1,19,0.8,445.3,M,,M,,*42
$GPRMC,080339.000,A,3411.514070,N,10850.368655,E,3.7,118.097914055,061221,,E,A*25
$GPGGA,080340.000,3411.513867,N,10850.369619,E,1,19,0.8,447.0,M,,M,,*4D
$GPRMC,080340.000,A,3411.513867,N,10850.369619,E,3.5,112.045317881,061221,,E,A*24
$GPGGA,080341.000,3411.513679,N,10850.370520,E,1,19,0.8,448.3,M,,M,,*40
$GPRMC,080341.000,A,3411.513679,N,10850.370520,E,3.3,107.115281654,061221,,E,A*2B
$GPGGA,080342.000,3411.514296,N,10850.371452,E,1,19,0.8,448.5,M,,M,,*42
$GPRMC,080342.000,A,3411.514296,N,10850.371452,E,3.2,95.16581148200001,061221,,E,A*28
$GPGGA,080343.000,3411.514602,N,10850.372002,E,1,19,0.8,448.6,M,,M,,*4B
$GPRMC,080343.000,A,3411.514602,N,10850.372002,E,3.0,90.12603455200001,061221,,E,A*21
$GPGGA,080344.000,3411.514981,N,10850.372556,E,1,19,0.8,448.5,M,,M,,*4F
$GPRMC,080344.000,A,3411.514981,N,10850.372556,E,2.8,90.181181155,061221,,E,A*1F
$GPGGA,080345.000,3411.515301,N,10850.373090,E,1,19,0.8,448.4,M,,M,,*42
$GPRMC,080345.000,A,3411.515301,N,10850.373090,E,2.7,81.121645455,061221,,E,A*1C
$GPGGA,080346.000,3411.515750,N,10850.374021,E,1,19,0.8,448.2,M,,M,,*4A
$GPRMC,080346.000,A,3411.515750,N,10850.374021,E,2.8,89.084054686,061221,,E,A*11
$GPGGA,080347.000,3411.516071,N,10850.374807,E,1,19,0.8,448.0,M,,M,,*42
$GPRMC,080347.000,A,3411.516071,N,10850.374807,E,2.7,88.03251973,061221,,E,A*28
$GPGGA,080348.000,3411.516364,N,10850.375638,E,1,19,0.8,447.8,M,,M,,*4E
$GPRMC,080348.000,A,3411.516364,N,10850.375638,E,2.7,97.169441475,061221,,E,A*1C
$GPGGA,080349.000,3411.516786,N,10850.376395,E,1,19,0.8,447.6,M,,M,,*48
$GPRMC,080349.000,A,3411.516786,N,10850.376395,E,2.7,108.81406037200001,061221,,E,A*16
$GPGGA,080350.000,3411.517123,N,10850.377412,E,1,19,0.8,447.5,M,,M,,*42
$GPRMC,080350.000,A,3411.517123,N,10850.377412,E,2.8,103.906036641,061221,,E,A*2E
$GPGGA,080351.000,3411.517257,N,10850.378556,E,1,19,0.8,447.3,M,,M,,*4B
$GPRMC,080351.000,A,3411.517257,N,10850.378556,E,2.8,88.09300788600001,061221,,E,A*20
$GPGGA,080352.000,3411.517438,N,10850.379560,E,1,19,0.8,447.3,M,,M,,*43
$GPRMC,080352.000,A,3411.517438,N,10850.379560,E,2.8,84.123916611,061221,,E,A*16
$GPGGA,080353.000,3411.517657,N,10850.380446,E,1,19,0.8,447.3,M,,M,,*4A
$GPRMC,080353.000,A,3411.517657,N,10850.380446,E,2.8,72.385806084,061221,,E,A*12
$GPGGA,080354.000,3411.517304,N,10850.381285,E,1,19,0.8,446.4,M,,M,,*40
$GPRMC,080354.000,A,3411.517304,N,10850.381285,E,2.7,95.737102978,061221,,E,A*12
$GPGGA,080355.000,3411.517581,N,10850.381723,E,1,19,0.8,445.7,M,,M,,*43
$GPRMC,080355.000,A,3411.517581,N,10850.381723,E,2.6,101.026510816,061221,,E,A*25
$GPGGA,080356.000,3411.516954,N,10850.382212,E,1,19,0.8,447.0,M,,M,,*44
$GPRMC,080356.000,A,3411.516954,N,10850.382212,E,2.4,90.065320655,061221,,E,A*17
$GPGGA,080357.000,3411.516769,N,10850.382648,E,1,19,0.8,447.3,M,,M,,*4D
$GPRMC,080357.000,A,3411.516769,N,10850.382648,E,2.3,102.792456246,061221,,E,A*2F
$GPGGA,080358.000,3411.516945,N,10850.383409,E,1,19,0.8,447.2,M,,M,,*45
$GPRMC,080358.000,A,3411.516945,N,10850.383409,E,2.3,74.89616018,061221,,E,A*24
$GPGGA,080359.000,3411.516915,N,10850.384011,E,1,19,0.8,447.6,M,,M,,*4F
$GPRMC,080359.000,A,3411.516915,N,10850.384011,E,2.2,67.757949886,061221,,E,A*17
$GPGGA,080400.000,3411.517092,N,10850.384989,E,1,19,0.8,447.6,M,,M,,*4B
$GPRMC,080400.000,A,3411.517092,N,10850.384989,E,2.3,73.190368226,061221,,E,A*13
$GPGGA,080401.000,3411.517730,N,10850.385969,E,1,19,0.8,447.6,M,,M,,*4A
$GPRMC,080401.000,A,3411.517730,N,10850.385969,E,2.4,80.465421362,061221,,E,A*1D
$GPGGA,080402.000,3411.518079,N,10850.386986,E,1,19,0.8,447.7,M,,M,,*4F
$GPRMC,080402.000,A,3411.518079,N,10850.386986,E,2.5,77.530898853,061221,,E,A*16
$GPGGA,080403.000,3411.518299,N,10850.388037,E,1,19,0.8,447.8,M,,M,,*40
$GPRMC,080403.000,A,3411.518299,N,10850.388037,E,2.6,74.97698864,061221,,E,A*24
$GPGGA,080404.000,3411.518508,N,10850.389241,E,1,19,0.8,448.1,M,,M,,*4C
$GPRMC,080404.000,A,3411.518508,N,10850.389241,E,2.7,79.97284860399999,061221,,E,A*25
$GPGGA,080405.000,3411.519201,N,10850.390565,E,1,19,0.8,448.3,M,,M,,*49
$GPRMC,080405.000,A,3411.519201,N,10850.390565,E,3.0,71.087359496,061221,,E,A*13
$GPGGA,080406.000,3411.519570,N,10850.391799,E,1,19,0.8,448.5,M,,M,,*4D
$GPRMC,080406.000,A,3411.519570,N,10850.391799,E,3.1,70.571381502,061221,,E,A*14
$GPGGA,080407.000,3411.519945,N,10850.392986,E,1,19,0.8,448.8,M,,M,,*48
$GPRMC,080407.000,A,3411.519945,N,10850.392986,E,3.2,69.89994434,061221,,E,A*2F
$GPGGA,080408.000,3411.520245,N,10850.394244,E,1,19,0.8,449.1,M,,M,,*4D
$GPRMC,080408.000,A,3411.520245,N,10850.394244,E,3.3,70.057249348,061221,,E,A*1F
$GPGGA,080409.000,3411.520666,N,10850.395019,E,1,19,0.8,449.2,M,,M,,*41
$GPRMC,080409.000,A,3411.520666,N,10850.395019,E,3.2,68.468992898,061221,,E,A*1B
$GPGGA,080410.000,3411.520561,N,10850.395953,E,1,19,0.8,449.1,M,,M,,*49
$GPRMC,080410.000,A,3411.520561,N,10850.395953,E,3.1,71.856670747,061221,,E,A*14
$GPGGA,080411.000,3411.520614,N,10850.396895,E,1,19,0.8,449.0,M,,M,,*40
$GPRMC,080411.000,A,3411.520614,N,10850.396895,E,3.1,73.578461172,061221,,E,A*1D
$GPGGA,080412.000,3411.520705,N,10850.398081,E,1,19,0.8,449.0,M,,M,,*41
$GPRMC,080412.000,A,3411.520705,N,10850.398081,E,3.1,75.318405321,061221,,E,A*1C
$GPGGA,080413.000,3411.520461,N,10850.398921,E,1,19,0.8,448.8,M,,M,,*4B
$GPRMC,080413.000,A,3411.520461,N,10850.398921,E,3.0,79.305923847,061221,,E,A*1C
$GPGGA,080414.000,3411.520693,N,10850.399467,E,1,19,0.8,448.4,M,,M,,*41
$GPRMC,080414.000,A,3411.520693,N,10850.399467,E,2.8,81.944778882,061221,,E,A*12
$GPGGA,080415.000,3411.520870,N,10850.400115,E,1,19,0.8,448.1,M,,M,,*41
$GPRMC,080415.000,A,3411.520870,N,10850.400115,E,2.7,101.054173082,061221,,E,A*2C
$GPGGA,080416.000,3411.521041,N,10850.400830,E,1,19,0.8,447.9,M,,M,,*40
$GPRMC,080416.000,A,3411.521041,N,10850.400830,E,2.6,99.91103162799999,061221,,E,A*24
$GPGGA,080417.000,3411.521163,N,10850.401639,E,1,19,0.8,447.9,M,,M,,*46
$GPRMC,080417.000,A,3411.521163,N,10850.401639,E,2.6,104.36538052799999,061221,,E,A*14
$GPGGA,080418.000,3411.521090,N,10850.402725,E,1,19,0.8,448.0,M,,M,,*4D
$GPRMC,080418.000,A,3411.521090,N,10850.402725,E,2.7,101.12679848399999,061221,,E,A*1A
$GPGGA,080419.000,3411.520227,N,10850.403743,E,1,19,0.8,447.4,M,,M,,*49
$GPRMC,080419.000,A,3411.520227,N,10850.403743,E,2.7,96.746598119,061221,,E,A*17
$GPGGA,080420.000,3411.519789,N,10850.404793,E,1,19,0.8,447.0,M,,M,,*46
$GPRMC,080420.000,A,3411.519789,N,10850.404793,E,2.8,97.347053716,061221,,E,A*1C
$GPGGA,080421.000,3411.519667,N,10850.405811,E,1,19,0.8,446.8,M,,M,,*4B
$GPRMC,080421.000,A,3411.519667,N,10850.405811,E,2.8,92.16877988700001,061221,,E,A*2B
$GPGGA,080422.000,3411.519495,N,10850.406595,E,1,19,0.8,446.5,M,,M,,*48
$GPRMC,080422.000,A,3411.519495,N,10850.406595,E,2.8,99.494875027,061221,,E,A*18
$GPGGA,080423.000,3411.519433,N,10850.407710,E,1,19,0.8,446.2,M,,M,,*4C
$GPRMC,080423.000,A,3411.519433,N,10850.407710,E,2.9,103.706492662,061221,,E,A*22
$GPGGA,080424.000,3411.518963,N,10850.408836,E,1,19,0.8,446.1,M,,M,,*45
$GPRMC,080424.000,A,3411.518963,N,10850.408836,E,2.9,98.593338698,061221,,E,A*17
$GPGGA,080425.000,3411.518658,N,10850.409948,E,1,19,0.8,446.0,M,,M,,*4B
$GPRMC,080425.000,A,3411.518658,N,10850.409948,E,3.0,100.197832568,061221,,E,A*2D
$GPGGA,080426.000,3411.518639,N,10850.411281,E,1,19,0.8,445.8,M,,M,,*43
$GPRMC,080426.000,A,3411.518639,N,10850.411281,E,3.1,98.550436956,061221,,E,A*19
$GPGGA,080427.000,3411.518605,N,10850.412392,E,1,19,0.8,446.1,M,,M,,*47
$GPRMC,080427.000,A,3411.518605,N,10850.412392,E,3.1,97.410959211,061221,,E,A*11
$GPGGA,080428.000,3411.518558,N,10850.413518,E,1,19,0.8,446.0,M,,M,,*47
$GPRMC,080428.000,A,3411.518558,N,10850.413518,E,3.2,96.877296925,061221,,E,A*1B
$GPGGA,080429.000,3411.518662,N,10850.414734,E,1,19,0.8,445.7,M,,M,,*43
$GPRMC,080429.000,A,3411.518662,N,10850.414734,E,3.2,95.35597475700001,061221,,E,A*2E
$GPGGA,080430.000,3411.518740,N,10850.415990,E,1,19,0.8,445.7,M,,M,,*4B
$GPRMC,080430.000,A,3411.518740,N,10850.415990,E,3.3,94.162959518,061221,,E,A*17
$GPGGA,080431.000,3411.519049,N,10850.416844,E,1,19,0.8,445.6,M,,M,,*4F
$GPRMC,080431.000,A,3411.519049,N,10850.416844,E,3.2,91.532255028,061221,,E,A*16
$GPGGA,080432.000,3411.519295,N,10850.417750,E,1,19,0.8,445.7,M,,M,,*45
$GPRMC,080432.000,A,3411.519295,N,10850.417750,E,3.1,89.390932246,061221,,E,A*19
$GPGGA,080433.000,3411.519399,N,10850.418804,E,1,19,0.8,445.3,M,,M,,*4C
$GPRMC,080433.000,A,3411.519399,N,10850.418804,E,3.1,89.08527458,061221,,E,A*27
$GPGGA,080434.000,3411.519700,N,10850.419548,E,1,19,0.8,445.2,M,,M,,*4A
$GPRMC,080434.000,A,3411.519700,N,10850.419548,E,3.0,87.10515936799999,061221,,E,A*2C
$GPGGA,080435.000,3411.520015,N,10850.420226,E,1,19,0.8,445.1,M,,M,,*44
$GPRMC,080435.000,A,3411.520015,N,10850.420226,E,2.9,88.71401552299999,061221,,E,A*2E
$GPGGA,080436.000,3411.520327,N,10850.421333,E,1,19,0.8,445.2,M,,M,,*42
$GPRMC,080436.000,A,3411.520327,N,10850.421333,E,2.9,83.554144328,061221,,E,A*16
$GPGGA,080437.000,3411.520625,N,10850.422082,E,1,19,0.8,445.1,M,,M,,*4D
$GPRMC,080437.000,A,3411.520625,N,10850.422082,E,2.9,90.451144385,061221,,E,A*1B
$GPGGA,080438.000,3411.520804,N,10850.422747,E,1,19,0.8,445.2,M,,M,,*42
$GPRMC,080438.000,A,3411.520804,N,10850.422747,E,2.8,100.124686778,061221,,E,A*26
$GPGGA,080439.000,3411.521023,N,10850.423531,E,1,19,0.8,445.2,M,,M,,*4D
$GPRMC,080439.000,A,3411.521023,N,10850.423531,E,2.7,94.32470863299999,061221,,E,A*29
$GPGGA,080440.000,3411.521107,N,10850.423987,E,1,19,0.8,445.3,M,,M,,*44
$GPRMC,080440.000,A,3411.521107,N,10850.423987,E,2.5,83.94448754,061221,,E,A*22
$GPGGA,080441.000,3411.521199,N,10850.424440,E,1,19,0.8,445.5,M,,M,,*45
$GPRMC,080441.000,A,3411.521199,N,10850.424440,E,2.4,97.22664431,061221,,E,A*20
$GPGGA,080442.000,3411.521199,N,10850.425162,E,1,19,0.8,445.6,M,,M,,*41
$GPRMC,080442.000,A,3411.521199,N,10850.425162,E,2.3,92.16098664100001,061221,,E,A*25
$GPGGA,080443.000,3411.521195,N,10850.426338,E,1,19,0.8,445.8,M,,M,,*4C
$GPRMC,080443.000,A,3411.521195,N,10850.426338,E,2.5,83.656560912,061221,,E,A*1E
$GPGGA,080444.000,3411.520934,N,10850.427057,E,1,19,0.8,445.9,M,,M,,*43
$GPRMC,080444.000,A,3411.520934,N,10850.427057,E,2.4,77.954199832,061221,,E,A*16
$GPGGA,080445.000,3411.521032,N,10850.428254,E,1,19,0.8,446.0,M,,M,,*48
$GPRMC,080445.000,A,3411.521032,N,10850.428254,E,2.5,75.586644502,061221,,E,A*1E
$GPGGA,080446.000,3411.521191,N,10850.429398,E,1,19,0.8,446.1,M,,M,,*42
$GPRMC,080446.000,A,3411.521191,N,10850.429398,E,2.6,85.40364136,061221,,E,A*22
$GPGGA,080447.000,3411.521200,N,10850.430206,E,1,19,0.8,446.1,M,,M,,*46
$GPRMC,080447.000,A,3411.521200,N,10850.430206,E,2.5,89.078959365,061221,,E,A*12
$GPGGA,080448.000,3411.521209,N,10850.431023,E,1,19,0.8,446.1,M,,M,,*44
$GPRMC,080448.000,A,3411.521209,N,10850.431023,E,2.5,88.07464150700001,061221,,E,A*28
$GPGGA,080449.000,3411.521211,N,10850.431873,E,1,19,0.8,446.1,M,,M,,*41
$GPRMC,080449.000,A,3411.521211,N,10850.431873,E,2.5,80.768476859,061221,,E,A*1E
$GPGGA,080450.000,3411.521528,N,10850.432294,E,1,19,0.8,446.4,M,,M,,*41
$GPRMC,080450.000,A,3411.521528,N,10850.432294,E,2.3,72.78505796600001,061221,,E,A*28
$GPGGA,080451.000,3411.521577,N,10850.433068,E,1,19,0.8,446.4,M,,M,,*4A
$GPRMC,080451.000,A,3411.521577,N,10850.433068,E,2.3,80.779780823,061221,,E,A*11
$GPGGA,080452.000,3411.521728,N,10850.433738,E,1,19,0.8,446.7,M,,M,,*40
$GPRMC,080452.000,A,3411.521728,N,10850.433738,E,2.2,83.976726033,061221,,E,A*1E
$GPGGA,080453.000,3411.522323,N,10850.434556,E,1,19,0.8,446.8,M,,M,,*4F
$GPRMC,080453.000,A,3411.522323,N,10850.434556,E,2.2,74.872725801,061221,,E,A*19
$GPGGA,080454.000,3411.522761,N,10850.435455,E,1,19,0.8,446.8,M,,M,,*49
$GPRMC,080454.000,A,3411.522761,N,10850.435455,E,2.2,81.93995676899999,061221,,E,A*28
$GPGGA,080455.000,3411.523407,N,10850.436719,E,1,19,0.8,446.9,M,,M,,*43
$GPRMC,080455.000,A,3411.523407,N,10850.436719,E,2.4,82.941050777,061221,,E,A*11
$GPGGA,080456.000,3411.523201,N,10850.437676,E,1,19,0.8,446.7,M,,M,,*47
$GPRMC,080456.000,A,3411.523201,N,10850.437676,E,2.3,82.621356939,061221,,E,A*14
$GPGGA,080457.000,3411.523942,N,10850.438712,E,1,19,0.8,446.5,M,,M,,*44
$GPRMC,080457.000,A,3411.523942,N,10850.438712,E,2.4,76.84252506,061221,,E,A*25
$GPGGA,080458.000,3411.524127,N,10850.439460,E,1,19,0.8,446.4,M,,M,,*41
$GPRMC,080458.000,A,3411.524127,N,10850.439460,E,2.3,74.32590085,061221,,E,A*2E
$GPGGA,080459.000,3411.524871,N,10850.440161,E,1,19,0.8,446.2,M,,M,,*46
$GPRMC,080459.000,A,3411.524871,N,10850.440161,E,2.3,77.498769643,061221,,E,A*10
$GPGGA,080500.000,3411.525169,N,10850.441104,E,1,19,0.8,446.2,M,,M,,*48
$GPRMC,080500.000,A,3411.525169,N,10850.441104,E,2.4,87.233264645,061221,,E,A*1F
$GPGGA,080501.000,3411.525325,N,10850.441885,E,1,19,0.8,446.1,M,,M,,*40
$GPRMC,080501.000,A,3411.525325,N,10850.441885,E,2.4,76.65341078,061221,,E,A*25
$GPGGA,080502.000,3411.525590,N,10850.442612,E,1,19,0.8,445.9,M,,M,,*43
$GPRMC,080502.000,A,3411.525590,N,10850.442612,E,2.3,73.605083657,061221,,E,A*19
$GPGGA,080503.000,3411.525793,N,10850.443677,E,1,19,0.8,446.0,M,,M,,*4B
$GPRMC,080503.000,A,3411.525793,N,10850.443677,E,2.4,59.981656482,061221,,E,A*13
$GPGGA,080504.000,3411.522289,N,10850.445072,E,1,19,0.8,443.4,M,,M,,*41
$GPRMC,080504.000,A,3411.522289,N,10850.445072,E,2.6,62.749467732,061221,,E,A*10
$GPGGA,080505.000,3411.522084,N,10850.445900,E,1,19,0.8,443.3,M,,M,,*44
$GPRMC,080505.000,A,3411.522084,N,10850.445900,E,2.6,52.423990605,061221,,E,A*1E
$GPGGA,080506.000,3411.521935,N,10850.446743,E,1,19,0.8,443.3,M,,M,,*4D
$GPRMC,080506.000,A,3411.521935,N,10850.446743,E,2.6,46.614511666999995,061221,,E,A*18
$GPGGA,080507.000,3411.520824,N,10850.448615,E,1,19,0.8,443.0,M,,M,,*43
$GPRMC,080507.000,A,3411.520824,N,10850.448615,E,3.1,111.244586719,061221,,E,A*2A
$GPGGA,080508.000,3411.520519,N,10850.449539,E,1,19,0.8,443.0,M,,M,,*43
$GPRMC,080508.000,A,3411.520519,N,10850.449539,E,3.0,111.316294039,061221,,E,A*2C
$GPGGA,080509.000,3411.519314,N,10850.449932,E,1,19,0.8,441.6,M,,M,,*40
$GPRMC,080509.000,A,3411.519314,N,10850.449932,E,3.1,122.88527969,061221,,E,A*1D
$GPGGA,080510.000,3411.519677,N,10850.450375,E,1,19,0.8,440.5,M,,M,,*4B
$GPRMC,080510.000,A,3411.519677,N,10850.450375,E,2.8,18.354410693,061221,,E,A*19
$GPGGA,080511.000,3411.520407,N,10850.450947,E,1,19,0.8,439.7,M,,M,,*42
$GPRMC,080511.000,A,3411.520407,N,10850.450947,E,2.4,1.287739975,061221,,E,A*28
$GPGGA,080512.000,3411.521004,N,10850.452156,E,1,19,0.8,439.2,M,,M,,*48
$GPRMC,080512.000,A,3411.521004,N,10850.452156,E,2.5,357.44440329,061221,,E,A*15
$GPGGA,080513.000,3411.520217,N,10850.452429,E,1,19,0.8,439.9,M,,M,,*4E
$GPRMC,080513.000,A,3411.520217,N,10850.452429,E,2.4,2.9013700510000002,061221,,E,A*18
$GPGGA,080514.000,3411.519304,N,10850.452387,E,1,19,0.8,440.4,M,,M,,*40
$GPRMC,080514.000,A,3411.519304,N,10850.452387,E,2.3,359.808113223,061221,,E,A*25
$GPGGA,080515.000,3411.519310,N,10850.453051,E,1,19,0.8,440.4,M,,M,,*4D
$GPRMC,080515.000,A,3411.519310,N,10850.453051,E,2.2,355.56918849199997,061221,,E,A*15
$GPGGA,080516.000,3411.516651,N,10850.454540,E,1,19,0.8,442.2,M,,M,,*47
$GPRMC,080516.000,A,3411.516651,N,10850.454540,E,3.0,126.222637964,061221,,E,A*25
$GPGGA,080517.000,3411.517856,N,10850.454918,E,1,19,0.8,443.2,M,,M,,*4E
$GPRMC,080517.000,A,3411.517856,N,10850.454918,E,2.3,2.325880076,061221,,E,A*26
$GPGGA,080518.000,3411.520445,N,10850.455076,E,1,19,0.8,445.4,M,,M,,*4B
$GPRMC,080518.000,A,3411.520445,N,10850.455076,E,3.3,38.031714714,061221,,E,A*1C
$GPGGA,080519.000,3411.522388,N,10850.453676,E,1,19,0.8,446.7,M,,M,,*4E
$GPRMC,080519.000,A,3411.522388,N,10850.453676,E,4.2,18.189000653,061221,,E,A*1F
$GPGGA,080520.000,3411.523684,N,10850.453021,E,1,19,0.8,447.3,M,,M,,*4D
$GPRMC,080520.000,A,3411.523684,N,10850.453021,E,4.1,12.520805027,061221,,E,A*1F
$GPGGA,080521.000,3411.524537,N,10850.451120,E,1,19,0.8,448.3,M,,M,,*4D
$GPRMC,080521.000,A,3411.524537,N,10850.451120,E,3.6,-1.267367039,061221,,E,A*0B
$GPGGA,080522.000,3411.525843,N,10850.451622,E,1,19,0.8,448.9,M,,M,,*4E
$GPRMC,080522.000,A,3411.525843,N,10850.451622,E,4.1,5.0819441,061221,,E,A*21
$GPGGA,080523.000,3411.526860,N,10850.451198,E,1,19,0.8,449.1,M,,M,,*42
$GPRMC,080523.000,A,3411.526860,N,10850.451198,E,3.9,-0.438795524,061221,,E,A*05
$GPGGA,080524.000,3411.527859,N,10850.451037,E,1,19,0.8,449.1,M,,M,,*4A
$GPRMC,080524.000,A,3411.527859,N,10850.451037,E,3.8,-1.681664549,061221,,E,A*09
$GPGGA,080525.000,3411.528868,N,10850.451745,E,1,19,0.8,449.5,M,,M,,*40
$GPRMC,080525.000,A,3411.528868,N,10850.451745,E,3.8,4.36672425,061221,,E,A*19
$GPGGA,080526.000,3411.529533,N,10850.452764,E,1,19,0.8,450.0,M,,M,,*4C
$GPRMC,080526.000,A,3411.529533,N,10850.452764,E,3.7,12.119901076,061221,,E,A*15
$GPGGA,080527.000,3411.530338,N,10850.452978,E,1,19,0.8,450.3,M,,M,,*48
$GPRMC,080527.000,A,3411.530338,N,10850.452978,E,3.6,11.940848997,061221,,E,A*1E
$GPGGA,080528.000,3411.530844,N,10850.453913,E,1,19,0.8,450.6,M,,M,,*4E
$GPRMC,080528.000,A,3411.530844,N,10850.453913,E,3.4,18.080820056,061221,,E,A*19
$GPGGA,080529.000,3411.531491,N,10850.452844,E,1,19,0.8,451.0,M,,M,,*4F
$GPRMC,080529.000,A,3411.531491,N,10850.452844,E,3.1,7.8738719889999995,061221,,E,A*1B
$GPGGA,080530.000,3411.531920,N,10850.450906,E,1,19,0.8,451.3,M,,M,,*46
$GPRMC,080530.000,A,3411.531920,N,10850.450906,E,2.9,9.745720418,061221,,E,A*26
$GPGGA,080531.000,3411.532916,N,10850.448844,E,1,19,0.8,451.4,M,,M,,*48
$GPRMC,080531.000,A,3411.532916,N,10850.448844,E,3.2,-24.363854475,061221,,E,A*30
$GPGGA,080532.000,3411.533650,N,10850.446204,E,1,19,0.8,451.5,M,,M,,*46
$GPRMC,080532.000,A,3411.533650,N,10850.446204,E,3.8,-39.905337193,061221,,E,A*30
$GPGGA,080533.000,3411.534304,N,10850.443713,E,1,19,0.8,452.1,M,,M,,*45
$GPRMC,080533.000,A,3411.534304,N,10850.443713,E,4.3,-48.03448733,061221,,E,A*02
$GPGGA,080534.000,3411.534725,N,10850.441342,E,1,19,0.8,452.7,M,,M,,*41
$GPRMC,080534.000,A,3411.534725,N,10850.441342,E,4.7,-54.850094737,061221,,E,A*36
$GPGGA,080535.000,3411.535732,N,10850.437584,E,1,19,0.8,452.8,M,,M,,*45
$GPRMC,080535.000,A,3411.535732,N,10850.437584,E,5.8,-60.891210961000006,061221,,E,A*3C
$GPGGA,080536.000,3411.536482,N,10850.436007,E,1,19,0.8,452.8,M,,M,,*42
$GPRMC,080536.000,A,3411.536482,N,10850.436007,E,5.7,-60.444698507,061221,,E,A*3E
$GPGGA,080537.000,3411.537237,N,10850.434958,E,1,19,0.8,452.8,M,,M,,*4B
$GPRMC,080537.000,A,3411.537237,N,10850.434958,E,5.2,-57.592709893999995,061221,,E,A*39
$GPGGA,080538.000,3411.537968,N,10850.433793,E,1,19,0.8,452.8,M,,M,,*4B
$GPRMC,080538.000,A,3411.537968,N,10850.433793,E,5.0,-56.471087382,061221,,E,A*30
$GPGGA,080539.000,3411.538680,N,10850.432986,E,1,19,0.8,452.8,M,,M,,*47
$GPRMC,080539.000,A,3411.538680,N,10850.432986,E,4.7,-54.238392158,061221,,E,A*31
$GPGGA,080540.000,3411.539440,N,10850.432069,E,1,19,0.8,452.8,M,,M,,*4E
$GPRMC,080540.000,A,3411.539440,N,10850.432069,E,4.5,-52.76674537,061221,,E,A*04
$GPGGA,080541.000,3411.540140,N,10850.430963,E,1,19,0.8,452.8,M,,M,,*45
$GPRMC,080541.000,A,3411.540140,N,10850.430963,E,4.5,-52.81632389600001,061221,,E,A*01
$GPGGA,080542.000,3411.540768,N,10850.430113,E,1,19,0.8,452.9,M,,M,,*44
$GPRMC,080542.000,A,3411.540768,N,10850.430113,E,4.3,-52.456179053999996,061221,,E,A*3D
$GPGGA,080543.000,3411.541723,N,10850.430095,E,1,19,0.8,453.2,M,,M,,*4E
$GPRMC,080543.000,A,3411.541723,N,10850.430095,E,4.1,-48.38991128,061221,,E,A*04
$GPGGA,080544.000,3411.542519,N,10850.429544,E,1,19,0.8,453.2,M,,M,,*40
$GPRMC,080544.000,A,3411.542519,N,10850.429544,E,4.0,-46.859447046999996,061221,,E,A*3A
$GPGGA,080545.000,3411.543279,N,10850.428568,E,1,19,0.8,453.2,M,,M,,*4E
$GPRMC,080545.000,A,3411.543279,N,10850.428568,E,4.0,-46.85759014,061221,,E,A*09
$GPGGA,080546.000,3411.544039,N,10850.427592,E,1,19,0.8,453.2,M,,M,,*46
$GPRMC,080546.000,A,3411.544039,N,10850.427592,E,4.0,-46.857533321000005,061221,,E,A*38
$GPGGA,080547.000,3411.544506,N,10850.429387,E,1,19,0.8,453.2,M,,M,,*42
$GPRMC,080547.000,A,3411.544506,N,10850.429387,E,3.3,-38.366927619,061221,,E,A*3A
$GPGGA,080548.000,3411.545786,N,10850.428972,E,1,19,0.8,453.2,M,,M,,*47
$GPRMC,080548.000,A,3411.545786,N,10850.428972,E,3.2,-25.661861493000004,061221,,E,A*37
$GPGGA,080549.000,3411.546658,N,10850.428744,E,1,19,0.8,453.2,M,,M,,*4C
$GPRMC,080549.000,A,3411.546658,N,10850.428744,E,3.1,-22.000610226,061221,,E,A*3D
$GPGGA,080550.000,3411.547716,N,10850.428821,E,1,19,0.8,453.2,M,,M,,*42
$GPRMC,080550.000,A,3411.547716,N,10850.428821,E,3.1,-15.357395998,061221,,E,A*30
$GPGGA,080551.000,3411.548753,N,10850.428833,E,1,19,0.8,453.2,M,,M,,*4E
$GPRMC,080551.000,A,3411.548753,N,10850.428833,E,3.2,-11.767237193,061221,,E,A*36
$GPGGA,080552.000,3411.549637,N,10850.428760,E,1,19,0.8,453.2,M,,M,,*46
$GPRMC,080552.000,A,3411.549637,N,10850.428760,E,3.2,-10.295205082,061221,,E,A*37
$GPGGA,080553.000,3411.550463,N,10850.428661,E,1,19,0.8,453.2,M,,M,,*4C
$GPRMC,080553.000,A,3411.550463,N,10850.428661,E,3.2,-9.596015556000001,061221,,E,A*0F
$GPGGA,080554.000,3411.551419,N,10850.426509,E,1,19,0.8,453.3,M,,M,,*45
$GPRMC,080554.000,A,3411.551419,N,10850.426509,E,3.2,-10.776969953,061221,,E,A*39
$GPGGA,080555.000,3411.552312,N,10850.426216,E,1,19,0.8,453.2,M,,M,,*43
$GPRMC,080555.000,A,3411.552312,N,10850.426216,E,3.2,-10.927039405999999,061221,,E,A*36
$GPGGA,080556.000,3411.553016,N,10850.426165,E,1,19,0.8,453.2,M,,M,,*41
$GPRMC,080556.000,A,3411.553016,N,10850.426165,E,3.1,-9.377223969,061221,,E,A*0E
$GPGGA,080557.000,3411.553872,N,10850.425995,E,1,19,0.8,453.2,M,,M,,*4E
$GPRMC,080557.000,A,3411.553872,N,10850.425995,E,3.1,-9.378876796,061221,,E,A*0A
$GPGGA,080558.000,3411.554621,N,10850.426170,E,1,19,0.8,453.3,M,,M,,*4F
$GPRMC,080558.000,A,3411.554621,N,10850.426170,E,3.1,-7.945820513999999,061221,,E,A*0C
$GPGGA,080559.000,3411.555261,N,10850.426663,E,1,19,0.8,453.3,M,,M,,*4A
$GPRMC,080559.000,A,3411.555261,N,10850.426663,E,2.9,-3.988479774,061221,,E,A*06
$GPGGA,080600.000,3411.555912,N,10850.427025,E,1,19,0.8,453.4,M,,M,,*48
$GPRMC,080600.000,A,3411.555912,N,10850.427025,E,2.9,11.791509800999998,061221,,E,A*10
$GPGGA,080601.000,3411.556590,N,10850.426610,E,1,19,0.8,453.6,M,,M,,*4F
$GPRMC,080601.000,A,3411.556590,N,10850.426610,E,2.8,355.70352465400003,061221,,E,A*1E
$GPGGA,080602.000,3411.557267,N,10850.426660,E,1,19,0.8,453.6,M,,M,,*45
$GPRMC,080602.000,A,3411.557267,N,10850.426660,E,2.7,347.880581057,061221,,E,A*25
$GPGGA,080603.000,3411.557938,N,10850.427122,E,1,19,0.8,453.6,M,,M,,*45
$GPRMC,080603.000,A,3411.557938,N,10850.427122,E,2.7,358.333311439,061221,,E,A*2B
$GPGGA,080604.000,3411.558656,N,10850.427157,E,1,19,0.8,453.6,M,,M,,*48
$GPRMC,080604.000,A,3411.558656,N,10850.427157,E,2.7,359.74929163300004,061221,,E,A*1B
$GPGGA,080605.000,3411.559366,N,10850.426979,E,1,19,0.8,453.7,M,,M,,*4A
$GPRMC,080605.000,A,3411.559366,N,10850.426979,E,2.7,1.957460095,061221,,E,A*21
$GPGGA,080606.000,3411.560047,N,10850.426834,E,1,19,0.8,453.7,M,,M,,*4B
$GPRMC,080606.000,A,3411.560047,N,10850.426834,E,2.6,4.364110148,061221,,E,A*2D
$GPGGA,080607.000,3411.560689,N,10850.426682,E,1,19,0.8,453.7,M,,M,,*4D
$GPRMC,080607.000,A,3411.560689,N,10850.426682,E,2.6,2.144730011,061221,,E,A*24
$GPGGA,080608.000,3411.561369,N,10850.426861,E,1,19,0.8,453.7,M,,M,,*4B
$GPRMC,080608.000,A,3411.561369,N,10850.426861,E,2.6,5.893850131000001,061221,,E,A*2D
$GPGGA,080609.000,3411.561893,N,10850.426977,E,1,19,0.8,453.7,M,,M,,*42
$GPRMC,080609.000,A,3411.561893,N,10850.426977,E,2.5,4.010049785,061221,,E,A*2D
$GPGGA,080610.000,3411.562698,N,10850.426960,E,1,19,0.8,453.7,M,,M,,*4A
$GPRMC,080610.000,A,3411.562698,N,10850.426960,E,2.5,9.301630051,061221,,E,A*2D
$GPGGA,080611.000,3411.563434,N,10850.426900,E,1,19,0.8,453.7,M,,M,,*48
$GPRMC,080611.000,A,3411.563434,N,10850.426900,E,2.5,13.198510002999999,061221,,E,A*11
$GPGGA,080612.000,3411.564214,N,10850.426956,E,1,19,0.8,453.6,M,,M,,*4A
$GPRMC,080612.000,A,3411.564214,N,10850.426956,E,2.6,354.09200980199995,061221,,E,A*19
$GPGGA,080613.000,3411.565019,N,10850.426998,E,1,19,0.8,453.6,M,,M,,*47
$GPRMC,080613.000,A,3411.565019,N,10850.426998,E,2.6,1.494470061,061221,,E,A*24
$GPGGA,080614.000,3411.565794,N,10850.426915,E,1,19,0.8,453.6,M,,M,,*47
$GPRMC,080614.000,A,3411.565794,N,10850.426915,E,2.6,4.6479002419999995,061221,,E,A*12
$GPGGA,080615.000,3411.566691,N,10850.426726,E,1,19,0.8,453.6,M,,M,,*4F
$GPRMC,080615.000,A,3411.566691,N,10850.426726,E,2.7,1.2826399590000002,061221,,E,A*13
$GPGGA,080616.000,3411.567636,N,10850.426565,E,1,19,0.8,453.6,M,,M,,*45
$GPRMC,080616.000,A,3411.567636,N,10850.426565,E,2.7,10.706029658,061221,,E,A*1B
$GPGGA,080617.000,3411.568675,N,10850.427472,E,1,19,0.8,453.4,M,,M,,*48
$GPRMC,080617.000,A,3411.568675,N,10850.427472,E,2.8,357.804326942,061221,,E,A*2E
$GPGGA,080618.000,3411.569485,N,10850.427326,E,1,19,0.8,453.4,M,,M,,*4D
$GPRMC,080618.000,A,3411.569485,N,10850.427326,E,2.8,356.81088957599997,061221,,E,A*1E
$GPGGA,080619.000,3411.570367,N,10850.427001,E,1,19,0.8,453.4,M,,M,,*49
$GPRMC,080619.000,A,3411.570367,N,10850.427001,E,2.9,353.227744975,061221,,E,A*25
$GPGGA,080620.000,3411.571269,N,10850.426750,E,1,19,0.8,453.5,M,,M,,*4E
$GPRMC,080620.000,A,3411.571269,N,10850.426750,E,2.9,-5.488717896,061221,,E,A*07
$GPGGA,080621.000,3411.572364,N,10850.426395,E,1,19,0.8,453.4,M,,M,,*4C
$GPRMC,080621.000,A,3411.572364,N,10850.426395,E,3.0,-5.821722301,061221,,E,A*00
$GPGGA,080622.000,3411.573333,N,10850.426290,E,1,19,0.8,453.4,M,,M,,*48
$GPRMC,080622.000,A,3411.573333,N,10850.426290,E,3.1,-6.238603652,061221,,E,A*05
$GPGGA,080623.000,3411.574206,N,10850.426048,E,1,19,0.8,453.4,M,,M,,*4E
$GPRMC,080623.000,A,3411.574206,N,10850.426048,E,3.1,-6.878656234,061221,,E,A*09
$GPGGA,080624.000,3411.575158,N,10850.425904,E,1,19,0.8,453.4,M,,M,,*42
$GPRMC,080624.000,A,3411.575158,N,10850.425904,E,3.2,-6.959224152999999,061221,,E,A*06
$GPGGA,080625.000,3411.576067,N,10850.425902,E,1,19,0.8,453.4,M,,M,,*4B
$GPRMC,080625.000,A,3411.576067,N,10850.425902,E,3.2,-6.581348275,061221,,E,A*0B
$GPGGA,080626.000,3411.576971,N,10850.425742,E,1,19,0.8,453.4,M,,M,,*4C
$GPRMC,080626.000,A,3411.576971,N,10850.425742,E,3.2,-6.744420071,061221,,E,A*08
$GPGGA,080627.000,3411.577882,N,10850.424914,E,1,19,0.8,453.3,M,,M,,*4A
$GPRMC,080627.000,A,3411.577882,N,10850.424914,E,3.2,-7.930361386,061221,,E,A*0C
$GPGGA,080628.000,3411.578412,N,10850.424968,E,1,19,0.8,453.3,M,,M,,*44
$GPRMC,080628.000,A,3411.578412,N,10850.424968,E,3.2,-7.644787357,061221,,E,A*0E
$GPGGA,080629.000,3411.579006,N,10850.424975,E,1,19,0.8,453.2,M,,M,,*48
$GPRMC,080629.000,A,3411.579006,N,10850.424975,E,3.1,-3.571222515,061221,,E,A*0B
$GPGGA,080630.000,3411.579877,N,10850.425016,E,1,19,0.8,453.1,M,,M,,*40
$GPRMC,080630.000,A,3411.579877,N,10850.425016,E,3.0,-3.4986186,061221,,E,A*0D
$GPGGA,080631.000,3411.580541,N,10850.424768,E,1,19,0.8,453.2,M,,M,,*43
$GPRMC,080631.000,A,3411.580541,N,10850.424768,E,3.0,-3.667342034,061221,,E,A*04
$GPGGA,080632.000,3411.581334,N,10850.424350,E,1,19,0.8,453.3,M,,M,,*4B
$GPRMC,080632.000,A,3411.581334,N,10850.424350,E,3.0,-5.006365,061221,,E,A*38
$GPGGA,080633.000,3411.582189,N,10850.424194,E,1,19,0.8,453.3,M,,M,,*47
$GPRMC,080633.000,A,3411.582189,N,10850.424194,E,3.0,-6.04973852,061221,,E,A*37
$GPGGA,080634.000,3411.582941,N,10850.424155,E,1,19,0.8,453.3,M,,M,,*41
$GPRMC,080634.000,A,3411.582941,N,10850.424155,E,2.9,-5.2695791089999995,061221,,E,A*36
$GPGGA,080635.000,3411.583662,N,10850.424045,E,1,19,0.8,453.3,M,,M,,*4F
$GPRMC,080635.000,A,3411.583662,N,10850.424045,E,2.9,341.378678023,061221,,E,A*28
$GPGGA,080636.000,3411.584427,N,10850.423961,E,1,19,0.8,453.3,M,,M,,*40
$GPRMC,080636.000,A,3411.584427,N,10850.423961,E,2.9,340.82529609,061221,,E,A*19
$GPGGA,080637.000,3411.585226,N,10850.423745,E,1,19,0.8,453.3,M,,M,,*4F
$GPRMC,080637.000,A,3411.585226,N,10850.423745,E,2.9,350.440727233,061221,,E,A*2C
$GPGGA,080638.000,3411.585999,N,10850.423565,E,1,19,0.8,453.3,M,,M,,*4F
$GPRMC,080638.000,A,3411.585999,N,10850.423565,E,2.9,343.95300367199997,061221,,E,A*15
$GPGGA,080639.000,3411.586751,N,10850.423403,E,1,19,0.8,453.3,M,,M,,*46
$GPRMC,080639.000,A,3411.586751,N,10850.423403,E,2.9,339.302491737,061221,,E,A*24
$GPGGA,080640.000,3411.587507,N,10850.423271,E,1,19,0.8,453.3,M,,M,,*4B
$GPRMC,080640.000,A,3411.587507,N,10850.423271,E,2.8,344.589304103,061221,,E,A*2D
$GPGGA,080641.000,3411.588236,N,10850.423066,E,1,19,0.8,453.3,M,,M,,*44
$GPRMC,080641.000,A,3411.588236,N,10850.423066,E,2.8,344.877756655,061221,,E,A*29
$GPGGA,080642.000,3411.582215,N,10850.425455,E,1,19,0.8,455.5,M,,M,,*4E
$GPRMC,080642.000,A,3411.582215,N,10850.425455,E,1.3,347.421646981,061221,,E,A*21
$GPGGA,080643.000,3411.582597,N,10850.425436,E,1,19,0.8,455.5,M,,M,,*47
$GPRMC,080643.000,A,3411.582597,N,10850.425436,E,1.4,347.690291984,061221,,E,A*2C
$GPGGA,080644.000,3411.582976,N,10850.425439,E,1,19,0.8,455.5,M,,M,,*4C
$GPRMC,080644.000,A,3411.582976,N,10850.425439,E,1.4,348.817655701,061221,,E,A*26
$GPGGA,080645.000,3411.583397,N,10850.425491,E,1,19,0.8,455.5,M,,M,,*4B
$GPRMC,080645.000,A,3411.583397,N,10850.425491,E,1.4,348.080022583,061221,,E,A*29
$GPGGA,080646.000,3411.586264,N,10850.435474,E,1,19,0.8,450.4,M,,M,,*4E
$GPRMC,080646.000,A,3411.586264,N,10850.435474,E,3.2,26.497754611999998,061221,,E,A*1A
$GPGGA,080647.000,3411.587567,N,10850.440853,E,1,19,0.8,448.9,M,,M,,*45
$GPRMC,080647.000,A,3411.587567,N,10850.440853,E,3.8,34.460003496999995,061221,,E,A*11
$GPGGA,080648.000,3411.590958,N,10850.440750,E,1,19,0.8,450.4,M,,M,,*44
$GPRMC,080648.000,A,3411.590958,N,10850.440750,E,5.1,19.084260931,061221,,E,A*11
$GPGGA,080649.000,3411.592364,N,10850.440676,E,1,19,0.8,450.3,M,,M,,*40
$GPRMC,080649.000,A,3411.592364,N,10850.440676,E,4.2,9.548525409,061221,,E,A*24
$GPGGA,080650.000,3411.593827,N,10850.440895,E,1,19,0.8,450.3,M,,M,,*46
$GPRMC,080650.000,A,3411.593827,N,10850.440895,E,4.4,8.617053193,061221,,E,A*2E
$GPGGA,080651.000,3411.594161,N,10850.440767,E,1,19,0.8,450.2,M,,M,,*48
$GPRMC,080651.000,A,3411.594161,N,10850.440767,E,3.2,2.643032058,061221,,E,A*2A
$GPGGA,080652.000,3411.595903,N,10850.440156,E,1,19,0.8,450.4,M,,M,,*44
$GPRMC,080652.000,A,3411.595903,N,10850.440156,E,3.5,-3.5291842460000002,061221,,E,A*37
$GPGGA,080653.000,3411.597087,N,10850.439692,E,1,19,0.8,450.5,M,,M,,*42
$GPRMC,080653.000,A,3411.597087,N,10850.439692,E,3.5,-5.090008279,061221,,E,A*0A
$GPGGA,080654.000,3411.597172,N,10850.439799,E,1,19,0.8,450.5,M,,M,,*44
$GPRMC,080654.000,A,3411.597172,N,10850.439799,E,3.0,-4.338053811,061221,,E,A*03
$GPGGA,080655.000,3411.597770,N,10850.439569,E,1,19,0.8,450.6,M,,M,,*4F
$GPRMC,080655.000,A,3411.597770,N,10850.439569,E,2.9,6.890110073,061221,,E,A*2F
$GPGGA,080656.000,3411.597928,N,10850.439159,E,1,19,0.8,450.8,M,,M,,*46
$GPRMC,080656.000,A,3411.597928,N,10850.439159,E,2.7,5.281050248000001,061221,,E,A*21
$GPGGA,080657.000,3411.598658,N,10850.438893,E,1,19,0.8,450.8,M,,M,,*4E
$GPRMC,080657.000,A,3411.598658,N,10850.438893,E,2.7,6.029930126,061221,,E,A*2F
$GPGGA,080658.000,3411.599215,N,10850.438713,E,1,19,0.8,450.8,M,,M,,*4A
$GPRMC,080658.000,A,3411.599215,N,10850.438713,E,2.6,3.71600032,061221,,E,A*1A
$GPGGA,080659.000,3411.599801,N,10850.437910,E,1,19,0.8,450.9,M,,M,,*47
$GPRMC,080659.000,A,3411.599801,N,10850.437910,E,2.5,3.862580023,061221,,E,A*24
$GPGGA,080700.000,3411.601636,N,10850.435919,E,1,19,0.8,451.0,M,,M,,*41
$GPRMC,080700.000,A,3411.601636,N,10850.435919,E,2.9,2.668319939,061221,,E,A*27
$GPGGA,080701.000,3411.602855,N,10850.434602,E,1,19,0.8,451.1,M,,M,,*4D
$GPRMC,080701.000,A,3411.602855,N,10850.434602,E,3.0,-21.425979991,061221,,E,A*3B
$GPGGA,080702.000,3411.603628,N,10850.434125,E,1,19,0.8,451.1,M,,M,,*49
$GPRMC,080702.000,A,3411.603628,N,10850.434125,E,3.0,-21.817650242,061221,,E,A*33
$GPGGA,080703.000,3411.604449,N,10850.433684,E,1,19,0.8,451.1,M,,M,,*41
$GPRMC,080703.000,A,3411.604449,N,10850.433684,E,3.1,-21.870505606,061221,,E,A*3C
$GPGGA,080704.000,3411.605355,N,10850.433180,E,1,19,0.8,451.1,M,,M,,*4E
$GPRMC,080704.000,A,3411.605355,N,10850.433180,E,3.1,-21.890926798000002,061221,,E,A*34
$GPGGA,080705.000,3411.606070,N,10850.432686,E,1,19,0.8,451.3,M,,M,,*4A
$GPRMC,080705.000,A,3411.606070,N,10850.432686,E,3.1,-22.14110937,061221,,E,A*01
$GPGGA,080706.000,3411.606641,N,10850.432035,E,1,19,0.8,451.3,M,,M,,*43
$GPRMC,080706.000,A,3411.606641,N,10850.432035,E,3.1,-23.424887083,061221,,E,A*3F
$GPGGA,080707.000,3411.607502,N,10850.431543,E,1,19,0.8,451.3,M,,M,,*40
$GPRMC,080707.000,A,3411.607502,N,10850.431543,E,3.2,-23.608161246999998,061221,,E,A*38
$GPGGA,080708.000,3411.608004,N,10850.430389,E,1,19,0.8,451.5,M,,M,,*44
$GPRMC,080708.000,A,3411.608004,N,10850.430389,E,3.2,-25.858669983000002,061221,,E,A*39
$GPGGA,080709.000,3411.608881,N,10850.430527,E,1,19,0.8,452.3,M,,M,,*47
$GPRMC,080709.000,A,3411.608881,N,10850.430527,E,3.2,-22.182714924000003,061221,,E,A*31
$GPGGA,080710.000,3411.609729,N,10850.428941,E,1,19,0.8,453.0,M,,M,,*44
$GPRMC,080710.000,A,3411.609729,N,10850.428941,E,3.3,-23.578462379,061221,,E,A*32
$GPGGA,080711.000,3411.610367,N,10850.426955,E,1,19,0.8,453.7,M,,M,,*4F
$GPRMC,080711.000,A,3411.610367,N,10850.426955,E,3.4,-27.172288524000002,061221,,E,A*3D
$GPGGA,080712.000,3411.611017,N,10850.427203,E,1,19,0.8,454.0,M,,M,,*40
$GPRMC,080712.000,A,3411.611017,N,10850.427203,E,3.2,-21.618511912,061221,,E,A*35
$GPGGA,080713.000,3411.611437,N,10850.427761,E,1,19,0.8,454.4,M,,M,,*42
$GPRMC,080713.000,A,3411.611437,N,10850.427761,E,2.8,11.472820000999999,061221,,E,A*1D
$GPGGA,080714.000,3411.612302,N,10850.427384,E,1,19,0.8,454.7,M,,M,,*4B
$GPRMC,080714.000,A,3411.612302,N,10850.427384,E,2.8,5.535550356,061221,,E,A*2A
$GPGGA,080715.000,3411.613558,N,10850.424966,E,1,19,0.8,453.8,M,,M,,*4F
$GPRMC,080715.000,A,3411.613558,N,10850.424966,E,2.9,10.214010146,061221,,E,A*15
$GPGGA,080716.000,3411.614358,N,10850.424782,E,1,19,0.8,453.7,M,,M,,*46
$GPRMC,080716.000,A,3411.614358,N,10850.424782,E,2.9,8.176420405,061221,,E,A*28
$GPGGA,080717.000,3411.615207,N,10850.424630,E,1,19,0.8,453.7,M,,M,,*45
$GPRMC,080717.000,A,3411.615207,N,10850.424630,E,2.8,4.346409712,061221,,E,A*29
$GPGGA,080718.000,3411.616102,N,10850.424584,E,1,19,0.8,453.7,M,,M,,*43
$GPRMC,080718.000,A,3411.616102,N,10850.424584,E,2.9,11.261830332,061221,,E,A*1E
$GPGGA,080719.000,3411.616938,N,10850.424217,E,1,19,0.8,453.8,M,,M,,*41
$GPRMC,080719.000,A,3411.616938,N,10850.424217,E,2.9,10.414719526,061221,,E,A*11
$GPGGA,080720.000,3411.617945,N,10850.423950,E,1,19,0.8,453.6,M,,M,,*41
$GPRMC,080720.000,A,3411.617945,N,10850.423950,E,3.0,5.030835127,061221,,E,A*25
$GPGGA,080721.000,3411.618691,N,10850.423990,E,1,19,0.8,453.7,M,,M,,*44
$GPRMC,080721.000,A,3411.618691,N,10850.423990,E,2.9,5.169590974,061221,,E,A*28
$GPGGA,080722.000,3411.619367,N,10850.424108,E,1,19,0.8,453.8,M,,M,,*4B
$GPRMC,080722.000,A,3411.619367,N,10850.424108,E,2.9,5.360219825,061221,,E,A*20
$GPGGA,080723.000,3411.620132,N,10850.424140,E,1,19,0.8,453.8,M,,M,,*4E
$GPRMC,080723.000,A,3411.620132,N,10850.424140,E,2.8,13.209320485,061221,,E,A*10
$GPGGA,080724.000,3411.620903,N,10850.424197,E,1,19,0.8,453.8,M,,M,,*49
$GPRMC,080724.000,A,3411.620903,N,10850.424197,E,2.8,9.428650226,061221,,E,A*24
$GPGGA,080725.000,3411.621633,N,10850.424209,E,1,19,0.8,453.9,M,,M,,*40
$GPRMC,080725.000,A,3411.621633,N,10850.424209,E,2.8,12.316490099000001,061221,,E,A*15
$GPGGA,080726.000,3411.622205,N,10850.423938,E,1,19,0.8,454.0,M,,M,,*41
$GPRMC,080726.000,A,3411.622205,N,10850.423938,E,2.7,10.568949468,061221,,E,A*1A
$GPGGA,080727.000,3411.622750,N,10850.423823,E,1,19,0.8,454.1,M,,M,,*4F
$GPRMC,080727.000,A,3411.622750,N,10850.423823,E,2.6,351.396817124,061221,,E,A*22
$GPGGA,080728.000,3411.623453,N,10850.423844,E,1,19,0.8,454.1,M,,M,,*40
$GPRMC,080728.000,A,3411.623453,N,10850.423844,E,2.6,348.153023646,061221,,E,A*22
$GPGGA,080729.000,3411.624042,N,10850.423890,E,1,19,0.8,454.2,M,,M,,*48
$GPRMC,080729.000,A,3411.624042,N,10850.423890,E,2.6,344.63886395599997,061221,,E,A*19
$GPGGA,080730.000,3411.624752,N,10850.423927,E,1,19,0.8,454.3,M,,M,,*4A
$GPRMC,080730.000,A,3411.624752,N,10850.423927,E,2.6,344.094962326,061221,,E,A*23
$GPGGA,080731.000,3411.625332,N,10850.423970,E,1,19,0.8,454.3,M,,M,,*4A
$GPRMC,080731.000,A,3411.625332,N,10850.423970,E,2.5,350.330487979,061221,,E,A*2E
$GPGGA,080732.000,3411.625912,N,10850.424023,E,1,19,0.8,454.4,M,,M,,*4E
$GPRMC,080732.000,A,3411.625912,N,10850.424023,E,2.5,351.779471647,061221,,E,A*2E
$GPGGA,080733.000,3411.626571,N,10850.423981,E,1,19,0.8,454.5,M,,M,,*42
$GPRMC,080733.000,A,3411.626571,N,10850.423981,E,2.5,349.020976775,061221,,E,A*2B
$GPGGA,080734.000,3411.627295,N,10850.423937,E,1,19,0.8,454.5,M,,M,,*44
$GPRMC,080734.000,A,3411.627295,N,10850.423937,E,2.5,14.242360142,061221,,E,A*1F
$GPGGA,080735.000,3411.627817,N,10850.424048,E,1,19,0.8,454.6,M,,M,,*40
$GPRMC,080735.000,A,3411.627817,N,10850.424048,E,2.4,355.144378041,061221,,E,A*21
$GPGGA,080736.000,3411.628518,N,10850.423935,E,1,19,0.8,454.7,M,,M,,*4B
$GPRMC,080736.000,A,3411.628518,N,10850.423935,E,2.4,350.63404891,061221,,E,A*13
$GPGGA,080737.000,3411.629451,N,10850.423600,E,1,19,0.8,455.1,M,,M,,*49
$GPRMC,080737.000,A,3411.629451,N,10850.423600,E,2.4,347.165952016,061221,,E,A*2E
$GPGGA,080738.000,3411.630161,N,10850.423497,E,1,19,0.8,455.1,M,,M,,*44
$GPRMC,080738.000,A,3411.630161,N,10850.423497,E,2.4,345.359175714,061221,,E,A*24
$GPGGA,080739.000,3411.630929,N,10850.423039,E,1,19,0.8,455.5,M,,M,,*45
$GPRMC,080739.000,A,3411.630929,N,10850.423039,E,2.5,346.25540582699995,061221,,E,A*17
$GPGGA,080740.000,3411.631633,N,10850.423005,E,1,19,0.8,455.5,M,,M,,*41
$GPRMC,080740.000,A,3411.631633,N,10850.423005,E,2.4,358.575591912,061221,,E,A*27
$GPGGA,080741.000,3411.632484,N,10850.422721,E,1,19,0.8,455.6,M,,M,,*4E
$GPRMC,080741.000,A,3411.632484,N,10850.422721,E,2.5,356.582870538,061221,,E,A*2A
$GPGGA,080742.000,3411.633190,N,10850.422704,E,1,19,0.8,455.7,M,,M,,*4A
$GPRMC,080742.000,A,3411.633190,N,10850.422704,E,2.5,0.540979964,061221,,E,A*2C
$GPGGA,080743.000,3411.633792,N,10850.422535,E,1,19,0.8,455.7,M,,M,,*4F
$GPRMC,080743.000,A,3411.633792,N,10850.422535,E,2.4,356.98025094900004,061221,,E,A*13
$GPGGA,080744.000,3411.634286,N,10850.422229,E,1,19,0.8,455.8,M,,M,,*4A
$GPRMC,080744.000,A,3411.634286,N,10850.422229,E,2.3,351.533311626,061221,,E,A*2B
$GPGGA,080745.000,3411.634910,N,10850.422087,E,1,19,0.8,455.9,M,,M,,*48
$GPRMC,080745.000,A,3411.634910,N,10850.422087,E,2.3,351.098337854,061221,,E,A*23
$GPGGA,080746.000,3411.635555,N,10850.421993,E,1,19,0.8,456.0,M,,M,,*42
$GPRMC,080746.000,A,3411.635555,N,10850.421993,E,2.3,352.579232166,061221,,E,A*26
$GPGGA,080747.000,3411.636282,N,10850.421877,E,1,19,0.8,456.0,M,,M,,*46
$GPRMC,080747.000,A,3411.636282,N,10850.421877,E,2.4,3.160370187,061221,,E,A*26
$GPGGA,080748.000,3411.636924,N,10850.421812,E,1,19,0.8,456.0,M,,M,,*4D
$GPRMC,080748.000,A,3411.636924,N,10850.421812,E,2.3,14.225000363,061221,,E,A*12
$GPGGA,080749.000,3411.638544,N,10850.423659,E,1,19,0.8,455.7,M,,M,,*4F
$GPRMC,080749.000,A,3411.638544,N,10850.423659,E,2.5,7.311910545,061221,,E,A*2C
$GPGGA,080750.000,3411.639217,N,10850.423695,E,1,19,0.8,455.7,M,,M,,*47
$GPRMC,080750.000,A,3411.639217,N,10850.423695,E,2.5,0.105630004,061221,,E,A*29
$GPGGA,080751.000,3411.639766,N,10850.420551,E,1,19,0.8,456.8,M,,M,,*41
$GPRMC,080751.000,A,3411.639766,N,10850.420551,E,2.5,6.441720102000001,061221,,E,A*26
$GPGGA,080752.000,3411.640143,N,10850.420416,E,1,19,0.8,456.8,M,,M,,*4F
$GPRMC,080752.000,A,3411.640143,N,10850.420416,E,2.4,359.968294821,061221,,E,A*25
$GPGGA,080753.000,3411.640536,N,10850.421268,E,1,19,0.8,457.5,M,,M,,*4A
$GPRMC,080753.000,A,3411.640536,N,10850.421268,E,2.3,354.601350675,061221,,E,A*20
$GPGGA,080754.000,3411.641104,N,10850.420912,E,1,19,0.8,458.1,M,,M,,*45
$GPRMC,080754.000,A,3411.641104,N,10850.420912,E,2.3,350.81259005699997,061221,,E,A*16
$GPGGA,080755.000,3411.641733,N,10850.420689,E,1,19,0.8,458.3,M,,M,,*49
$GPRMC,080755.000,A,3411.641733,N,10850.420689,E,2.3,350.208282232,061221,,E,A*2A
$GPGGA,080756.000,3411.642387,N,10850.420611,E,1,19,0.8,458.3,M,,M,,*43
$GPRMC,080756.000,A,3411.642387,N,10850.420611,E,2.3,0.332650013,061221,,E,A*24
$GPGGA,080757.000,3411.643266,N,10850.421198,E,1,19,0.8,457.6,M,,M,,*40
$GPRMC,080757.000,A,3411.643266,N,10850.421198,E,2.4,5.9965599560000005,061221,,E,A*1C
$GPGGA,080758.000,3411.644065,N,10850.420950,E,1,19,0.8,457.0,M,,M,,*42
$GPRMC,080758.000,A,3411.644065,N,10850.420950,E,2.5,4.815090041,061221,,E,A*28
$GPGGA,080759.000,3411.645126,N,10850.420245,E,1,19,0.8,457.5,M,,M,,*4E
$GPRMC,080759.000,A,3411.645126,N,10850.420245,E,2.6,357.755231542,061221,,E,A*23
$GPGGA,080800.000,3411.646053,N,10850.419597,E,1,19,0.8,457.7,M,,M,,*4D
$GPRMC,080800.000,A,3411.646053,N,10850.419597,E,2.7,2.449870209,061221,,E,A*29
$GPGGA,080801.000,3411.646929,N,10850.420213,E,1,19,0.8,457.3,M,,M,,*4D
$GPRMC,080801.000,A,3411.646929,N,10850.420213,E,2.8,8.986860779,061221,,E,A*25
$GPGGA,080802.000,3411.647911,N,10850.419845,E,1,19,0.8,457.0,M,,M,,*44
$GPRMC,080802.000,A,3411.647911,N,10850.419845,E,2.8,7.02143028,061221,,E,A*1E
$GPGGA,080803.000,3411.648418,N,10850.420046,E,1,19,0.8,457.2,M,,M,,*4D
$GPRMC,080803.000,A,3411.648418,N,10850.420046,E,2.7,4.419730086,061221,,E,A*21
$GPGGA,080804.000,3411.649286,N,10850.420085,E,1,19,0.8,456.9,M,,M,,*4F
$GPRMC,080804.000,A,3411.649286,N,10850.420085,E,2.8,10.394059911,061221,,E,A*1E
$GPGGA,080805.000,3411.649978,N,10850.420451,E,1,19,0.8,456.9,M,,M,,*49
$GPRMC,080805.000,A,3411.649978,N,10850.420451,E,2.7,0.756189995,061221,,E,A*2C
$GPGGA,080806.000,3411.651273,N,10850.420147,E,1,19,0.8,456.6,M,,M,,*4E
$GPRMC,080806.000,A,3411.651273,N,10850.420147,E,2.9,-3.0611561419999997,061221,,E,A*33
$GPGGA,080807.000,3411.652346,N,10850.419271,E,1,19,0.8,456.9,M,,M,,*48
$GPRMC,080807.000,A,3411.652346,N,10850.419271,E,3.1,-7.0724688989999995,061221,,E,A*32
$GPGGA,080808.000,3411.653413,N,10850.418839,E,1,19,0.8,456.9,M,,M,,*46
$GPRMC,080808.000,A,3411.653413,N,10850.418839,E,3.2,-8.32636004,061221,,E,A*35
$GPGGA,080809.000,3411.654500,N,10850.418266,E,1,19,0.8,456.5,M,,M,,*4F
$GPRMC,080809.000,A,3411.654500,N,10850.418266,E,3.2,-10.424430311,061221,,E,A*39
$GPGGA,080810.000,3411.655417,N,10850.417193,E,1,19,0.8,456.9,M,,M,,*4B
$GPRMC,080810.000,A,3411.655417,N,10850.417193,E,3.3,-14.335775737,061221,,E,A*31
$GPGGA,080811.000,3411.656689,N,10850.417387,E,1,19,0.8,456.4,M,,M,,*46
$GPRMC,080811.000,A,3411.656689,N,10850.417387,E,3.4,-12.227415291,061221,,E,A*3E
$GPGGA,080812.000,3411.657633,N,10850.417444,E,1,19,0.8,455.6,M,,M,,*4C
$GPRMC,080812.000,A,3411.657633,N,10850.417444,E,3.4,-11.497074025,061221,,E,A*35
$GPGGA,080813.000,3411.658551,N,10850.417219,E,1,19,0.8,455.6,M,,M,,*4B
$GPRMC,080813.000,A,3411.658551,N,10850.417219,E,3.4,-11.497080992999999,061221,,E,A*3C
$GPGGA,080814.000,3411.659455,N,10850.416921,E,1,19,0.8,455.6,M,,M,,*49
$GPRMC,080814.000,A,3411.659455,N,10850.416921,E,3.4,-12.137004772000001,061221,,E,A*3F
$GPGGA,080815.000,3411.660336,N,10850.416627,E,1,19,0.8,455.6,M,,M,,*49
$GPRMC,080815.000,A,3411.660336,N,10850.416627,E,3.3,-12.641881834000001,061221,,E,A*36
$GPGGA,080816.000,3411.656931,N,10850.415701,E,1,19,0.8,458.6,M,,M,,*49
$GPRMC,080816.000,A,3411.656931,N,10850.415701,E,1.9,277.161102093,061221,,E,A*2C
$GPGGA,080817.000,3411.657336,N,10850.415461,E,1,19,0.8,458.7,M,,M,,*40
$GPRMC,080817.000,A,3411.657336,N,10850.415461,E,1.8,271.651871445,061221,,E,A*25
$GPGGA,080818.000,3411.654698,N,10850.426181,E,1,19,0.8,459.5,M,,M,,*45
$GPRMC,080818.000,A,3411.654698,N,10850.426181,E,1.8,269.083310475,061221,,E,A*2C
$GPGGA,080819.000,3411.651790,N,10850.431464,E,1,19,0.8,461.3,M,,M,,*4D
$GPRMC,080819.000,A,3411.651790,N,10850.431464,E,2.9,275.488388746,061221,,E,A*2B
$GPGGA,080820.000,3411.650796,N,10850.434803,E,1,19,0.8,462.4,M,,M,,*4C
$GPRMC,080820.000,A,3411.650796,N,10850.434803,E,4.0,129.449833848,061221,,E,A*2C
$GPGGA,080821.000,3411.651603,N,10850.430195,E,1,19,0.8,464.9,M,,M,,*48
$GPRMC,080821.000,A,3411.651603,N,10850.430195,E,1.1,279.5686072,061221,,E,A*2C
$GPGGA,080822.000,3411.651445,N,10850.427121,E,1,19,0.8,467.0,M,,M,,*48
$GPRMC,080822.000,A,3411.651445,N,10850.427121,E,4.5,-96.899422696,061221,,E,A*34
$GPGGA,080823.000,3411.649804,N,10850.424614,E,1,19,0.8,469.2,M,,M,,*47
$GPRMC,080823.000,A,3411.649804,N,10850.424614,E,6.1,-108.428455539,061221,,E,A*07
$GPGGA,080824.000,3411.649673,N,10850.423004,E,1,19,0.8,468.9,M,,M,,*44
$GPRMC,080824.000,A,3411.649673,N,10850.423004,E,5.6,-100.253749801,061221,,E,A*00
$GPGGA,080825.000,3411.649869,N,10850.421915,E,1,19,0.8,468.6,M,,M,,*44
$GPRMC,080825.000,A,3411.649869,N,10850.421915,E,4.8,-95.27440215600001,061221,,E,A*0E
$GPGGA,080826.000,3411.650113,N,10850.420781,E,1,19,0.8,468.2,M,,M,,*4D
$GPRMC,080826.000,A,3411.650113,N,10850.420781,E,4.4,-92.57612475299999,061221,,E,A*06
$GPGGA,080827.000,3411.650080,N,10850.419562,E,1,19,0.8,467.5,M,,M,,*4A
$GPRMC,080827.000,A,3411.650080,N,10850.419562,E,4.4,-91.94552383,061221,,E,A*07
$GPGGA,080828.000,3411.649857,N,10850.418741,E,1,19,0.8,466.3,M,,M,,*4A
$GPRMC,080828.000,A,3411.649857,N,10850.418741,E,4.2,-92.31120821,061221,,E,A*08
$GPGGA,080829.000,3411.649979,N,10850.417731,E,1,19,0.8,466.2,M,,M,,*4F
$GPRMC,080829.000,A,3411.649979,N,10850.417731,E,3.9,-91.050860035,061221,,E,A*34
$GPGGA,080830.000,3411.650795,N,10850.416661,E,1,19,0.8,466.0,M,,M,,*44
$GPRMC,080830.000,A,3411.650795,N,10850.416661,E,3.8,-83.163045457,061221,,E,A*31
$GPGGA,080831.000,3411.651125,N,10850.415717,E,1,19,0.8,466.0,M,,M,,*4A
