     3.03           OBSERVATION DATA    M: Mixed            RINEX VERSION / TYPE
Geo++ RINEX Logger  Geo++               20210912 133453 UTC PGM / RUN BY / DATE
************************************************************COMMENT
This file was generated by the Geo++ RINEX Logger App       COMMENT
for Android devices (Version 2.1.6). If you encounter       COMMENT
any issues, please send an email to android@geopp.de        COMMENT
Filtering Mode: MORE                                        COMMENT
************************************************************COMMENT
Geo++                                                       MARKER NAME
GEODETIC                                                    MARKER TYPE
Geo++               Geo++                                   OBSERVER / AGENCY
unknown             HUAWEI              ELS-AN00            REC # / TYPE / VERS
unknown             ELS-AN00                                ANT # / TYPE
 -2417109.1409  5385916.0068  2406621.6337                  APPROX POSITION XYZ
        0.0000        0.0000        0.0000                  ANTENNA: DELTA H/E/N
G    8 C1C L1C D1C S1C C5Q L5Q D5Q S5Q                      SYS / # / OBS TYPES
R    4 C1C L1C D1C S1C                                      SYS / # / OBS TYPES
E   12 C1B L1B D1B S1B C1C L1C D1C S1C C5Q L5Q D5Q S5Q      SYS / # / OBS TYPES
C    4 C2I L2I D2I S2I                                      SYS / # / OBS TYPES
J    8 C1C L1C D1C S1C C5Q L5Q D5Q S5Q                      SYS / # / OBS TYPES
  2021     9    12    13    35   11.9979689     GPS         TIME OF FIRST OBS
 24 R01  1 R02 -4 R03  5 R04  6 R05  1 R06 -4 R07  5 R08  6 GLONASS SLOT / FRQ #
    R09 -2 R10 -5 R11  0 R12 -1 R13 -2 R14 -7 R15  0 R16 -1 GLONASS SLOT / FRQ #
    R17  4 R18 -3 R19  3 R20  2 R21  4 R22 -3 R23  3 R24  2 GLONASS SLOT / FRQ #
G L1C                                                       SYS / PHASE SHIFT
G L5Q -0.25000                                              SYS / PHASE SHIFT
R L1C                                                       SYS / PHASE SHIFT
E L1B                                                       SYS / PHASE SHIFT
E L1C +0.50000                                              SYS / PHASE SHIFT
E L5Q -0.25000                                              SYS / PHASE SHIFT
C L2I                                                       SYS / PHASE SHIFT
J L1C                                                       SYS / PHASE SHIFT
J L5Q -0.25000                                              SYS / PHASE SHIFT
 C1C    0.000 C1P    0.000 C2C    0.000 C2P    0.000        GLONASS COD/PHS/BIS
                                                            END OF HEADER
> 2021  9 12 13 35 11.9979689  0 18
C01  37325846.154   194365476.5911       -319.467          38.000  
C06  35974399.142   187328137.1361        279.670          32.000  
C09  37025269.739   192800295.986         431.644          29.000  
C16  36531614.689   190229704.394         308.171          36.000  
C25  25041590.268   130398132.118       -2118.383          25.000  
C28  25669698.637   133668857.5411       2047.880          35.000  
G03  23208432.536   121961136.1971        565.915          26.000  
G16  21209147.812   111454824.4371       1784.861          34.000  
G22  22982856.699   120775728.0831       -544.900          42.000  
G26  20146230.055   105869154.291        -732.967          45.000    20146230.355    79058135.1731       -548.189          32.000  
G32  21524928.202   113114261.7931      -2253.365          42.000    21524933.898    84468464.392       -1686.524          30.000  
J01  36134004.149   189885473.9851        123.242          35.000    36134012.244   141797626.0291         89.396          27.000  
J02  39514725.625   207651284.902        -956.797          36.000    39514739.415   155064325.224        -713.252          26.000  
J03                                                                  37235523.483   146120192.9461       -184.881          17.000  
R02  20991059.292   112012315.133       -3958.974          39.000  
R03  19195273.089   102753800.5241       -304.972          45.000  
R04  21695839.883   116180237.574        3162.908          33.000  
R14  20789487.237   110819666.5631       -187.226          32.000  
