     3.04           OBSERVATION DATA    M: Mixed            RINEX VERSION / TYPE
Higeo_Hi1105        Huawei CBG          20220209 110411 UTC PGM / RUN BY / DATE 
************************************************************COMMENT             
* If you have any problem,                                 *COMMENT             
*     please contact with LBS Technology Group, thanks.    *COMMENT             
*                                                          *COMMENT             
* Version Higeo2RinexV1.1 2020.07.21                       *COMMENT             
* Fuction:  Convert Higeo Log to Rinex file                *COMMENT             
*                                                          *COMMENT             
* Note that the verision support B1C B2A signal            *COMMENT             
*     BDS: C1D L1D D1D S1D indicate BDS B1C                *COMMENT             
*     BDS: C5D L5D D5D S5D indicate BDS B2A                *COMMENT             
*     Reference: RINEX V3.04                               *COMMENT             
*                                                          *COMMENT             
* Copyright(C) Huawei Technologies Co., Ltd. 2019 - 2020   *COMMENT             
*     All rights reserved.                                 *COMMENT             
************************************************************COMMENT             
                                                            MARKER NAME         
                                                            MARKER NUMBER       
                                                            MARKER TYPE         
                                                            OBSERVER / AGENCY   
                                                            REC # / TYPE / VERS 
                                                            ANT # / TYPE        
        0.0000        0.0000        0.0000                  APPROX POSITION XYZ 
        0.0000        0.0000        0.0000                  ANTENNA: DELTA H/E/N
G    8 C1C L1C D1C S1C C5I L5I D5I S5I                      SYS / # / OBS TYPES 
R    4 C1C L1C D1C S1C                                      SYS / # / OBS TYPES 
E    8 C1C L1C D1C S1C C5I L5I D5I S5I                      SYS / # / OBS TYPES 
J    8 C1C L1C D1C S1C C5I L5I D5I S5I                      SYS / # / OBS TYPES 
C   12 C2I L2I D2I S2I C1D L1D D1D S1D C5D L5D D5D S5D      SYS / # / OBS TYPES 
  2021    12     7     4    24    6.0000000     GPS         TIME OF FIRST OBS   
  2021    12     7     4    45   37.0000000     GPS         TIME OF LAST OBS    
G                                                           SYS / PHASE SHIFT   
R                                                           SYS / PHASE SHIFT   
E                                                           SYS / PHASE SHIFT   
J                                                           SYS / PHASE SHIFT   
C                                                           SYS / PHASE SHIFT   
  0                                                         GLONASS SLOT / FRQ #
 C1C    0.000 C1P    0.000 C2C    0.000 C2P    0.000        GLONASS COD/PHS/BIS 
                                                            END OF HEADER       
> 2021 12  7  4 24  6.0000000  0  3                     
G10  20025581.000        4906.191         481.951          20.000                                                                  
G32  21080565.055       -8724.778       -1018.587          29.000                                                                  
C21  21572928.883         668.601         119.411          26.000                                                                                                                                  
> 2021 12  7  4 24  7.0000000  0  3                     
G10  20025673.426        7438.063         481.172          24.000                                                                  
G32  21080371.575      -14075.254       -1019.302          29.000                                                                  
C21  21572953.784        1255.837         114.516          29.000                                                                                                                                  
> 2021 12  7  4 24  8.0000000  0  6                     
G10  20025757.405        9953.428         476.052          28.000                                                                  
G25  21521392.759       -8028.685       -1883.497          24.000                                                                  
G31  22083431.722      -11739.633       -2781.867          21.000                                                                  
G32  21080176.401      -19443.737       -1021.190          28.000                                                                  
R 8  20388914.826                                          22.000  
C21  21572973.232        1798.054         115.193          27.000                                                                                                                                  
> 2021 12  7  4 24  9.0000000  0  6                     
G10  20025848.914       12450.101         475.222          29.000                                                                  
G25  21521043.598      -17930.598       -1881.870          20.000                                                                  
G31  22082897.231      -26380.660       -2787.390          24.000                                                                  
G32  21079982.329      -24807.149       -1021.316          28.000                                                                  
R 8  20369845.093                                          23.000  
C21  21572990.674        2353.516         102.051          28.000                                                                                                                                  
> 2021 12  7  4 24 10.0000000  0  7                     
G10  20025942.509       14953.014         476.937          29.000                                                                  
G21  24768702.616       -5775.852        -718.472          18.000                                                                  
G25  21520683.827      -27826.459       -1882.642          17.000                                                                  
G31  22082376.141      -41035.991       -2789.430          29.000                                                                  
G32  21079787.321      -30189.151       -1025.160          30.000                                                                  
R 8  20369470.411                                          22.000  
C21  21573009.005        2877.213          98.569          27.000                                                                                                                                  
> 2021 12  7  4 24 11.0000000  0  8                     
G10  20026032.823       17447.083         474.042          30.000                                                                  
G21  24814435.359       -9560.764        -720.943          18.000                                                                  
G25  21520325.417      -37725.238       -1884.310          16.000                                                                  
G31  22081845.083      -55702.332       -2791.542          30.000                                                                  
G32  21079592.951      -35580.229       -1023.936          30.000                                                                  
R 8  20369102.325                                          25.000  
R 9  20373229.480                                          19.000  
C21  21573027.625        3387.942          96.240          29.000                                                                                                                                  
> 2021 12  7  4 24 12.0000000  0  8                     
G10  20026127.342       19935.283         472.181          32.000                                                                  
G21  24814298.318      -13345.548        -720.906          18.000                                                                  
G25  21519973.585      -47648.122       -1888.511          20.000                                                                  
G31  22081312.991      -70373.389       -2792.852          28.000                                                                  
G32  21079400.735      -40972.027       -1027.534          35.000                                                                  
R 8  20368733.289                                          29.000  
R 9  20381902.199                                          20.000  
C21  21573046.288        3880.229          94.063          30.000                                                                                                                                  
> 2021 12  7  4 24 13.0000000  0  8                     
G10  20026218.424       22418.677         470.683          29.000                                                                  
G21  24814107.779      -17146.910        -727.090          22.000                                                                  
G25  21519624.546      -57578.089       -1891.726          20.000                                                                  
G31  22080781.436      -85048.827       -2795.199          25.000                                                                  
G32  21079207.464      -46374.189       -1028.059          35.000                                                                  
R 8  20368365.919                                          29.000  
R 9  20382355.111                                          20.000  
C21  21573064.724        4373.101          94.016          27.000                                                                                                                                  
> 2021 12  7  4 24 14.0000000  0  7                     
G10  20026307.160       24885.246         469.967          28.000                                                                  
G21  24813967.466      -20960.201        -725.503          21.000                                                                  
G25  21519259.898      -67516.070       -1892.326          20.000                                                                  
G31  22080249.545      -99735.695       -2792.386          19.000                                                                  
G32  21079010.686      -51786.527       -1031.609          33.000                                                                  
R 8  20368000.808                                          29.000  
C21  21573081.764        4849.198          89.454          26.000                                                                                                                                  
> 2021 12  7  4 24 15.0000000  0  7                     
G10  20026398.486       27358.693         468.472          27.000                                                                  
G21  24813829.560      -24774.981        -726.706          22.000                                                                  
G25  21518898.696      -77460.619       -1892.719          22.000    21518893.890      -18279.587       -1400.810          19.000  
G31  22079717.244     -114422.652       -2794.711          22.000                                                                  
G32  21078813.079      -57202.760       -1032.059          34.000                                                                  
R 8  20367635.243                                          30.000  
C21  21573099.171        5317.902          91.293          27.000                                                                                                                                  
> 2021 12  7  4 24 16.0000000  0  8                     
G10  20026559.133       31824.698         466.734          27.000                                                                  
G21  24813563.745      -31714.577        -725.402          20.000                                                                  
G25  21518241.014      -95558.416       -1895.373          24.000    21518238.608      -28348.957       -1416.193          23.000  
G31  22078749.800     -141133.543       -2796.521          18.000                                                                  
G32  21078457.233      -67076.145       -1034.259          33.000                                                                  
R 8  20366968.165                                          25.000  
C13  37135675.146        9243.585        1699.118          27.000                                                                                                                                  
C21  21573131.602        6180.943          90.911          28.000                                                                                                                                  
> 2021 12  7  4 24 17.0000000  0  9                     
G10  20026646.620       34280.003         467.419          26.000                                                                  
G21  24813422.686      -35536.631        -727.768          20.000                                                                  
G25  21517879.279     -105517.969       -1893.946          19.000    21517877.667      -33906.319       -1416.411          23.000  
G31  22078218.475     -155838.040       -2797.720          28.000                                                                  
G32  21078260.488      -72517.379       -1036.280          35.000                                                                  
R 8  20366600.332                                          27.000  
C 6  36111194.379        1420.811         186.209          24.000                                                                                                                                  
C13  37136001.133       18092.358        1700.594          30.000                                                                                                                                  
C21  21573148.694        6646.804          87.669          27.000                                                                                                                                  
> 2021 12  7  4 24 18.0000000  0 12                     
G10  20026733.784       36733.323         465.783          29.000                                                                  
G21  24813287.608      -39359.308        -726.733          19.000                                                                  
G25  21517517.091     -115475.238       -1894.858          19.000    21517517.459      -39464.161       -1416.188          19.000  
G31  22077685.873     -170547.458       -2800.897          28.000                                                                  
G32  21078065.996      -77960.175       -1037.043          32.000                                                                  
R 8  20366233.074                                          20.000  
R 9  20384979.741                                          20.000  
C 6  36111233.142        2383.547         182.992          26.000                                                                                                                                  
C 8  37645857.291       14995.550        1863.058          20.000                                                                                                                                  
C 9  36648935.852        1192.322         145.378          23.000                                                                                                                                  
C13  37136327.351       26936.364        1696.675          25.000                                                                                                                                  
C21  21573165.490        7104.987          87.870          30.000                                                                                                                                  
> 2021 12  7  4 24 19.0000000  0 13                     
G10  20026821.821       39180.844         467.232          29.000                                                                  
G21  24813149.275      -43180.498        -729.035          15.000                                                                  
G25  21517154.929     -125446.911       -1897.847          27.000    21517157.269      -45016.041       -1412.979          17.000  
G31  22077150.091     -185272.159       -2801.920          30.000                                                                  
G32  21077866.782      -83420.046       -1038.095          30.000                                                                  
R 8  20365864.604                                          19.000  
R 9  20385434.512                                          23.000  
E 9  23993814.081      -21161.000        -878.531          26.000                                                                  
C 6  36111271.985        3332.446         182.250          23.000                                                                                                                                  
C 8  37646206.148       24690.795        1863.425          17.000                                                                                                                                  
C 9  36648965.012        1958.377         147.614          18.000                                                                                                                                  
C13  37136653.160       35772.472        1696.973          19.000                                                                                                                                  
C21  21573182.286        7557.162          84.558          29.000                                                                                                                                  
> 2021 12  7  4 24 20.0000000  0 14                     
G10  20026909.508       41628.665         464.053          32.000                                                                  
G21  24813010.354      -47018.365        -733.825          17.000                                                                  
G25  21516791.310     -135423.800       -1899.014          30.000    21516796.879      -50565.207       -1419.474          20.000  
G31  22076615.023     -199999.142       -2803.604          30.000                                                                  
G32  21077669.323      -88869.465       -1036.319          21.000                                                                  
R 8  20365494.337                                          17.000  
R 9  20385898.349                                          18.000  
E 9  23993648.321      -25768.788        -877.622          22.000                                                                  
E36  26096812.409        3982.620        1636.499          20.000                                                                  
C 6  36111305.732        4277.579         181.616          22.000                                                                                                                                  
C 8  37646563.381       34376.962        1859.221          20.000                                                                                                                                  
C 9  36648993.990        2732.493         149.160          17.000                                                                                                                                  
C13  37136978.724       44599.704        1693.766          21.000                                                                                                                                  
C21  21573198.562        8001.851          84.913          26.000                                                                                                                                  
> 2021 12  7  4 24 21.0000000  0 13                     
G10  20026997.798       44067.794         463.632          32.000    20027000.617        1763.944         348.364          21.000  
G21  24812876.750      -50866.217           0.014          14.000                                                                  
G25  21516428.145     -145408.475       -1899.030          34.000    21516431.942      -56133.419       -1419.050          28.000  
G31  22076080.541     -214738.178       -2805.412          24.000                                                                  
G32  21077473.426      -94322.811       -1039.128          30.000                                                                  
R 8  20365125.186                                          18.000  
R 9  20386357.256                                          20.000  
E 9  23993481.715      -30388.703        -879.953          25.000                                                                  
C 6  36111341.466        5216.021         178.006          23.000                                                                                                                                  
C 8  37646919.427       44045.270        1855.847          20.000                                                                                                                                  
C 9  36649023.263        3496.253         145.121          22.000                                                                                                                                  
C13  37137303.869       53420.637        1694.023          23.000                                                                                                                                  
C21  21573215.192        8446.555          84.699          28.000                                                                                                                                  
> 2021 12  7  4 24 22.0000000  0 16                     
G10  20027088.182       46496.507         461.168          34.000    20027089.187        3121.091         345.692          21.000  
G21  24812737.524      -54711.868           0.014          17.000                                                                  
G25  21516065.032     -155398.208       -1900.790          33.000    21516070.190      -61705.166       -1419.870          27.000  
G31  22075544.183     -229486.882       -2806.804          25.000                                                                  
G32  21077275.139      -99797.602       -1043.931          24.000                                                                  
R 8  20364756.481                                          17.000  
R 9  20386828.167                                          25.000  
E 9  23993314.891      -35016.603        -881.276          26.000                                                                  
E36                                                                  26187490.573        7406.220        1218.311          22.000  
C 3  36973831.992         658.871         120.375          32.000                                                                                                                                  
C 6  36111375.004        6141.344         177.818          23.000                                                                                                                                  
C 8  37647273.921       53707.238        1854.548          19.000                                                                                                                                  
C 9  36649050.574        4244.098         140.945          22.000                                                                                                                                  
C13  37137629.542       62240.490        1694.428          20.000                                                                                                                                  
C21  21573231.717        8880.371          84.508          25.000                                                                    21573229.516         749.561          64.766          18.000  
C26  22315427.098       -9404.422       -2000.255          29.000                                                                                                                                  
> 2021 12  7  4 24 23.0000000  0 17                     
G10  20027175.573       48923.918         460.611          32.000    20027176.761        4475.737         345.680          22.000  
G21  24812600.452      -58566.890        -732.714          17.000                                                                  
G25  21515700.829     -165389.513       -1901.018          34.000    21515708.264      -67278.321       -1420.736          30.000  
G31  22075012.021     -244229.619       -2804.650          23.000                                                                  
G32  21077074.687     -105281.942       -1043.761          27.000                                                                  
R 8  20364386.257                                          18.000  
R 9  20387289.247                                          22.000  
E 9  23993147.919      -39652.430        -882.887          24.000                                                                  
E24  27048226.528      -13193.532       -3036.717          22.000                                                                  
E36  26097748.884        9330.711        1633.827          20.000    26097761.258       12187.323        1218.526          25.000  
C 3  36973855.729        1288.591         123.015          30.000                                                                                                                                  
C 6  36111408.559        7060.181         176.129          22.000                                                                                                                                  
C 8  37647633.430       63365.684        1854.391          20.000                                                                                                                                  
C 9  36649076.619        4968.441         137.999          22.000                                                                                                                                  
C13  37137954.818       71055.327        1691.724          25.000                                                                                                                                  
C21  21573248.330        9315.434          82.184          27.000                                                                    21573244.637         994.479          62.088          19.000  
C26  22315042.574      -19827.070       -2001.943          30.000                                                                                                                                  
> 2021 12  7  4 24 24.0000000  0 18                     
G10  20027265.502       51343.075         461.412          33.000    20027264.980        5827.692         344.878          22.000  
G12  22134415.848         140.957         -15.429          18.000                                                                  
G21  24812462.381      -62422.449        -733.870          20.000                                                                  
G25  21515338.501     -175394.809       -1905.061          32.000    21515346.163      -72854.786       -1420.431          29.000  
G31  22074480.780     -258974.256       -2806.585          27.000                                                                  
G32  21076873.414     -110770.276       -1043.628          23.000                                                                  
R 8  20364018.520                                          18.000  
R 9  20387747.595                                          21.000  
E 4  24340184.667        7292.232         982.685          16.000                                                                  
E 9  23992981.077      -44294.737        -884.057          25.000                                                                  
E24  27047646.073      -29156.260       -3037.530          22.000                                                                  
E36  26098057.151       17913.852        1632.093          17.000    26098071.741       16966.107        1218.084          25.000  
C 3  36973880.481        1910.971         121.521          31.000                                                                                                                                  
C 8  37647989.433       73026.510        1856.090          20.000                                                                                                                                  
C 9  36649103.485        5686.540         137.899          20.000                                                                                                                                  
C13  37138279.501       79867.496        1692.155          22.000                                                                                                                                  
C21  21573264.035        9739.153          80.981          22.000                                                                    21573260.447        1234.497          61.294          20.000  
C26  22314657.894      -30250.128       -2004.266          27.000                                                                                                                                  
> 2021 12  7  4 24 25.0000000  0 19                     
G10  20027353.941       53764.952         460.496          34.000    20027352.756        7177.660         343.264          22.000  
G12  22134412.733          54.657         -13.525          17.000                                                                  
G21  24812325.615      -66276.879        -734.249          18.000                                                                  
G25  21514975.641     -185400.314       -1902.617          33.000    21514983.923      -78433.512       -1421.127          29.000  
G31  22073950.006     -273724.215       -2807.197          29.000                                                                  
G32  21076673.599     -116258.455       -1044.049          27.000                                                                  
R 8  20363647.022                                          20.000  
R 9  20388221.046                                          21.000  
E 9  23992812.308      -48944.339        -885.322          23.000                                                                  
E24  27047070.268      -45128.592       -3041.909          18.000                                                                  
E36                                                                  26188422.232       21741.898        1217.400          24.000  
C 3  36973905.833        2570.029         135.342          30.000                                                                                                                                  
C 6  36111471.803        1211.851         173.373          22.000                                                                                                                                  
C 8  37648343.866       82686.056        1854.204          21.000                                                                                                                                  
C 9  36649129.774        6399.795         134.553          24.000                                                                                                                                  
C13  37138604.052       88666.912        1687.721          20.000                                                                                                                                  
C21  21573280.814       10160.155          79.775          25.000                                                                    21573275.785        1472.943          60.940          17.000  
C22  24178375.838       18184.845        2333.116          17.000                                                                                                                                  
C26  22314273.204      -40683.803       -2003.515          27.000                                                                                                                                  
> 2021 12  7  4 24 26.0000000  0 20                     
G10  20027440.032       56188.195         462.668          27.000    20027440.155        8527.906         344.813          19.000  
G12  22134401.465         -42.694         -17.749          17.000                                                                  
G21  24812185.825      -70138.122        -735.702          17.000                                                                  
G25  21514612.196     -195404.955       -1905.504          30.000    21514621.542      -84013.297       -1422.344          29.000  
G31  22073415.279     -288476.759       -2808.704          26.000                                                                  
G32  21076474.151     -121751.921       -1044.786          25.000    21076471.474       -3786.925        -783.267          23.000  
R 8  20363276.702                                          22.000  
R 9  20388681.934                                          20.000  
E 9  23992644.349      -53601.427        -884.345          19.000                                                                  
E24  27046492.439      -61105.703       -3039.620          20.000                                                                  
E36  26098681.590       11268.345        1628.793          20.000    26098692.141       26511.965        1214.631          25.000  
J 2  38059360.849       30794.414         299.966          29.000                                                                  
C 3  36973933.183        3304.825         139.775          23.000                                                                                                                                  
C 6  36111504.826        2105.749         171.862          19.000                                                                                                                                  
C 8  37648701.046       92332.743        1851.169          24.000                                                                                                                                  
C 9  36649155.436        7090.386         132.022          26.000                                                                                                                                  
C13  37138927.667       97447.698        1685.391          21.000                                                                                                                                  
C21  21573296.929       10582.572          81.481          23.000                                                                    21573289.606        1712.420          61.699          19.000  
C22  24178823.540       30323.746        2329.520          13.000                                                                                                                                  
C26  22313889.326      -51117.321       -2004.142          32.000                                                                                                                                  
> 2021 12  7  4 24 27.0000000  0 21                     
G10  20027526.820       58603.513         458.414          27.000    20027527.651        9874.665         342.156          22.000  
G12  22134398.145        -136.100         -21.654          14.000                                                                  
G21  24812052.029      -74005.945        -736.292          17.000                                                                  
G25  21514249.738     -205416.113       -1905.565          33.000    21514258.831      -89599.066       -1423.122          27.000  
G31  22072880.085     -303241.510       -2809.833          26.000                                                                  
G32  21076274.764     -127245.435       -1048.678          26.000    21076272.619       -6858.984        -783.240          20.000  
R 8  20362914.846                                          19.000  
R 9  20389136.643                                          22.000  
E 4  24340744.845       22795.408         977.464          15.000                                                                  
E 9  23992476.042      -58247.802        -886.160          19.000                                                                  
E24  27045913.773      -77084.463       -3041.514          22.000                                                                  
E36  26098996.706       19821.927        1625.936          17.000    26099002.283       31284.036        1215.763          27.000  
J 2  38059416.393       32355.086         294.887          30.000                                                                  
C 3  36973957.367        3992.730         140.875          26.000                                                                                                                                  
C 6  36111536.566        2988.877         165.752          18.000                                                                                                                                  
C 8  37649056.683      101971.037        1850.767          21.000                                                                                                                                  
C 9  36649180.626        7777.359         132.103          21.000                                                                                                                                  
C13  37139251.582      106227.335        1688.888          17.000                                                                                                                                  
C21  21573312.163       10997.591          78.571          23.000                                                                    21573299.500        1943.003          59.115          18.000  
C22  24179266.383       42439.271        2327.114          16.000                                                                                                                                  
C26  22313504.688      -61564.838       -2007.123          29.000                                                                                                                                  
> 2021 12  7  4 24 28.0000000  0 20                     
G10  20027613.043       61009.247         457.560          28.000    20027615.077       11213.850         342.328          19.000  
G12  22134393.451        -247.649          -0.013          13.000                                                                  
G21  24811912.035      -77873.209        -735.311          16.000                                                                  
G25  21513887.611     -215431.504       -1906.226          33.000    21513896.084      -95185.595       -1422.956          29.000  
G31  22072345.978     -318013.719       -2813.150          30.000                                                                  
G32  21076074.775     -132757.261       -1047.859          19.000    21076074.166       -9933.213        -783.843          19.000  
R 8  20362543.968                                          19.000  
R 9  20389595.672                                          20.000  
E 4  24340931.091       27936.329         976.963          17.000                                                                  
E24  27045335.394      -93075.823       -3043.721          24.000                                                                  
E36  26099305.863       28358.413        1623.770          19.000    26099312.007       36050.556        1214.395          26.000  
J 2  38059473.874       33913.278         296.653          30.000                                                                  
C 3  36973982.204        4652.200         115.973          27.000                                                                                                                                  
C 6  36111568.481        3852.926         167.064          21.000                                                                                                                                  
C 8  37649411.901      111601.863        1848.795          23.000                                                                                                                                  
C 9  36649206.314        8467.460          -0.046          18.000                                                                                                                                  
C13  37139575.710      115014.523        1687.092          18.000                                                                                                                                  
C21  21573326.882       11404.743          76.590          22.000                                                                    21573316.252        2173.395          57.656          17.000  
C22  24179713.153       54552.964        2328.249          17.000                                                                                                                                  
C26  22313120.164      -72014.131       -2005.446          32.000                                                                                                                                  
> 2021 12  7  4 24 29.0000000  0 21                     
G10  20027701.856       63422.513         458.064          29.000    20027701.831       12553.523         339.052          21.000  
G12  22134389.722        -352.283          -0.013          17.000                                                                  
G21  24811771.992      -81742.711        -737.323          14.000                                                                  
G25  21513524.236     -225454.415       -1907.452          33.000    21513533.190     -100773.513       -1424.367          28.000  
G31  22071810.710     -332799.291       -2812.879          27.000                                                                  
G32  21075875.806     -138252.926       -1047.959          16.000    21075874.953      -13005.188        -784.134          16.000  
R 8  20362173.700                                          17.000  
R 9  20390053.593                                          17.000  
E 4  24341113.324       33063.380         975.461          13.000                                                                  
E 9  23992139.000      -67573.135        -889.405          22.000                                                                  
E24  27044756.024     -109074.107       -3044.949          24.000                                                                  
E36  26099617.725       36897.142        1627.723          17.000    26099621.496       40813.283        1214.376          25.000  
J 2  38059529.732       35465.491         292.314          33.000                                                                  
C 3  36974001.842        5203.811         114.223          25.000                                                                                                                                  
C 6  36111604.328        4725.065         166.934          17.000                                                                                                                                  
C 8  37649766.525      121226.373        1847.493          24.000                                                                                                                                  
C 9  36649231.715        9151.339         132.836          18.000                                                                                                                                  
C13  37139905.182      123789.508        1683.922          22.000                                                                                                                                  
C21  21573340.502       11802.189          75.184          24.000                                                                    21573331.722        2401.691          59.229          17.000  
C22  24180159.014       66658.537        2320.868          18.000                                                                                                                                  
C26  22312734.671      -82464.118       -2006.942          33.000                                                                                                                                  
> 2021 12  7  4 24 30.0000000  0 20                     
G10  20027789.613       65822.667         455.622          28.000    20027788.628       13886.111         339.931          18.000  
G12  22134381.572        -476.282         -23.151          17.000                                                                  
G21  24811628.202      -85614.747           0.014          17.000                                                                  
G25  21513162.301     -235474.774       -1905.527          33.000    21513170.147     -106365.284       -1423.569          28.000  
G31  22071274.443     -347576.478       -2811.949          29.000                                                                  
G32  21075688.722     -143761.010       -1049.435          17.000    21075675.374      -16083.034        -782.097          14.000  
R 8  20361802.578                                          18.000  
R 9  20390510.902                                          18.000  
E 4  24341298.788       38185.237         973.805          13.000                                                                  
E 9  23991971.155      -72265.894        -895.660          18.000                                                                  
E24  27044176.345     -125080.475       -3046.416          23.000                                                                  
E36  26099927.012       45438.308        1627.870          16.000    26099930.862       45574.455        1212.851          25.000  
J 2  38059586.629       37014.251         294.989          31.000                                                                  
C 3  36974022.779        5813.018         103.670          27.000                                                                                                                                  
C 6  36111638.320        5594.336         165.662          20.000                                                                                                                                  
C 8  37650120.494      130844.973        1847.400          22.000                                                                                                                                  
C 9  36649257.254        9842.616         133.078          19.000                                                                                                                                  
C13  37140226.502      132557.284        1685.011          17.000                                                                                                                                  
C21  21573354.960       12191.278          74.184          22.000                                                                    21573344.897        2635.522          60.035          17.000  
C26  22312350.059      -92917.030       -2010.313          32.000                                                                                                                                  
> 2021 12  7  4 24 31.0000000  0 20                     
G10  20027876.027       68214.123         454.713          28.000    20027874.659       15218.976         338.994          20.000  
G12  22134377.075        -601.847         -23.472          18.000                                                                  
G21  24811491.309      -89503.156        -740.320          15.000                                                                  
G25  21512800.593     -245497.201       -1910.334          33.000    21512807.069     -111956.407       -1424.876          29.000  
G31  22070738.695     -362369.399       -2815.258          28.000                                                                  
G32  21075488.916     -149280.213       -1051.592          25.000    21075475.437      -19155.842        -783.751          18.000  
R 8  20361442.457                                          17.000  
R 9  20390969.966                                          17.000  
E 4  24341483.988       43299.236         972.284          14.000                                                                  
E 9  23991801.539      -76969.383        -893.769          18.000                                                                  
E24  27043596.745     -141090.950       -3047.761          18.000                                                                  
E36  26100230.516       53994.246        1627.764          13.000    26100239.897       50330.629        1211.809          27.000  
J 2  38059640.785       38558.204         291.615          35.000                                                                  
C 3  36974041.640        6315.616          90.844          23.000                                                                                                                                  
C 6  36111670.400        6452.284         164.312          17.000                                                                                                                                  
C 8  37650474.848      140455.959        1843.562          19.000                                                                                                                                  
C 9  36649282.418       10524.716         128.977          19.000                                                                                                                                  
C13  37140549.414      141323.101        1682.319          19.000                                                                                                                                  
C21  21573369.251       12577.568          72.755          28.000                                                                    21573362.967        2867.150          60.423          19.000  
C26  22311964.907     -103378.923       -2009.537          35.000                                                                                                                                  
> 2021 12  7  4 24 32.0000000  0 22                     
G10  20027961.839       70608.034         455.273          22.000    20027961.456       16555.110         340.911          23.000  
G12  22134368.621        -726.752         -23.371          18.000                                                                  
G21  24811350.594      -93389.758        -739.981          16.000                                                                  
G25  21512436.817     -255528.062       -1908.597          33.000    21512443.746     -117550.914       -1424.940          27.000  
G31  22070202.839     -377165.701       -2816.345          24.000                                                                  
G32  21075275.228     -154825.576       -1055.980          29.000    21075277.734      -22239.984        -784.502          20.000  
R 8  20361071.300                                          18.000  
R 9  20391429.030                                          16.000  
E 4  24341668.785       48401.695         970.580          11.000                                                                  
E 9  23991632.167      -81661.733        -894.352          15.000                                                                  
E24  27043017.284     -157097.366       -3048.047          15.000                                                                  
E36  26100540.197       62545.312        1625.640          13.000    26100548.827       55086.163        1212.407          26.000  
J 1  38549935.086      -31545.367        -763.295          27.000                                                                  
J 2  38059697.970       40089.847         291.248          33.000                                                                  
C 3  36974058.564        6766.929          88.354          25.000                                                                                                                                  
C 6  36111701.974        7307.186         164.296          17.000                                                                                                                                  
C 8  37650828.924      150056.590        1843.687          19.000                                                                                                                                  
C 9  36649307.006       11195.146         127.638          20.000                                                                                                                                  
C13  37140873.049      150071.005        1677.818          17.000                                                                                                                                  
C21  21573385.550       12963.026          74.170          32.000                                                                    21573373.428        3085.863          56.647          18.000  
C22  24181526.056       25920.152        2320.286          22.000                                                                                                                                  
C26  22311579.397     -113843.005       -2011.425          34.000                                                                                                                                  
> 2021 12  7  4 24 33.0000000  0 22                     
G10  20028047.877       73002.335         454.880          24.000    20028048.262       17887.647         340.149          25.000  
G12  22134372.246        -849.137         -24.418          18.000                                                                  
G21  24811205.862      -97275.036        -740.602          16.000                                                                  
G25  21512072.526     -265570.258       -1910.337          34.000    21512080.206     -123148.972       -1426.638          29.000  
G31  22069666.306     -391959.323       -2815.071          25.000                                                                  
G32  21075076.093     -160379.642       -1055.744          27.000    21075078.398      -25313.876        -785.726          18.000  
R 8  20360699.534                                          19.000  
R 9  20391889.106                                          19.000  
E 4  24341843.951       53497.994         969.022          12.000                                                                  
E 9  23991462.882      -86360.713        -893.991          16.000                                                                  
E24  27042437.038     -173123.169       -3050.905          17.000                                                                  
E36  26100849.484       71085.774        1624.636          15.000    26100857.591       59838.712        1211.625          26.000  
J 1  38549788.879      -35558.343        -763.539          29.000                                                                  
J 2  38059750.992       41614.553         289.389          34.000                                                                  
C 3  36974076.797        7251.837         110.781          26.000                                                                                                                                  
C 6  36111732.676        8156.652         163.719          15.000                                                                                                                                  
C 8  37651182.937      159654.456        1841.963          18.000                                                                                                                                  
C 9  36649331.769       11853.603         126.742          20.000                                                                                                                                  
C13  37141195.332      158809.554        1678.469          17.000                                                                                                                                  
C21  21573400.208       13338.041          71.405          28.000                                                                    21573390.259        3306.316          55.251          18.000  
C22  24181971.111       37995.092        2318.939          20.000                                                                                                                                  
C26  22311193.948     -124319.383       -2012.505          34.000                                                                                                                                  
> 2021 12  7  4 24 34.0000000  0 23                     
G10  20028134.614       75396.591         456.109          29.000    20028134.659       19214.867         333.880          19.000  
G12  22134368.320        -975.785         -24.154          16.000                                                                  
G21  24811064.755     -101172.905        -743.074          15.000                                                                  
G25  21511710.391     -275599.861       -1910.262          27.000    21511716.788     -128746.436       -1430.033          21.000  
G31  22069128.630     -406756.308       -2816.937          32.000                                                                  
G32  21074875.842     -165915.094       -1053.442          25.000    21074876.664      -28399.103        -785.927          17.000  
R 8  20360330.828                                          19.000  
R 9  20392347.280                                          21.000  
