     3.04           OBSERVATION DATA    M: Mixed            RINEX VERSION / TYPE
Higeo_Hi1105        Huawei CBG          20220123 111837 UTC PGM / RUN BY / DATE 
************************************************************COMMENT             
* If you have any problem,                                 *COMMENT             
*     please contact with LBS Technology Group, thanks.    *COMMENT             
*                                                          *COMMENT             
* Version Higeo2RinexV1.1 2020.07.21                       *COMMENT             
* Fuction:  Convert Higeo Log to Rinex file                *COMMENT             
*                                                          *COMMENT             
* Note that the verision support B1C B2A signal            *COMMENT             
*     BDS: C1D L1D D1D S1D indicate BDS B1C                *COMMENT             
*     BDS: C5D L5D D5D S5D indicate BDS B2A                *COMMENT             
*     Reference: RINEX V3.04                               *COMMENT             
*                                                          *COMMENT             
* Copyright(C) Huawei Technologies Co., Ltd. 2019 - 2020   *COMMENT             
*     All rights reserved.                                 *COMMENT             
************************************************************COMMENT             
                                                            MARKER NAME         
                                                            MARKER NUMBER       
                                                            MARKER TYPE         
                                                            OBSERVER / AGENCY   
                                                            REC # / TYPE / VERS 
                                                            ANT # / TYPE        
        0.0000        0.0000        0.0000                  APPROX POSITION XYZ 
        0.0000        0.0000        0.0000                  ANTENNA: DELTA H/E/N
G    8 C1C L1C D1C S1C C5I L5I D5I S5I                      SYS / # / OBS TYPES 
R    4 C1C L1C D1C S1C                                      SYS / # / OBS TYPES 
E    8 C1C L1C D1C S1C C5I L5I D5I S5I                      SYS / # / OBS TYPES 
J    8 C1C L1C D1C S1C C5I L5I D5I S5I                      SYS / # / OBS TYPES 
C   12 C2I L2I D2I S2I C1D L1D D1D S1D C5D L5D D5D S5D      SYS / # / OBS TYPES 
  2022     1    20     8    44   57.0000000     GPS         TIME OF FIRST OBS   
  2022     1    20     9     8    4.0000000     GPS         TIME OF LAST OBS    
G                                                           SYS / PHASE SHIFT   
R                                                           SYS / PHASE SHIFT   
E                                                           SYS / PHASE SHIFT   
J                                                           SYS / PHASE SHIFT   
C                                                           SYS / PHASE SHIFT   
  0                                                         GLONASS SLOT / FRQ #
 C1C    0.000 C1P    0.000 C2C    0.000 C2P    0.000        GLONASS COD/PHS/BIS 
                                                            END OF HEADER       
> 2022  1 20  8 44 57.0000000  0  3                     
G 7                    -17920.575       -2270.412          34.000                                                                  
G 8                      7920.139         811.502          35.000                                                                  
C26                     -3704.941        -557.451          32.000                                                                                                                                  
> 2022  1 20  8 44 58.0000000  0  3                     
G 7                    -29864.622       -2274.018          25.000                                                                  
G 8                     12174.718         809.182          32.000                                                                  
C26                     -6620.520        -561.810          32.000                                                                                                                                  
> 2022  1 20  8 44 59.0000000  0  4                     
G 7                    -41811.098       -2274.783          25.000                                                                  
G 8                     16420.543         806.643          29.000                                                                  
G21                     -8065.239       -2085.577          28.000                                                                  
C26                     -9540.251        -559.567          35.000                                                                                                                                  
> 2022  1 20  8 45  0.0000000  0  6                     
G 4                     44778.703        3572.049          24.000                                                                  
G 7                    -53770.368       -2275.643          20.000                                                                  
G 8                     20663.610         805.612          19.000                        5126.351         602.704          30.000  
G 9                      5491.160        2187.808          18.000                                                                  
G21                    -19032.306       -2086.100          23.000                                                                  
C26                    -12461.151        -562.562          33.000                                                                                                                                  
> 2022  1 20  8 45  1.0000000  0  6                     
G 4                     63543.799        3569.744          26.000                                                                  
G 7                    -65726.250       -2275.132          19.000                                                                  
G 8                     24908.739         806.582          27.000                        7489.588         601.193          26.000  
G 9                     16977.952        2184.840          24.000                                                                  
G21                    -29987.144       -2084.671          23.000                                                                  
C26                    -15388.563        -562.492          33.000                                                                                                                                  
> 2022  1 20  8 45  2.0000000  0  6                     
G 4                     82304.801        3568.626          32.000                                                                  
G 7                    -77690.014       -2276.012          25.000                                                                  
G 8                     29147.264         805.801          39.000                        9846.993         601.466          17.000  
G 9                     28459.600        2184.533          17.000                                                                  
E24                      -145.225        -307.361          29.000                                                                  
C26                    -18318.449        -563.541          33.000                                                                                                                                  
> 2022  1 20  8 45  3.0000000  0  5                     
G 7                    -89654.064       -2276.634          20.000                                                                  
G 8                     33382.035         804.790          39.000                       12206.629         601.381          29.000  
G 9                     39944.445        2184.822          15.000                                                                  
E24                     -1748.231        -304.519          30.000                                                                  
C26                    -21250.551        -564.482          36.000                                                                                                                                  
> 2022  1 20  8 45  4.0000000  0  8                     
G 7                   -101622.080       -2277.571          23.000                                                                  
G 8                     37616.467         804.217          40.000                       14564.520         601.202          23.000  
G 9                     51426.527        2183.608          26.000                                                                  
R 9                                                        25.000  
E24                     -3355.286        -305.631          37.000                                                                  
J 2                      6591.365         131.200          33.000                                                                  
J 3                     56607.731        1385.322          25.000                                                                  
C26                    -24189.040        -562.533          33.000                                                                                                                                  
> 2022  1 20  8 45  5.0000000  0 10                     
G 7                   -115755.723       -2275.432          19.000                                                                  
G 8                     42608.265         805.033          35.000                       17350.540         601.928          25.000  
G 9                     64968.931        2183.289          28.000                                                                  
R 9                                                        25.000  
E12                     -8692.286       -1141.576          22.000                                                                  
E24                     -5260.199        -307.172          33.000                                                                  
J 2                      7403.560         130.146          32.000                                                                  
J 3                     65213.575        1387.790          24.000                                                                  
C26                    -27664.265        -565.980          29.000                                                                                                                                  
C35                      3507.826         742.764          24.000                                                                                                                                  
> 2022  1 20  8 45  6.0000000  0 11                     
G 7                   -127717.514       -2277.890          18.000                                                                  
G 8                     46841.073         804.587          23.000                       19707.188         600.653          25.000  
G 9                     76432.834        2182.104          31.000                                                                  
R 9                                                        23.000  
E12                    -14702.601       -1144.233          21.000                                                                  
E24                     -6877.240        -308.142          33.000                                                                  
J 2                      8081.336         128.509          30.000                                                                  
J 3                     72503.539        1387.980          17.000                                                                  
C 5                      5944.481         837.730          27.000                                                                                                                                  
C26                    -30609.185        -564.826          31.000                                                                                                                                  
C35                      7375.085         743.423          30.000                                                                                                                                  
> 2022  1 20  8 45  7.0000000  0 10                     
G 7                   -139697.624       -2280.480          18.000                                                                  
G 8                     51067.095         806.162          23.000                       22063.529         600.979          27.000  
G 9                     87885.020        2179.285          31.000                                                                  
R 9                                                        25.000  
E12                     -4585.199       -1143.306          23.000                                                                  
E24                     -8499.915        -309.142          31.000                                                                  
J 2                      8756.436         129.444          34.000                                                                  
C 5                     10284.103         832.008          27.000                                                                                                                                  
C26                    -33560.595        -566.442          28.000                                                                                                                                  
C35                     11243.308         742.322          24.000                                                                                                                                  
> 2022  1 20  8 45  8.0000000  0 10                     
G 4                     27867.958        3568.532          27.000                                                                  
G 7                   -151701.766       -2285.316          17.000                                                                  
G 8                     55297.967         803.217          30.000                       24418.706         599.070          25.000  
G 9                     99336.142        2179.252          29.000                                                                  
R 9                                                        24.000  
E12                    -10584.531       -1140.790          18.000                                                                  
E24                    -10124.741        -309.604          28.000                                                                  
C 5                     14555.558         817.150          25.000                                                                                                                                  
C26                    -36509.327        -565.816          24.000                                                                                                                                  
C35                     15103.135         740.958          28.000                                                                                        4651.762         559.065          20.000  
> 2022  1 20  8 45 10.0000000  0 15                     
G 1                    -58812.235       -3069.381          17.000                                                                  
G 7                   -173542.031       -2279.836          18.000                                                                  
G 8                     62972.436         802.040          25.000                       28714.078         599.937          27.000  
G 9                    120188.376        2178.427          29.000                                                                  
G21                    -25470.346       -2093.431          26.000                                                                  
R 9                                                        24.000  
E12                    -21511.284       -1141.731          21.000                                                                  
E24                    -13096.522        -311.134          31.000                                                                  
J 2                     10644.511         126.353          32.000                                                                  
J 3                    100267.747        1377.323          19.000                                                                  
C 5                     22394.656         827.617          25.000                                                                                                                                  
C 9                     13223.305        1772.723          23.000                                                                                                                                  
C24                    -14903.416       -1923.646          23.000                                                                                                                                  
C26                    -41892.561        -568.234          24.000                                                                                       -2637.853        -425.059          20.000  
C35                     22117.565         739.654          30.000                                                                                        8649.903         558.285          23.000  
> 2022  1 20  8 45 12.0000000  0  1                     
G 8                                                                                      3856.112         599.422          21.000  
> 2022  1 20  8 45 13.0000000  0  3                     
G 4                     25125.835        3563.066          30.000                                                                  
G 8                      3252.594         801.988          34.000                        6209.684         602.130          20.000  
G 9                     13053.753        2181.384          26.000                                                                  
> 2022  1 20  8 45 14.0000000  0  3                     
G 4                     43841.342        3562.058          27.000                                                                  
G 8                      7472.526         802.043          32.000                                                                  
G 9                     24508.774        2178.570          25.000                                                                  
> 2022  1 20  8 45 15.0000000  0  7                     
G 4                     62557.273        3561.752          25.000                                                                  
G 7                    -15575.317       -2284.589          27.000                                                                  
G 8                     11688.729         803.585          33.000                                                                  
G 9                     35952.157           0.001          21.000                                                                  
G21                    -14905.669       -2093.119          24.000                                                                  
J 2                      3517.788         123.000          27.000                                                                  
C35                      5996.602         604.258          22.000                                                                                                                                  
> 2022  1 20  8 45 16.0000000  0  7                     
G 4                     81272.615        3561.877          25.000                                                                  
G 7                    -27586.747       -2286.198          25.000                                                                  
G 8                     15909.469         801.227          33.000                       13285.126         601.825          19.000  
G 9                     47401.718           0.001          16.000                                                                  
G21                    -25898.726       -2091.234          24.000                                                                  
J 2                      4160.704         121.200          26.000                                                                  
C35                      9132.902         602.235          20.000                                                                                                                                  
> 2022  1 20  8 45 17.0000000  0  8                     
G 4                     99988.409        3562.319          27.000                                                                  
G 7                    -39602.451       -2285.602          23.000                                                                  
G 8                     20119.764         802.616          34.000                       15640.997         601.196          19.000  
G 9                     58857.165           0.001          18.000                                                                  
G21                    -36894.003       -2093.649          24.000                                                                  
J 2                      4803.257         122.356          25.000                                                                  
C26                     -9420.307        -515.409          19.000                                                                                                                                  
C35                     12262.623         598.644          18.000                                                                                                                                  
> 2022  1 20  8 45 18.0000000  0 10                     
G 1                    -68738.524       -3071.255          17.000                                                                  
G 4                    118704.817        3560.750          28.000                                                                  
G 7                    -51612.165       -2286.646          26.000                                                                  
G 8                     24334.980         802.722          33.000                       17990.609         598.606          19.000  
G 9                     70306.067        2177.698          19.000                                                                  
G21                    -47903.331       -2095.353          22.000                                                                  
R 9                                                        26.000  
J 2                      5442.920         122.361          24.000                                                                  
C26                    -12109.484        -514.052          18.000                                                                                                                                  
C35                     15386.460         600.243          16.000                                                                                                                                  
> 2022  1 20  8 45 19.0000000  0 11                     
G 1                    -84875.240       -3071.278          17.000                                                                  
G 4                    137414.369        3558.968          24.000                                                                  
G 7                    -63627.138           0.011          25.000                                                                  
G 8                     28543.714         801.578          34.000                       20338.785         600.032          19.000  
G 9                     81753.757        2179.544          20.000                                                                  
G21                    -58920.400       -2096.510          20.000                                                                  
R 9                                                        24.000  
J 2                      6083.843         121.305          24.000                                                                  
J 3                     28397.268        1376.615          19.000                                                                  
C26                    -14801.889        -518.614          20.000                                                                                                                                  
C35                     18512.306         599.921          12.000                                                                                                                                  
> 2022  1 20  8 45 20.0000000  0 12                     
G 1                   -101002.130       -3072.521          15.000                                                                  
G 4                    156125.538        3559.746          24.000                                                                  
G 7                    -75648.333       -2286.695          25.000                                                                  
G 8                     32761.037         801.254          34.000                       22681.825         597.168          17.000  
G 9                     93207.590        2179.019          19.000                                                                  
G21                    -69926.333       -2093.639          20.000                                                                  
R 9                                                        25.000  
J 2                      6721.948         120.664          25.000                                                                  
J 3                     35637.298        1376.536          24.000                                                                  
C10                      8151.972         788.979          19.000                                                                                                                                  
C26                    -17522.490                          17.000                                                                                                                                  
C35                     21634.225                          14.000                                                                                                                                  
> 2022  1 20  8 45 22.0000000  0  1                     
G 8                      7760.005         804.775          30.000                                                                  
> 2022  1 20  8 45 23.0000000  0  3                     
G 4                     19395.683        3555.193          24.000                                                                  
G 8                     11985.203         805.224          30.000                                                                  
R 9                                                        20.000  
> 2022  1 20  8 45 24.0000000  0  5                     
G 4                     38085.570        3556.401          24.000                                                                  
G 7                     -6894.436       -2285.926          24.000                                                                  
G 8                     16208.614         803.537          32.000                                                                  
G21                     -6510.098       -2094.090          23.000                                                                  
R 9                                                        22.000  
> 2022  1 20  8 45 25.0000000  0  7                     
G 4                     56779.315        3556.575          22.000                                                                  
G 7                    -18905.529       -2285.646          26.000                                                                  
G 8                     20423.534         802.767          29.000                                                                  
G 9                     11125.205        2179.777          24.000                                                                  
G21                    -17521.090       -2095.032          28.000                                                                  
R 9                                                        27.000  
C26                     -4028.832        -430.962          20.000                                                                                                                                  
> 2022  1 20  8 45 26.0000000  0  6                     
G 4                     75480.613        3560.307          20.000                                                                  
G 7                    -30917.081       -2285.722          19.000                                                                  
G 8                     24642.836         802.785          31.000                                                                  
G 9                     22581.327        2180.119          25.000                                                                  
R 9                                                        23.000  
C26                     -6264.100        -430.347          17.000                                                                                                                                  
> 2022  1 20  8 45 27.0000000  0  6                     
G 4                     94182.996        3557.636          19.000                                                                  
G 7                    -42924.185       -2285.771          18.000                                                                  
G 8                     28863.437         802.256          30.000                                                                  
G 9                     34042.767        2181.667          22.000                                                                  
R 9                                                        20.000  
C26                     -8500.261        -430.072          15.000                                                                                                                                  
> 2022  1 20  8 45 28.0000000  0  7                     
G 4                    112884.987        3559.200          19.000                                                                  
G 7                    -54935.668           0.011          17.000                                                                  
G 8                     33081.990         802.306          29.000                                                                  
G 9                     45510.282        2183.353          20.000                                                                  
G21                    -10938.857       -2095.485          24.000                                                                  
R 9                                                        19.000  
C26                    -10738.674                          15.000                                                                                                                                  
> 2022  1 20  8 45 29.0000000  0  7                     
G 4                    131587.497        3557.108          18.000                                                                  
G 7                    -66940.941           0.011          15.000                                                                  
G 8                     37290.485         801.512          29.000                                                                  
G 9                     56956.383        2174.574          18.000                                                                  
R 9                                                        20.000  
J 2                      2283.381         117.469          21.000                                                                  
C26                    -12980.711                          14.000                                                                                                                                  
> 2022  1 20  8 45 30.0000000  0  8                     
G 4                    150283.264        3556.208          16.000                                                                  
G 7                    -78962.831           0.011          15.000                                                                  
G 8                     41514.089         806.150          29.000                                                                  
G 9                     68393.889        2176.058          16.000                                                                  
G21                    -14895.513       -2098.629          21.000                                                                  
R 9                                                        20.000  
J 2                      2894.696         114.418          23.000                                                                  
C26                    -15228.441                          11.000                                                                                                                                  
> 2022  1 20  8 45 31.0000000  0  7                     
G 4                    168966.765        3555.454          18.000                                                                  
G 7                    -90990.553           0.011          13.000                                                                  
G 8                     45740.973         802.036          28.000                       11680.724         597.078          20.000  
G 9                     79825.875        2174.045          17.000                                                                  
R 9                                                        21.000  
J 2                      3498.336         114.144          24.000                                                                  
C26                    -17481.684                          12.000                                                                                                                                  
> 2022  1 20  8 45 32.0000000  0  7                     
G 4                    187654.592        3557.154          16.000                                                                  
G 7                   -103018.785           0.011          13.000                                                                  
G 8                     49963.640         803.839          28.000                       14032.421         598.487          20.000  
G 9                     91259.112        2175.691          18.000                                                                  
R 9                                                        20.000  
J 2                      4091.543         112.260          21.000                                                                  
C26                    -19730.679                          14.000                                                                                                                                  
> 2022  1 20  8 45 33.0000000  0  7                     
G 4                    206183.419        3558.297          14.000                                                                  
G 7                   -114944.236           0.011          13.000                                                                  
G 8                     54151.375         805.429          29.000                       16370.953         598.476          22.000  
G 9                    102589.643        2176.032          19.000                                                                  
R 9                                                        20.000  
J 2                      4687.101         114.174          23.000                                                                  
C26                    -21961.486                          11.000                                                                                                                                  
> 2022  1 20  8 45 34.0000000  0  7                     
G 4                    225877.136           0.002          16.000                                                                  
G 7                   -127604.291           0.011          12.000                                                                  
G 8                     58605.788         803.340          28.000                       18852.698         601.383          21.000  
G 9                    114635.741        2177.087          20.000                                                                  
R 9                                                        20.000  
J 2                      5318.191         113.073          20.000                                                                  
C26                    -24331.537                          12.000                                                                                                                                  
> 2022  1 20  8 45 35.0000000  0  7                     
G 4                    245119.261           0.002          17.000                                                                  
G 7                   -139959.311           0.011          13.000                                                                  
G 8                     62949.284         803.030          29.000                       21276.166         600.263          22.000  
G 9                    126420.303        2180.564          21.000                                                                  
R 9                                                        20.000  
J 2                      5940.351         115.728          21.000                                                                  
C26                    -26637.310                          12.000                                                                                                                                  
> 2022  1 20  8 45 36.0000000  0  7                     
G 4                    264147.408           0.002          17.000                                                                  
G 7                   -152178.869                          13.000                                                                  
G 8                     67247.232         805.279          30.000                       23674.621         599.374          20.000  
G 9                    138073.760        2177.248          20.000                                                                  
R 9                                                        20.000  
J 2                      6552.373         113.998          23.000                                                                  
C26                    -28901.141                          12.000                                                                                                                                  
> 2022  1 20  8 45 37.0000000  0  8                     
G 4                    283145.253        3555.305          17.000                                                                  
G 7                   -164392.183                          14.000                                                                  
G 8                     71542.514         803.994          30.000                       26067.001         598.891          22.000  
G 9                    149707.914        2177.810          20.000                                                                  
G21                    -11555.970       -2094.822          23.000                                                                  
R 9                                                        18.000  
J 2                      7158.094         111.814          23.000                                                                  
C26                    -31168.584                          12.000                                                                                                                                  
> 2022  1 20  8 45 38.0000000  0  8                     
G 4                    302128.401        3555.837          17.000                                                                  
G 7                   -176599.013                          15.000                                                                  
G 8                     75847.130         806.484          30.000                       28461.766         599.300          23.000  
G 9                    161338.436        2179.866          22.000                                                                  
G21                    -22734.018       -2092.602          23.000                                                                  
R 9                                                        19.000  
J 2                      7759.653         114.088          23.000                                                                  
C26                    -33440.345                          12.000                                                                                                                                  
> 2022  1 20  8 45 39.0000000  0  5                     
G 4                    320813.246        3555.403          18.000                                                                  
G 7                   -188621.634                          15.000                                                                  
G 8                     80086.323         805.891          28.000                       30818.983         601.602          20.000  
G 9                    172799.075        2180.319          20.000                                                                  
J 2                      8352.589         110.414          20.000                                                                  
> 2022  1 20  8 45 40.0000000  0  5                     
G 4                    339491.973        3555.924          19.000                                                                  
G 7                   -200651.483                          16.000                                                                  
G 8                     84314.564         803.209          30.000                       33176.152         597.575          20.000  
G 9                    184256.442        2180.587          22.000                                                                  
J 2                      8931.127         111.205          20.000                                                                  
> 2022  1 20  8 45 41.0000000  0  5                     
G 4                    358182.250        3556.289          19.000                                                                  
G 7                   -212689.115       -2291.310          15.000                                                                  
G 8                     88533.721         805.355          30.000                       35535.080         599.456          23.000  
G 9                    195713.973        2179.318          20.000                                                                  
J 2                      9513.804         109.487          22.000                                                                  
> 2022  1 20  8 45 42.0000000  0  5                     
G 4                    376865.241        3556.394          19.000                                                                  
G 7                   -224732.653       -2292.132          15.000                                                                  
G 8                     92766.170         805.243          29.000                       37893.569         600.436          22.000  
G 9                    207170.238        2180.271          22.000                                                                  
J 2                     10088.587         110.059          22.000                                                                  
> 2022  1 20  8 45 43.0000000  0  5                     
G 4                    395544.169        3551.496          18.000                                                                  
G 7                   -236771.914                          13.000                                                                  
G 8                     97001.349         807.012          30.000                       40251.686         598.874          21.000  
G 9                    218629.815        2179.428          22.000                                                                  
J 2                     10664.024         109.901          19.000                                                                  
> 2022  1 20  8 45 44.0000000  0  5                     
G 4                    414214.521        3553.638          17.000                                                                  
G 7                   -248809.039                          13.000                                                                  
G 8                    101230.726         804.593          32.000                       42608.504         601.182          23.000  
G 9                    230085.322        2180.185          21.000                                                                  
J 2                     11246.704         110.192          23.000                                                                  
> 2022  1 20  8 45 46.0000000  0  2                     
G 8                      3738.949         803.863          31.000                                                                  
G21                     -8757.496       -2084.768          28.000                                                                  
> 2022  1 20  8 45 47.0000000  0  3                     
G 8                      8220.440         806.882          29.000                                                                  
G21                    -20356.202       -2088.648          21.000                                                                  
R 9                                                        25.000  
> 2022  1 20  8 45 48.0000000  0  2                     
G 8                     12465.689         808.365          28.000                                                                  
R 9                                                        26.000  
> 2022  1 20  8 45 49.0000000  0  7                     
G 4                     16197.463        3559.037          20.000                                                                  
G 8                     16708.759         807.287          26.000                        4285.915         602.500          20.000  
G 9                     12364.626        2182.735          21.000                                                                  
G21                     -5691.979       -2095.042          28.000                                                                  
R 9                                                        28.000  
J 2                      2259.136         107.322          33.000                                                                  
C26                     -7161.651        -531.561          20.000                                                                                                                                  
> 2022  1 20  8 45 50.0000000  0  8                     
G 4                     34893.724        3556.508          22.000                                                                  
G 8                     20951.945         808.622          31.000                        6650.978         603.040          23.000  
G 9                     23833.962        2182.240          25.000                                                                  
G21                    -16710.636       -2098.293          29.000                                                                  
R 9                                                        27.000  
J 2                      2822.249         106.240          33.000                                                                  
J 3                     27742.191        1367.071          29.000                                                                  
C26                     -9947.153        -533.508          20.000                                                                                                                                  
> 2022  1 20  8 45 51.0000000  0  8                     
G 4                     53580.951        3557.096          20.000                                                                  
G 8                     25191.331         807.131          32.000                        9018.401         602.899          20.000  
G 9                     35305.517        2183.204          23.000                                                                  
G21                    -27721.467       -2092.608          25.000                                                                  
R 9                                                        27.000  
J 2                      3389.007         108.815          31.000                                                                  
J 3                     34931.059        1365.935          27.000                                                                  
C26                    -12716.489        -530.898          20.000                                                                                                                                  
> 2022  1 20  8 45 52.0000000  0  8                     
G 4                     72281.009        3557.821          22.000                                                                  
G 8                     29442.626         807.597          33.000                       11386.180         604.825          21.000  
G 9                     46775.410           0.001          21.000                                                                  
G21                    -38712.055       -2095.031          27.000                                                                  
R 9                                                        26.000  
J 2                      3957.163         107.704          30.000                                                                  
J 3                     42116.041        1368.585          25.000                                                                  
C26                    -15489.723        -531.940          20.000                                                                                                                                  
> 2022  1 20  8 45 53.0000000  0  8                     
G 4                     90969.988           0.002          21.000                                                                  
G 8                     33686.185         806.643          33.000                       13758.226         603.333          20.000  
G 9                     58242.885        2182.277          22.000                                                                  
G21                    -49717.545       -2094.159          24.000                                                                  
R 9                                                        25.000  
J 2                      4517.025         105.773          32.000                                                                  
J 3                     49305.338        1366.416          24.000                                                                  
C26                    -18260.757        -531.636          20.000                                                                                                                                  
> 2022  1 20  8 45 54.0000000  0  9                     
G 4                    109660.438           0.002          21.000                                                                  
G 7                    -18255.224       -2288.707          22.000                                                                  
G 8                     37939.734         809.792          33.000                       16129.800         604.859          17.000  
G 9                     69709.335        2183.206          19.000                                                                  
G21                    -60733.974       -2099.849          24.000                                                                  
R 9                                                        24.000  
J 2                      5079.510         105.273          32.000                                                                  
J 3                     56488.874        1367.650          23.000                                                                  
C26                    -21036.164        -533.056          19.000                                                                                                                                  
> 2022  1 20  8 45 55.0000000  0  9                     
G 4                    128350.311        3554.672          20.000                                                                  
G 7                    -30292.000       -2291.692          26.000                                                                  
G 8                     42190.800         809.950          31.000                       18501.550         603.322          18.000  
G 9                     81189.869        2185.750          17.000                                                                  
G21                    -71750.413       -2096.111          26.000                                                                  
R 9                                                        28.000  
J 2                      5641.790         108.547          31.000                                                                  
J 3                     63675.056        1366.207          25.000                                                                  
C26                    -23820.189        -535.681          17.000                                                                                                                                  
> 2022  1 20  8 45 56.0000000  0 11                     
G 4                    147027.936           0.002          17.000                                                                  
G 7                    -42332.846       -2292.569          26.000                                                                  
G 8                     46434.232         808.607          32.000                       20868.599         603.753          18.000  
G 9                     92670.406        2184.030          15.000                                                                  
G21                    -82756.271       -2093.362          25.000                                                                  
R 9                                                        26.000  
E12                    -10554.126       -1142.402          20.000                                                                  
J 2                      6202.384         105.939          32.000                                                                  
J 3                     70850.434        1364.490          22.000                                                                  
C 1                      5596.836         806.211          27.000                                                                                                                                  
C26                    -26597.902        -532.197          17.000                                                                                                                                  
> 2022  1 20  8 45 58.0000000  0  1                     
G 8                      7080.161         811.204          32.000                                                                  
> 2022  1 20  8 45 59.0000000  0  3                     
G 7                    -12181.422       -2291.268          26.000                                                                  
G 8                     11347.189         811.847          30.000                                                                  
R 9                                                        24.000  
> 2022  1 20  8 46  0.0000000  0  3                     
G 7                    -24219.825       -2291.945          25.000                                                                  
G 8                     15609.349         812.053          35.000                                                                  
R 9                                                        23.000  
> 2022  1 20  8 46  1.0000000  0  3                     
G 7                    -36260.905           0.011          22.000                                                                  
G 8                     19874.591         810.397          30.000                                                                  
R 9                                                        23.000  
> 2022  1 20  8 46  2.0000000  0  5                     
G 7                    -48299.677           0.011          16.000                                                                  
G 8                     24131.968         808.722          29.000                                                                  
G21                     -8691.040       -2093.917          30.000                                                                  
R 9                                                        20.000  
J 2                      3543.223         104.210          17.000                                                                  
> 2022  1 20  8 46  3.0000000  0  5                     
G 7                    -60328.568           0.011          16.000                                                                  
G 8                     28397.420         812.641          29.000                                                                  
G21                    -19694.431       -2090.122          29.000                                                                  
