     3.04           OBSERVATION DATA    M: Mixed            RINEX VERSION / TYPE
Higeo_Hi1105        Huawei CBG          20220126 062256 UTC PGM / RUN BY / DATE 
************************************************************COMMENT             
* If you have any problem,                                 *COMMENT             
*     please contact with LBS Technology Group, thanks.    *COMMENT             
*                                                          *COMMENT             
* Version Higeo2RinexV1.1 2020.07.21                       *COMMENT             
* Fuction:  Convert Higeo Log to Rinex file                *COMMENT             
*                                                          *COMMENT             
* Note that the verision support B1C B2A signal            *COMMENT             
*     BDS: C1D L1D D1D S1D indicate BDS B1C                *COMMENT             
*     BDS: C5D L5D D5D S5D indicate BDS B2A                *COMMENT             
*     Reference: RINEX V3.04                               *COMMENT             
*                                                          *COMMENT             
* Copyright(C) Huawei Technologies Co., Ltd. 2019 - 2020   *COMMENT             
*     All rights reserved.                                 *COMMENT             
************************************************************COMMENT             
                                                            MARKER NAME         
                                                            MARKER NUMBER       
                                                            MARKER TYPE         
                                                            OBSERVER / AGENCY   
                                                            REC # / TYPE / VERS 
                                                            ANT # / TYPE        
        0.0000        0.0000        0.0000                  APPROX POSITION XYZ 
        0.0000        0.0000        0.0000                  ANTENNA: DELTA H/E/N
G    8 C1C L1C D1C S1C C5I L5I D5I S5I                      SYS / # / OBS TYPES 
R    4 C1C L1C D1C S1C                                      SYS / # / OBS TYPES 
E    8 C1C L1C D1C S1C C5I L5I D5I S5I                      SYS / # / OBS TYPES 
J    8 C1C L1C D1C S1C C5I L5I D5I S5I                      SYS / # / OBS TYPES 
C   12 C2I L2I D2I S2I C1D L1D D1D S1D C5D L5D D5D S5D      SYS / # / OBS TYPES 
  2022     1    25     4     2   48.0000000     GPS         TIME OF FIRST OBS   
  2022     1    25     4    17   52.0000000     GPS         TIME OF LAST OBS    
G                                                           SYS / PHASE SHIFT   
R                                                           SYS / PHASE SHIFT   
E                                                           SYS / PHASE SHIFT   
J                                                           SYS / PHASE SHIFT   
C                                                           SYS / PHASE SHIFT   
  0                                                         GLONASS SLOT / FRQ #
 C1C    0.000 C1P    0.000 C2C    0.000 C2P    0.000        GLONASS COD/PHS/BIS 
                                                            END OF HEADER       
> 2022  1 25  4  2 48.0000000  0  1                     
G32                      3813.504        1630.486          26.000                                                                  
> 2022  1 25  4  2 49.0000000  0  9                     
G 3                     -7334.482       -1131.007          35.000                                                                  
G16                    -13455.351       -3333.564          22.000                                                                  
G26                     -4254.021       -1168.572          25.000                                                                  
G29                       351.655           5.742          25.000                                                                  
G31                       917.839         182.616          33.000                                                                  
G32                     12381.059        1631.372          23.000                                                                  
J 2                      2650.910         508.908          35.000                                                                  
C24                     -4466.925        -871.887          38.000                                                                                                                                  
C33                     -7690.645       -1567.567          37.000                                                                                                                                  
> 2022  1 25  4  2 50.0000000  0  9                     
G 3                    -13279.616       -1131.213          34.000                       -4403.399        -844.864          31.000  
G16                    -30971.558       -3331.803          24.000                                                                  
G26                    -10383.079       -1162.995          31.000                                                                  
G29                       379.743           6.124          22.000                                                                  
G31                      1881.186         185.291          31.000                                                                  
G32                     20959.386        1634.686          28.000                                                                  
J 2                      5329.065         509.569          32.000                                                                  
C24                     -9006.096        -871.128          39.000                                                                                                                                  
C33                    -15841.989       -1563.952          39.000                                                                                                                                  
> 2022  1 25  4  2 51.0000000  0 11                     
G 3                    -19220.388       -1127.490          33.000                       -7716.081        -844.432          29.000  
G16                    -48476.452       -3330.350          24.000                                                                  
G26                    -16497.442       -1163.861          34.000                                                                  
G29                       418.236           7.977          21.000                                                                  
G31                      2851.130         184.928          33.000                                                                  
G32                     29558.206        1637.730          29.000                                                                  
R 2                                                        35.000  
R12                                                        33.000  
J 2                      8015.150         512.287          33.000                                                                  
C24                    -13539.884        -870.573          41.000                                                                                       -3305.952        -645.666          27.000  
C33                    -23984.581       -1563.676          38.000                                                                                                                                  
> 2022  1 25  4  2 52.0000000  0 12                     
G 3                    -25151.072       -1129.631          34.000                      -11026.093        -843.075          29.000  
G16                    -65971.268       -3328.230          22.000                                                                  
G26                    -22616.157       -1164.180          35.000                                                                  
G29                       465.987           9.652          20.000                                                                  
G31                      3820.426         185.272          33.000                                                                  
G32                     38164.113        1636.850          29.000                                                                  
R 2                                                        36.000  
R12                                                        34.000  
E 7                     -7588.850       -2669.034          34.000                                                                  
J 2                     10696.926         510.940          33.000                        3971.626         364.711          16.000  
C24                    -18071.934        -869.681          40.000                                                                                       -5874.947        -655.522          30.000  
C33                    -32122.051       -1562.574          37.000                                                                                                                                  
> 2022  1 25  4  2 53.0000000  0 12                     
G 3                    -31076.229       -1124.557          33.000                      -14332.280        -843.735          18.000  
G16                    -83463.461       -3329.944          20.000                                                                  
G26                    -28726.451       -1161.652          30.000                                                                  
G29                       520.947          11.600          19.000                                                                  
G31                      4798.300         184.740          28.000                                                                  
G32                     46760.889        1637.539          27.000                                                                  
R 2                                                        36.000  
R12                                                        34.000  
E 7                    -21608.041       -2667.413          33.000                                                                  
J 2                     13386.395         512.131          32.000                        5422.441         374.244          17.000  
C24                    -22596.293        -868.151          39.000                                                                                       -8444.538        -654.497          26.000  
C33                    -40254.493       -1560.461          35.000                                                                                                                                  
> 2022  1 25  4  2 54.0000000  0 12                     
G 3                    -36995.805       -1127.250          31.000                      -17640.937        -842.541          19.000  
G16                   -100958.063       -3328.772          17.000                                                                  
G26                    -34818.719       -1159.592          32.000                                                                  
G29                       581.198          12.091          17.000                                                                  
G31                      5775.738         187.219          32.000                                                                  
G32                     55375.447        1641.262          30.000                                                                  
R 2                                                        32.000  
R12                                                        35.000  
E 7                    -35619.638       -2665.805          31.000                                                                  
J 2                     16088.494         515.095          28.000                        6897.319         376.934          18.000  
C24                    -27112.559        -866.381          36.000                                                                                      -11009.697        -653.236          28.000  
C33                    -48376.824       -1558.776          34.000                                                                                                                                  
> 2022  1 25  4  2 55.0000000  0 13                     
G 3                    -42905.591       -1122.199          31.000                      -20939.047        -839.154          23.000  
G26                    -40911.843       -1158.473          29.000                                                                  
G29                       648.578          12.385          17.000                                                                  
G31                      6761.770         187.556          34.000                                                                  
G32                     63998.107        1641.000          27.000                                                                  
R 2                                                        30.000  
R12                                                        37.000  
E 7                    -49627.457       -2664.994          34.000                                                                  
J 2                     18784.933         512.074          31.000                        8386.344         382.034          19.000  
C14                       -65.875         -19.399          33.000                                                                                                                                  
C24                    -31626.799        -866.399          36.000                                                                                      -13572.623        -652.683          29.000  
C33                    -56492.452       -1558.521          34.000                                                                                                                                  
C35                     -9078.394       -1441.135          28.000                                                                                                                                  
> 2022  1 25  4  2 56.0000000  0 14                     
G 3                    -48803.696       -1122.836          34.000                      -24232.401        -838.769          22.000  
G26                    -46997.082       -1157.072          33.000                                                                  
G29                       714.475          12.979          20.000                                                                  
G31                      7752.202         190.063          34.000                                                                  
G32                     72618.772        1638.166          28.000                                                                  
R 2                                                        34.000  
R12                                                        36.000  
E 2                      5132.551         704.456          29.000                                                                  
E 7                    -63632.483       -2664.698          33.000                                                                  
J 2                     21477.667         512.403          30.000                        9891.730         384.462          22.000  
C14                      -181.299         -20.753          33.000                                                                                                                                  
C24                    -36135.625        -865.209          39.000                                                                                      -16133.887        -652.414          29.000  
C33                    -64603.952       -1557.242          36.000                                                                                                                                  
C35                    -16639.233       -1442.922          23.000                                                                                                                                  
> 2022  1 25  4  2 58.0000000  0 18                     
G 3                    -57173.880       -1120.203          36.000                      -28901.090        -835.743          25.000  
G16                   -160795.106       -3326.547          20.000                                                                  
G26                    -55646.809       -1155.422          29.000                       -8941.161        -852.503          18.000  
G29                       802.173          11.106          17.000                                                                  
G31                      9177.588         190.170          33.000                                                                  
G32                     84883.430        1645.503          28.000                                                                  
R 2                                                        25.000  
R 3                                                        21.000  
R12                                                        35.000  
E 2                     10357.464         699.143          26.000                                                                  
E 7                    -83518.395       -2662.423          34.000                                                                  
E30                    -26211.540       -1579.328          27.000                                                                  
J 2                     25318.264         510.300          19.000                       12044.605         387.555          20.000  
C 6                     -3280.141        -543.789          29.000                                                                                                                                  
C 9                     -4391.616        -729.686          33.000                                                                                                                                  
C14                      -314.303         -15.529          28.000                                                                                                                                  
C24                    -42531.174        -863.643          38.000                                                                                      -19764.956        -651.271          29.000  
C33                    -76106.968       -1555.948          38.000                                                                                                                                  
> 2022  1 25  4  2 59.0000000  0 20                     
G 3                    -63069.034       -1123.541          34.000                      -32188.776        -837.429          25.000  
G16                   -178257.787       -3321.064          17.000                                                                  
G26                    -61724.035       -1156.836          32.000                      -12311.892        -860.494          20.000  
G29                       865.211          13.411          20.000                                                                  
G31                     10170.198         189.374          29.000                                                                  
G32                     93523.351        1642.738          28.000                                                                  
R 2                                                        36.000  
R12                                                        30.000  
E 2                     14021.991         697.475          29.000                                                                  
E 7                    -97518.000       -2663.674          33.000                                                                  
E 8                     -3449.859        -757.439          33.000                                                                  
E30                    -34519.131       -1580.398          32.000                                                                  
J 2                     28020.733         515.764          30.000                       13555.842         386.105          21.000  
C 6                     -6109.898        -542.808          30.000                                                                                                                                  
C 9                     -8197.995        -729.093          27.000                                                                                                                                  
C14                      -402.590         -16.137          37.000                                                                                                                                  
C24                    -47034.873        -864.472          40.000                                                                                      -22322.604        -651.664          29.000  
C26                      5711.596        1048.788          31.000                                                                                                                                  
C33                    -84211.776       -1555.883          35.000                                                                                                                                  
C35                    -34616.938       -1414.817          15.000                                                                                                                                  
> 2022  1 25  4  3  0.0000000  0 20                     
G 3                    -68956.610       -1119.147          30.000                      -35472.478        -836.361          25.000  
G16                   -195722.947       -3324.152          19.000                                                                  
G26                    -67793.836       -1151.648          26.000                      -15689.152        -861.080          19.000  
G29                       942.078          -0.008          16.000                                                                  
G31                     11172.294         189.561          31.000                                                                  
G32                    102154.736        1642.348          23.000                                                                  
R 2                                                        35.000  
R12                                                        33.000  
E 2                     17689.644         697.943          30.000                                                                  
E 7                   -111516.759       -2663.875          34.000                                                                  
E 8                     -7428.476        -756.577          30.000                                                                  
E30                    -42822.654       -1579.914          26.000                                                                  
J 2                     30726.219         515.893          32.000                       15071.464         386.699          18.000  
C 6                     -8953.748        -544.603          29.000                                                                                                                                  
C 9                    -11997.426        -729.263          30.000                                                                                                                                  
C14                      -490.067         -15.337          36.000                                                                                                                                  
C24                    -51537.384        -862.664          36.000                                                                                      -24878.824        -650.936          28.000  
C26                     11172.129        1051.429          31.000                                                                                                                                  
C33                    -92311.625       -1556.194          35.000                                                                                       -4453.878       -1171.720          25.000  
C35                    -42112.342       -1445.740          27.000                                                                                                                                  
> 2022  1 25  4  3  1.0000000  0 21                     
G 3                    -74847.886       -1118.904          31.000                      -38751.656        -833.825          22.000  
G16                   -213171.901       -3319.165          17.000                                                                  
G26                    -73857.383       -1156.810          31.000                      -19075.147        -863.443          20.000  
G29                      1024.199          -0.008          14.000                                                                  
G31                     12166.667         189.130          29.000                                                                  
G32                    110789.764        1641.977          27.000                                                                  
R 2                                                        35.000  
R12                                                        34.000  
E 2                     21359.013         698.277          32.000                                                                  
E 7                   -125515.103       -2663.592          34.000                                                                  
E 8                     -2301.419        -757.017          30.000                                                                  
E30                    -51124.760       -1580.294          24.000                                                                  
J 2                     33437.144         514.139          29.000                       16587.088         385.917          16.000  
C 6                    -11787.941        -545.832          30.000                                                                                                                                  
C 9                    -15803.712        -730.693          32.000                                                                                                                                  
C14                      -573.000         -14.902          36.000                                                                                                                                  
C21                     36344.198        3218.630          20.000                                                                                                                                  
C24                    -56036.942        -865.466          36.000                                                                                      -27435.337        -651.496          28.000  
C26                     16642.650        1049.385          30.000                                                                                                                                  
C33                   -100405.558       -1553.429          35.000                                                                                       -9052.695       -1171.944          25.000  
C35                    -49651.567       -1448.424          31.000                                                                                                                                  
> 2022  1 25  4  3  2.0000000  0 20                     
G 3                    -80741.424       -1121.743          30.000                      -42032.450        -835.222          26.000  
G26                    -79932.919       -1154.101          31.000                      -22464.288        -862.370          19.000  
G29                      1108.661          -0.008          18.000                                                                  
G31                     13168.477         190.561          29.000                                                                  
G32                    119433.484        1642.560          20.000                                                                  
R 2                                                        35.000  
R12                                                        32.000  
E 2                     25030.287         698.715          30.000                                                                  
E 7                   -139511.057       -2663.299          34.000                                                                  
E 8                     -6274.959        -755.794          33.000                                                                  
E30                    -59424.733       -1579.298          29.000                                                                  
J 2                     36143.318         515.258          32.000                       18100.458         386.815          18.000  
C 6                    -14626.127        -543.712          30.000                                                                                                                                  
C 9                    -19613.228        -731.008          29.000                                                                                                                                  
C14                      -653.117         -15.041          34.000                                                                                                                                  
C21                     53099.494        3215.876          18.000                                                                                                                                  
C24                    -60537.557        -863.732          39.000                                                                                      -29990.456        -650.380          30.000  
C26                     22101.434        1048.691          27.000                                                                                                                                  
C33                   -108496.263       -1554.834          36.000                                                                                      -13648.962       -1170.727          26.000  
C35                    -57195.522       -1447.769          29.000                                                                                                                                  
> 2022  1 25  4  3  3.0000000  0 20                     
G 3                    -86618.652       -1116.964          32.000                      -45310.125        -834.471          22.000  
G26                    -85997.994       -1155.508          30.000                      -25851.898        -862.375          19.000  
G29                      1210.138          19.657          23.000                                                                  
G31                     14170.094         190.544          27.000                                                                  
G32                    128076.629        1645.604          18.000                                                                  
R 2                                                        36.000  
R12                                                        31.000  
E 2                     28705.150         699.488          31.000                                                                  
E 7                   -153505.196       -2662.961          33.000                                                                  
E 8                    -10244.675        -754.993          32.000                                                                  
E30                    -67720.564       -1578.474          28.000                                                                  
J 2                     38850.645         514.838          29.000                       19615.297         384.167          19.000  
C 6                    -17470.084        -546.056          29.000                                                                                                                                  
C 9                    -23415.757        -730.929          28.000                                                                                                                                  
C14                      -727.904         -15.464          35.000                                                                                                                                  
C21                     69852.859        3217.235          18.000                                                                                                                                  
C24                    -65032.704        -863.607          38.000                                                                                      -32543.838        -650.032          27.000  
C26                     27571.494        1050.813          27.000                                                                                                                                  
C33                   -116586.461       -1554.169          36.000                                                                                      -18242.629       -1170.174          23.000  
C35                    -64720.473       -1443.070          28.000                                                                                                                                  
> 2022  1 25  4  3  4.0000000  0 23                     
G 3                    -92484.360       -1117.330          32.000                      -48586.013        -833.674          24.000  
G16                   -265511.345       -3320.378          19.000                                                                  
G26                    -92064.109       -1151.072          32.000                      -29227.617        -859.608          19.000  
G29                      1312.603          19.511          24.000                                                                  
G31                     15183.058         194.348          28.000                                                                  
G32                    136732.946        1647.647          21.000                                                                  
R 2                                                        35.000  
R 3                                                        23.000  
R12                                                        33.000  
R22                                                        19.000  
E 2                     32382.259         699.944          30.000                                                                  
E 7                   -167497.528       -2662.503          33.000                                                                  
E 8                    -14211.468        -754.399          33.000                                                                  
E30                    -76014.473       -1577.922          29.000                                                                  
J 2                     41559.106         513.960          32.000                       21125.316         384.516          18.000  
C 6                    -20307.820        -544.809          30.000                                                                                                                                  
C 9                    -27216.657        -730.533          30.000                                                                                                                                  
C14                      -803.333         -13.701          35.000                                                                                                                                  
C21                     86605.573        3217.802          17.000                                                                                                                                  
C24                    -69527.663        -861.622          38.000                                                                                      -35096.648        -649.976          27.000  
C26                     33039.398        1050.258          25.000                                                                                                                                  
C33                   -124674.346       -1552.130          36.000                                                                                                                                  
C35                    -72248.139       -1447.880          29.000                                                                                                                                  
> 2022  1 25  4  3  5.0000000  0 22                     
G 3                    -98354.490       -1117.005          33.000                      -51859.446        -833.771          26.000  
G16                   -282977.104       -3322.902          18.000                                                                  
G26                    -98117.757       -1152.886          31.000                      -32606.816        -860.127          20.000  
G29                      1420.633          22.488          21.000                                                                  
G31                     16194.448         191.612          28.000                                                                  
G32                    145394.459        1649.328          25.000                                                                  
R 2                                                        35.000  
R12                                                        35.000  
R22                                                        18.000  
E 2                     36062.064         700.441          30.000                                                                  
E 7                   -181487.973       -2662.149          33.000                                                                  
E 8                    -18174.732        -754.123          31.000                                                                  
E30                    -84305.310       -1577.677          26.000                                                                  
J 2                     44268.903         515.716          30.000                       22636.233         385.789          17.000  
C 6                    -23137.907        -542.018          28.000                                                                                                                                  
C 9                    -31021.719        -730.103          30.000                                                                                                                                  
C14                      -871.528         -12.526          34.000                                                                                                                                  
C21                    103367.072        3219.466          17.000                                                                                                                                  
C24                    -74019.572        -862.485          37.000                                                                                      -37647.627        -649.741          29.000  
C26                     38509.823        1051.086          29.000                                                                                                                                  
C33                   -132756.055       -1551.817          37.000                                                                                        -693.076       -1169.830          27.000  
C35                    -79782.013       -1445.482          28.000                                                                                                                                  
> 2022  1 25  4  3  6.0000000  0 25                     
G 3                   -104221.688       -1114.816          32.000                      -55129.975        -834.812          22.000  
G16                   -300444.127       -3323.186          19.000                                                                  
G26                   -104166.048       -1152.746          32.000                      -35990.178        -863.365          22.000  
G29                      1541.043          23.482          17.000                                                                  
G31                     17205.337         191.605          33.000                                                                  
G32                    154060.475        1649.052          26.000                                                                  
R 1                                                        17.000  
R 2                                                        35.000  
R 3                                                        20.000  
R12                                                        33.000  
R21                                                        17.000  
R22                                                        17.000  
E 2                     39744.843         700.673          31.000                                                                  
E 7                   -195476.140       -2661.552          30.000                                                                  
E 8                    -22134.111        -753.757          33.000                                                                  
E30                    -92592.289       -1577.153          26.000                                                                  
J 2                     46980.210         516.064          31.000                       24144.904         383.539          22.000  
C 6                    -25960.358        -544.608          30.000                                                                                                                                  
C 9                    -34821.924        -730.368          30.000                                                                                                                                  
C14                      -930.932         -12.559          33.000                                                                                                                                  
C21                    120134.209        3219.760          20.000                                                                                                                                  
C24                    -78509.005        -862.484          37.000                                                                                      -40197.308        -649.568          27.000  
C26                     43980.560        1051.181          33.000                                                                                                                                  
C33                   -140833.455       -1551.350          36.000                                                                                                                                  
C35                    -87297.880       -1443.664          28.000                                                                                                                                  
> 2022  1 25  4  3  7.0000000  0 24                     
G 3                   -110084.229       -1115.416          34.000                      -58399.078        -832.708          25.000  
G16                   -317902.047       -3324.040          19.000                                                                  
G26                   -110213.452       -1150.891          32.000                      -39361.892        -860.339          23.000  
G29                      1661.210          24.515          17.000                                                                  
G31                     18222.190         194.039          30.000                                                                  
G32                    162715.567        1646.436          27.000                                                                  
R 1                                                        17.000  
R 2                                                        35.000  
R12                                                        35.000  
R21                                                        15.000  
R22                                                        17.000  
E 2                     43428.837         701.264          32.000                                                                  
E 7                   -209464.033       -2661.730          31.000                      -12097.873       -1987.401          26.000  
E 8                    -26091.911        -752.965          34.000                                                                  
E30                   -100879.072       -1576.707          30.000                                                                  
J 2                     49691.503         516.279          30.000                       25640.502         383.586          19.000  
C 6                    -28784.861        -542.419          29.000                                                                                                                                  
C 9                    -38619.543        -729.220          28.000                                                                                                                                  
C14                      -990.012         -10.826          37.000                                                                                                                                  
C21                    136899.445        3219.595          18.000                                                                                                                                  
C24                    -82997.686        -861.884          38.000                                                                                      -42746.280        -648.167          29.000  
C26                     49456.561        1051.647          33.000                                                                                                                                  
C33                   -148908.665       -1550.683          36.000                                                                                       -2158.217       -1164.931          26.000  
C35                    -94825.650       -1446.776          26.000                                                                                                                                  
> 2022  1 25  4  3  8.0000000  0 26                     
G 3                   -115938.345       -1113.949          35.000                      -61665.173        -831.255          23.000  
G16                   -335359.424       -3321.647          15.000                                                                  
G26                   -116258.063       -1149.202          31.000                      -42732.878        -858.545          23.000  
G29                      1785.176          -0.008          18.000                                                                  
G31                     19235.914         192.507          27.000                                                                  
G32                    171382.293        1650.993          27.000                                                                  
R 1                                                        17.000  
R 2                                                        35.000  
R 3                                                        23.000  
R12                                                        30.000  
R21                                                        17.000  
R22                                                        15.000  
E 2                     47115.119         701.917          24.000                                                                  
E 7                   -223448.973       -2661.026          32.000                      -19897.018       -1988.667          23.000  
E 8                    -30046.565        -752.031          33.000                                                                  
E30                   -109163.270       -1576.033          30.000                                                                  
J 2                     52403.590         517.178          24.000                       27148.747         386.350          20.000  
C 6                    -31611.789        -542.396          27.000                                                                                                                                  
C 9                    -42425.639        -730.858          28.000                                                                                                                                  
C10                    -32890.127        -964.295          17.000                                                                                                                                  
C14                     -1045.234          -9.826          37.000                                                                                                                                  
C21                    153665.540        3218.874          18.000                                                                                                                                  
C24                    -87483.807        -860.818          39.000                                                                                      -45294.526        -649.086          26.000  
C26                     54934.755        1053.087          30.000                                                                                                                                  
C33                   -156979.294       -1548.882          35.000                                                                                                                                  
C35                   -102347.683       -1443.096          30.000                                                                                                                                  
> 2022  1 25  4  3  9.0000000  0 26                     
G 3                   -121792.384       -1113.215          35.000                      -64933.497        -831.264          21.000  
G16                   -352806.159       -3320.918          12.000                                                                  
G26                   -122298.269       -1150.661          34.000                      -46085.933        -852.368          20.000  
G29                      1909.440          22.916          20.000                                                                  
G31                     20252.902         192.433          31.000                                                                  
G32                    180059.084        1650.734          26.000                                                                  
R 1                                                        19.000  
R 2                                                        29.000  
R 3                                                        19.000  
R12                                                        29.000  
R21                                                        17.000  
R22                                                        15.000  
E 2                     50804.781         701.880          26.000                                                                  
E 7                   -237434.415       -2661.259          32.000                      -27690.147       -1984.369          21.000  
E 8                    -33999.378        -752.568          31.000                                                                  
E30                   -117445.490       -1576.455          30.000                                                                  
J 2                     55121.530         518.217          26.000                       28662.334         383.528          19.000  
C 6                    -34436.079        -541.274          26.000                                                                                                                                  
C 9                    -46223.178        -729.228          25.000                                                                                                                                  
C10                    -37910.976        -965.721          20.000                                                                                                                                  
C14                     -1098.558         -10.958          34.000                                                                                                                                  
C21                    170425.085        3218.005          17.000                                                                                                                                  
C24                    -91969.895        -861.749          39.000                                                                                      -47842.699        -649.776          25.000  
C26                     60413.336        1051.015          30.000                                                                                                                                  
C33                   -165048.106       -1548.815          37.000                                                                                                                                  
C35                   -109854.292       -1443.657          24.000                                                                                                                                  
> 2022  1 25  4  3 10.0000000  0 24                     
G 3                   -127667.504       -1118.147          34.000                      -68208.103        -835.402          20.000  
G26                   -128359.920       -1153.446          33.000                      -49446.708        -861.836          20.000  
G29                      2031.559          23.022          17.000                                                                  
G31                     21247.105         187.852          27.000                                                                  
G32                    188730.670        1647.885          27.000                                                                  
R 1                                                        17.000  
R 2                                                        34.000  
R12                                                        28.000  
R21                                                        17.000  
R22                                                        17.000  
E 2                     54474.927         697.630          21.000                                                                  
E 7                   -251439.845       -2666.369          30.000                      -35502.034       -1990.889          21.000  
E 8                    -37970.675        -756.860          32.000                                                                  
E30                   -125747.373       -1581.061          30.000                                                                  
J 2                     57822.767         510.584          26.000                       30162.562         378.929          19.000  
C 6                    -37279.538        -549.023          26.000                                                                                                                                  
C 9                    -50045.110        -735.575          31.000                                                                                                                                  
C10                    -42959.420        -971.794          17.000                                                                                                                                  
C14                     -1170.395         -13.927          34.000                                                                                                                                  
C21                    187176.232        3215.831          17.000                                                                                                                                  
C24                    -96477.186        -865.947          39.000                                                                                      -50401.910        -652.336          25.000  
C26                     65887.587        1051.792          19.000                                                                                                                                  
C33                   -173137.172       -1553.613          35.000                                                                                                                                  
C35                   -117377.296       -1446.107          29.000                                                                                                                                  
> 2022  1 25  4  3 11.0000000  0 25                     
G 3                   -133532.652       -1114.614          34.000                      -71483.780        -832.804          20.000  
G26                   -134413.368       -1150.004          32.000                      -52823.170        -859.171          20.000  
G29                      2150.244          22.009          17.000                                                                  
G31                     22236.988         188.615          28.000                                                                  
