     3.03           OBSERVATION DATA    M: Mixed            RINEX VERSION / TYPE
RTKCONV 2.4.3 b34                       20211107 095352 UTC PGM / RUN BY / DATE 
format: RINEX                                               COMMENT             
log: E:\Dropbox\211106_campus_RUNING\left_hw\0geo++\best\BA0COMMENT             
                                                            MARKER NAME         
                                                            MARKER NUMBER       
                                                            MARKER TYPE         
                                                            OBSERVER / AGENCY   
                                                            REC # / TYPE / VERS 
                                                            ANT # / TYPE        
        0.0000        0.0000        0.0000                  APPROX POSITION XYZ 
        0.0000        0.0000        0.0000                  ANTENNA: DELTA H/E/N
G    8 C1C L1C D1C S1C C5Q L5Q D5Q S5Q                      SYS / # / OBS TYPES 
C    4 C2I L2I D2I S2I                                      SYS / # / OBS TYPES 
  2021    11    06    07    26   43.9999754     GPS         TIME OF FIRST OBS   
  2021    11    06    07    47   28.9996780     GPS         TIME OF LAST OBS    
G L1C                                                       SYS / PHASE SHIFT   
G L5Q  0.00000                                              SYS / PHASE SHIFT   
C L2I                                                       SYS / PHASE SHIFT   
  0                                                         GLONASS SLOT / FRQ #
                                                            GLONASS COD/PHS/BIS 
                                                            END OF HEADER       
> 2021 11 06 07 26 43.9999754  0 10                     
C07  37858140.854   197137294.3911       1070.144          24.000  
C09  37674430.135   196180674.2271       -299.379          17.000  
C16  37284076.971   194147765.2781       -157.283          24.000  
C20  25849451.797   134604844.1401       2650.475          16.000  
C23  22417139.038   116731915.1881      -1820.214          31.000  
C32  22209184.701   115648982.9341       1007.912          20.000  
C37  22637881.021   117881374.5281        843.821          33.000  
G23  22430663.875   117873961.8481      -3512.640          25.000                                                                  
G31  21196068.467   111386076.3231        425.502          37.000                                                                  
G32  21333681.300   112109234.5841        837.904          23.000                                                                  
> 2021 11 06 07 26 44.9999752  0 10                     
C07  37857875.838   197135912.591        1069.882          20.000  
C09  37674428.636   196180661.151        -299.318          18.000  
C16  37284047.291   194147611.241        -158.515          26.000  
C23  22417429.536   116733423.088       -1821.388          29.000  
C32  22208929.278   115647661.995        1009.582          22.000  
C37  22637657.975                         843.641          33.000  
G10  20443028.186   107428795.5641      -1681.364          31.000                                                                  
G23  22431273.652   117877159.178       -3514.637          24.000                                                                  
G31  21195928.164   111385336.821         424.142          36.000                                                                  
G32  21333463.351   112108082.261         836.509          23.000                                                                  
> 2021 11 06 07 26 45.9999749  0  9                     
C07  37857580.542   197134375.352        1068.652          21.000  
C09  37674399.556   196180492.476        -299.580          23.000  
C16  37283987.632   194147300.026        -156.501          30.000  
C23  22417690.056   116734776.861       -1822.973          28.000  
C32  22208645.675   115646184.179        1008.799          24.000  
C37  22637405.850   117878914.3881        842.063          35.000  
G26  23063939.467   121201799.9431       3280.096          18.000                                                                  
G31  21195759.381   111384440.851         423.974          37.000                                                                  
G32  21333215.122   112106773.815         835.200          30.000                                                                  
> 2021 11 06 07 26 50.9999739  0 11                     
C07  37856255.460   197127468.973        1069.369          25.000  
C09  37674392.061   196180435.664        -305.122          15.000  
C10  38597165.838   200985592.5021        958.616          16.000  
C16  37283844.032   194146526.405        -159.506          26.000  
C23  22419145.249   116742335.985       -1825.844          30.000  
C32  22207374.555   115639591.227        1006.031          22.000  
C37  22636300.215   117873149.897         840.772          33.000  
G10  20444563.423   107436905.3981      -1686.396          33.000    20444564.622    80228845.7791      -1259.251          29.000  
G23  22434889.449   117896224.2181      -3522.853          16.000                                                                  
G31  21195055.768   111380758.232         419.382          35.000                                                                  
G32  21332108.589   112100986.584         835.463          29.000                                                                  
> 2021 11 06 07 26 51.9999739  0  8                     
C07  37856050.402   197126398.734        1068.263          18.000  
C16  37283874.611   194146685.708        -158.887          27.000  
C23  22419494.507   116744161.320       -1826.031          23.000  
C32  22207180.889   115638585.647        1004.876          25.000  
C37  22636140.726   117872311.161         837.512          32.000  
G10  20444880.304   107438592.641       -1686.730          31.000    20444886.300    80230105.924       -1260.422          30.000  
G31  21194973.325   111380338.738         419.253          34.000                                                                  
G32  21331949.998   112100151.408         834.553          25.000                                                                  
> 2021 11 06 07 26 52.9999739  0  9                     
C07  37855849.541   197125330.093        1067.535          16.000  
C16  37283903.391   194146843.724        -157.785          30.000  
C23  22419843.465   116745987.103       -1826.722          23.000  
C32  22206988.722   115637581.019        1003.777          28.000  
C37  22635977.639   117871473.120         835.785          33.000  
G10  20445201.981   107440280.778       -1689.331          35.000    20445207.677    80231365.753       -1260.511          28.000  
G26  23059272.598   121177300.2511       3269.051          15.000                                                                  
G31  21194898.977   111379919.862         417.125          35.000                                                                  
G32  21331791.708   112099317.418         833.358          32.000                                                                  
> 2021 11 06 07 26 53.9999736  0  8                     
C09  37674474.804   196180875.7621       -300.744          19.000  
C16  37283843.432   194146533.008        -157.896          30.000  
C23  22420102.786   116747345.175       -1827.073          26.000  
C32  22206706.917   115636109.839        1001.710          24.000  
C37  22635726.413   117870167.403         836.821          33.000  
G10  20445436.119   107441497.014       -1691.050          35.000    20445439.117    80232275.173       -1262.027          29.000  
G23  22436804.823   117906308.8641      -3518.898          13.000                                                                  
G31  21194725.097   111379028.918         418.035          34.000                                                                  
> 2021 11 06 07 26 54.9999734  0  8                     
C07  37855291.327   197122415.4651       1066.894          27.000  
C09  37674471.506   196180864.079        -300.541          18.000  
C16  37283813.753   194146378.407        -158.202          30.000  
C32  22206455.091   115634796.640        1001.435          22.000  
C37  22635506.365   117869018.498         837.084          30.000  
G10  20445695.140   107442870.994       -1691.142          33.000    20445700.536    80233301.723       -1262.145          30.000  
G31  21194585.094   111378296.291         417.709          34.000                                                                  
G32  21331328.828   112096864.3771        832.106          31.000                                                                  
> 2021 11 06 07 26 55.9999731  0  8                     
C07  37854994.832   197120879.921        1067.463          25.000  
C16  37283753.495   194146068.365        -158.416          30.000  
C32  22206171.787   115633326.590        1001.776          25.000  
C37  22635256.638   117867714.103         834.806          31.000  
G10  20445926.879   107444088.772       -1690.135          29.000    20445932.575    80234211.895       -1264.157          31.000  
G23  22437984.507   117912555.8551      -3518.823          12.000                                                                  
G31  21194417.210   111377406.646         417.273          34.000                                                                  
G32  21331080.001   112095560.230         831.641          33.000                                                                  
> 2021 11 06 07 26 56.9999729  0  7                     
C07  37854728.617   197119499.493        1067.912          25.000  
C09  37674435.831   196180688.7511       -304.317          19.000  
C16  37283723.216   194145914.268        -158.147          30.000  
C32  22205917.563   115632013.508        1001.071          24.000  
C37  22635040.787   117866566.560         835.189          32.000  
G10  20446189.198   107445464.176       -1691.034          28.000    20446194.594    80235240.100       -1263.760          30.000  
G31  21194278.107   111376675.326         414.509          34.000                                                                  
> 2021 11 06 07 26 57.9999729  0  7                     
C07  37854521.760   197118431.416        1068.158          25.000  
C16  37283751.996   194146072.165        -157.699          26.000  
C32  22205726.895   115631013.011        1000.203          22.000  
C37  22634879.199   117865732.927         836.514          31.000  
G10                                                                  20446516.271    80236503.188       -1262.092          26.000  
G26  23055865.157   121159391.2931       3264.876          15.000                                                                  
G31  21194200.460   111376259.740         415.302          34.000                                                                  
> 2021 11 06 07 26 58.9999726  0  7                     
C07  37854225.565   197116895.135        1067.181          22.000  
C16  37283691.737   194145762.001        -158.958          20.000  
C32  22205445.390   115629546.677         997.960          23.000  
C37  22634628.273   117864428.367         835.508          23.000  
G10                                                                  20446747.711    80237412.152       -1260.859          22.000  
G31  21194031.977   111375372.488         414.258          34.000                                                                  
G32  21330458.231   112092278.3011        830.128          22.000                                                                  
> 2021 11 06 07 26 59.9999724  0  6                     
C07  37853961.448   197115516.393        1065.877          24.000  
C16  37283662.957   194145609.782        -161.047          23.000  
C37  22634407.326   117863281.290         833.231          29.000  
G10  20447008.531   107449757.2821      -1694.511          27.000    20447011.229    80238441.183       -1266.638          22.000  
G31  21193890.775   111374643.520         413.745          36.000                                                                  
G32  21330241.481   112091134.007         829.154          23.000                                                                  
> 2021 11 06 07 27 00.9999721  0  7                     
C07  37853668.251   197113982.527        1064.480          26.000  
C32  22204912.359   115626768.1461        998.864          24.000  
C37  22634157.599   117861980.139         831.951          32.000  
G10                                                                  20447245.666    80239355.230       -1267.728          23.000  
G26  23053759.414   121148318.7851       3278.100          14.000                                                                  
G31  21193724.989   111373757.813         413.147          37.000                                                                  
G32  21329994.752   112089831.691         829.329          21.000                                                                  
> 2021 11 06 07 27 01.9999721  0  8                     
C07  37853463.493   197112918.636        1062.882          24.000  
C16  37283636.875   194145462.9791       -160.279          19.000  
C32  22204721.091   115625769.958         997.824          26.000  
C37  22633998.409   117861149.292         829.409          27.000  
G10  20447560.748   107452675.7541      -1697.391          23.000    20447569.442    80240623.454       -1268.146          24.000  
G25  20974885.189                       -1597.638          22.000                                                                  
G31  21193642.547   111373345.800         411.148          36.000                                                                  
G32  21329835.262   112089001.445         829.890          23.000                                                                  
> 2021 11 06 07 27 02.9999718  0  8                     
C07  37853169.996   197111388.609        1061.103          26.000  
C16  37283578.116   194145155.479        -159.693          21.000  
C32  22204438.987   115624303.526         997.625          26.000  
C37  22633749.281   117859851.302         829.825          27.000  
G10  20447795.186   107453901.010       -1697.591          30.000    20447802.081    80241539.388       -1268.432          25.000  
G25  20974795.251                       -1597.638          21.000                                                                  
G26  23052428.336   121141305.2311       3265.423          17.000                                                                  
G31  21193477.361   111372461.757         410.495          34.000                                                                  
> 2021 11 06 07 27 03.9999716  0  9                     
C07  37852905.579   197110013.919        1063.183          25.000  
C16  37283547.837   194145002.084        -157.023          24.000  
C20  25838131.634   134545936.9601       2644.505          30.000  
C32  22204187.461   115622994.611         996.775          25.000  
C37  22633529.234   117858709.805         829.092          31.000  
G10  20448059.603   107455285.571       -1700.307          24.000    20448064.699    80242572.986       -1269.752          26.000  
G25  20975342.972                       -1599.739          23.000                                                                  
G31  21193339.456   111371735.505         412.056          36.000                                                                  
G32  21329374.182   112086549.4271        829.869          16.000                                                                  
> 2021 11 06 07 27 06.9999711  0  8                     
C07  37852145.605   197106040.966        1063.694          26.000  
C20  25836462.989   134537222.427        2644.372          29.000  
C32  22203464.661   115619231.595         991.403          23.000  
C37  22632900.569   117855443.332         828.031          30.000  
G10  20448888.529   107459606.213       -1703.401          25.000    20448886.730    80245798.212       -1272.079          25.000  
G26  23049738.898   121127146.9561       3268.174          16.000                                                                  
G31  21192955.122   111369719.151         408.946          36.000                                                                  
G32  21328752.712   112083277.378         826.259          26.000                                                                  
> 2021 11 06 07 27 07.9999708  0  8                     
C07  37851851.808   197104509.675        1063.435          27.000  
C16  37283434.515   194144388.5751       -162.143          16.000  
C20  25835866.102   134534109.854        2643.877          27.000  
C37  22632652.041   117854147.207         827.948          32.000  
G10  20449123.566   107460837.589       -1703.513          28.000    20449119.369    80246716.361       -1271.390          25.000  
G25  20976326.891   110231341.3631      -1603.586          23.000                                                                  
G31  21192787.239   111368838.135         410.179          37.000                                                                  
G32  21328502.985   112081978.111         826.346          26.000                                                                  
> 2021 11 06 07 27 08.9999706  0  9                     
C07  37851587.691   197103133.528        1064.320          25.000  
C16  37283403.337   194144238.408        -161.897          18.000  
C20  25835298.895   134531154.002        2643.511          27.000  
C32  22202931.330   115616465.2891        993.470          27.000  
C37  22632431.094   117853006.406         829.034          26.000  
G10  20449387.683   107462225.873       -1703.806          25.000    20449381.088    80247752.992       -1272.074          22.000  
G26  23048349.959   121119824.3341       3265.883          16.000                                                                  
G31  21192648.135   111368114.597         408.232          34.000                                                                  
G32  21328286.235   112080836.717         825.932          26.000                                                                  
> 2021 11 06 07 27 09.9999706  0 10                     
C07  37851382.633   197102069.289        1063.831          32.000  
C10  38592694.434   200962288.8721        954.862          29.000  
C16  37283433.316   194144400.833        -162.526          27.000  
C32  22202741.262   115615472.279         992.837          28.000  
C37  22632272.204   117852178.051         827.442          33.000  
G10                                                                  20449704.864    80249026.799       -1275.780          25.000  
G25  20976874.612   110234235.3771      -1604.385          24.000                                                                  
G26  23047729.089   121116560.677        3261.976          28.000                                                                  
G31  21192577.984   111367706.683         408.520          32.000                                                                  
G32  21328127.345   112080011.178         825.477          30.000                                                                  
> 2021 11 06 07 27 10.9999703  0 10                     
C07  37851088.836   197100537.702        1062.766          32.000  
C10  38592420.123   200960866.050         953.461          29.000  
C16  37283374.857   194144097.424        -165.870          22.000  
C20  25834194.459   134525402.2781       2641.738          16.000  
C32  22202463.354   115614010.398         993.463          28.000  
C37  22632023.976   117850883.157         825.773          32.000  
G10                                                                  20449940.201    80249948.174       -1274.119          31.000  
G25  20977085.966   110235367.621       -1606.133          20.000                                                                  
G26  23047019.480   121112827.400        3259.430          28.000                                                                  
G32  21327877.618   112078713.467         824.631          26.000                                                                  
> 2021 11 06 07 27 11.9999703  0 10                     
C07  37850884.678   197099476.229        1061.031          30.000  
C10  38592236.651   200959913.331         952.599          29.000  
C16  37283405.136   194144262.389        -164.404          21.000  
C20  25833685.712   134522759.935        2643.136          26.000  
C32  22202274.485   115613018.477         991.074          27.000  
C37  22631868.084   117850058.358         823.889          31.000  
G10  20450256.482   107466867.2521      -1705.817          32.000    20450264.876    80251222.780       -1275.577          30.000  
G25  20977390.555   110236975.128       -1608.960          24.000                                                                  
G26  23046403.107   121109568.415        3257.693          26.000                                                                  
G32  21327719.327   112077888.338         825.651          28.000                                                                  
> 2021 11 06 07 27 12.9999700  0 10                     
C07  37850590.282   197097947.517        1060.509          30.000  
C10  38591963.839   200958492.039         952.804          30.000  
C16  37283346.376   194143957.735        -163.798          24.000  
C20  25833085.827   134519648.651        2642.533          30.000  
C32  22201994.179   115611559.220         990.523          27.000  
C37  22631620.455                         823.069          33.000  
G10  20450490.620   107468100.975       -1706.921          33.000                                                                  
G26  23045693.498   121105836.982        3259.384          22.000                                                                  
G31  21192158.274   111365540.8731        404.031          35.000                                                                  
G32  21327471.998   112076590.077         825.479          29.000                                                                  
> 2021 11 06 07 27 13.9999698  0 11                     
C07  37850326.764   197096574.196        1061.483          24.000  
C10  38591721.607   200957227.820         951.369          29.000  
C16  37283316.997   194143808.348        -161.960          23.000  
C20  25832517.121   134516694.330        2642.094          31.000  
C32  22201743.853   115610256.894         989.712          29.000  
C37  22631405.504   117847650.7791        824.790          32.000  
G10  20450752.639   107469490.213       -1704.677          34.000                                                                  
G23  22449097.813   117970756.0731      -3532.695          24.000                                                                  
G26  23045012.670   121102261.308        3261.075          16.000                                                                  
G31  21192023.967                         404.964          33.000                                                                  
G32  21327254.049   112075449.629         824.626          26.000                                                                  
> 2021 11 06 07 27 14.9999695  0  8                     
C07  37850032.668   197095044.040        1061.889          20.000  
C10  38591446.697   200955806.953         953.734          25.000  
C20  25831920.234   134513583.222        2642.753          24.000  
C32  22201463.547   115608799.155         988.220          29.000  
C37  22631156.976   117846359.661         820.599          31.000  
G10  20450986.776   107470723.842       -1707.381          28.000                                                                  
G31  21191858.482   111363960.6161        404.088          37.000                                                                  
G32  21327005.222   112074152.644         824.070          29.000                                                                  
> 2021 11 06 07 27 15.9999693  0 12                     
C07  37849766.752   197093670.108        1062.127          25.000  
C10  38591203.266   200954540.965         953.318          19.000  
C16  37283227.958   194143352.1371       -161.649          21.000  
C20  25831352.127   134510628.475        2642.419          29.000  
C23  22426558.217   116780973.6881      -1842.253          27.000  
C32  22201213.220   115607498.897         987.721          30.000  
C37  22630939.327   117845226.447         821.094          32.000  
G10  20451252.393   107472117.065       -1710.033          26.000                                                                  
G23  22450298.482   117977033.5191      -3532.044          18.000                                                                  
G26  23043621.033   121094954.1751       3257.668          20.000                                                                  
G31  21191718.778   111363242.456         403.459          38.000                                                                  
G32  21326786.673   112073013.621         823.380          26.000                                                                  
> 2021 11 06 07 27 16.9999693  0 10                     
C07  37849562.893   197092608.191        1061.388          26.000  
C10  38591020.393   200953589.490         950.792          25.000  
C16  37283257.938   194143513.909        -162.359          20.000  
C20  25830843.679   134507986.464        2641.620          29.000  
C23  22426913.771   116782815.940       -1842.376          28.000  
C32  22201024.351   115606511.533         987.051          33.000  
C37  22630781.336   117844405.334         820.637          31.000  
G23  22450973.614   117980570.823       -3535.060          18.000                                                                  
G26  23043002.561   121091697.345        3256.095          26.000                                                                  
G31  21191639.034   111362840.416         402.799          36.000                                                                  
> 2021 11 06 07 27 17.9999690  0 11                     
C07  37849272.394   197091079.752        1059.442          26.000  
C10  38590747.581   200952169.766         951.390          25.000  
C16  37283197.979   194143209.332        -164.316          22.000  
C20  25830247.392   134504877.613        2639.823          31.000  
C23  22427180.586   116784190.183       -1842.904          29.000  
C32  22200746.143   115605056.049         986.933          34.000  
C37  22630533.408   117843116.455         820.514          33.000  
G25  20978833.156   110244579.2821      -1608.253          17.000                                                                  
G26  23042294.451   121087969.920        3254.595          28.000                                                                  
G31  21191478.645   111361966.506         400.549          35.000                                                                  
G32  21326387.049   112070895.3131        823.210          29.000                                                                  
> 2021 11 06 07 27 18.9999688  0 11                     
C07  37849010.975   197089708.941        1057.036          25.000  
C10  38590505.349   200950906.288         951.284          28.000  
C16  37283168.899   194143061.011        -164.007          27.000  
C20  25829679.285   134501924.852        2640.150          26.000  
C23  22427476.481   116785720.439       -1842.519          30.000  
C32  22200499.114   115603757.957         984.685          34.000  
C37  22630318.157                         818.207          34.000  
G10  20452088.814   107476464.8191      -1713.901          34.000                                                                  
G26  23041616.021   121084400.213        3254.471          29.000                                                                  
G31  21191343.138   111361251.273         399.361          37.000                                                                  
G32  21326168.201   112069756.944         822.563          26.000                                                                  
> 2021 11 06 07 27 19.9999685  0 11                     
C07  37848717.178   197088183.825        1057.146          24.000  
C10  38590233.737   200949487.803         948.641          28.000  
C16  37283111.639   194142756.457        -164.757          27.000  
C23  22427740.598   116787094.893       -1842.838          27.000  
C32  22200219.408                         983.713          34.000  
C37  22630070.228   117840719.1931        817.116          35.000  
G10  20452328.048                       -1715.058          34.000                                                                  
G25  20979294.237   110247010.5681      -1610.257          18.000                                                                  
G26  23040907.612   121080673.798        3252.521          28.000                                                                  
G31  21191179.152   111360379.646         399.123          38.000                                                                  
G32  21325921.472   112068461.951         821.195          23.000                                                                  
> 2021 11 06 07 27 20.9999683  0 10                     
C07  37848452.162   197086813.928        1057.599          25.000  
C10  38589991.505   200948227.226         949.163          29.000  
C16  37283085.557   194142609.202        -165.373          26.000  
C23  22428036.194   116788626.119       -1844.403          29.000  
C32  22199972.379   115601071.3711        983.153          33.000  
C37  22629856.476                         815.888          34.000  
G10  20452595.463   107479109.5011      -1716.669          34.000                                                                  
G26  23040230.081   121077106.689        3252.388          27.000                                                                  
G31  21191043.046   111359666.036         397.736          38.000                                                                  
G32  21325705.621   112067325.827         820.568          28.000                                                                  
> 2021 11 06 07 27 21.9999683  0 12                     
C07  37848248.003   197085757.154        1056.495          24.000  
C10  38589809.531   200947278.299         948.631          29.000  
C16  37283118.534   194142774.005        -165.669          27.000  
C20  25828002.546   134493223.6711       2641.135          21.000  
C23  22428391.148   116790470.116       -1844.966          29.000  
C32  22199784.409   115600087.684         982.312          33.000  
C37  22629699.985   117838772.8971        816.988          33.000  
G10  20452921.037   107480825.723       -1716.424          34.000                                                                  
G25  20979853.350   110249921.3221      -1613.754          18.000                                                                  
G26  23039609.510   121073853.849        3252.603          28.000                                                                  
G31  21190967.498   111359267.988         396.596          38.000                                                                  
G32  21325549.729   112066505.474         820.234          27.000                                                                  
> 2021 11 06 07 27 22.9999680  0 11                     
C10  38589537.319   200945861.513         947.867          29.000  
C16  37283060.974   194142470.458        -164.138          27.000  
C20  25827405.359   134490114.371        2640.754          21.000  
C23  22428657.364   116791847.101       -1845.424          27.000  
C32  22199506.501   115598636.381         981.786          33.000  
C37  22629448.759   117837488.765         815.643          34.000  
G10  20453158.773   107482070.274       -1718.546          35.000                                                                  
G25  20980073.697   110251064.294       -1617.753          19.000                                                                  
G26  23038899.901   121070129.494        3251.238          27.000                                                                  
G31  21190802.613   111358398.050         397.507          39.000                                                                  
G32  21325303.899   112065212.492         819.791          28.000                                                                  
> 2021 11 06 07 27 23.9999677  0 12                     
C07  37847656.812   197082706.4711       1056.342          23.000  
C10  38589265.108   200944445.260         947.814          30.000  
C16  37283003.114   194142165.940        -164.382          27.000  
C20  25826807.573   134487006.478        2638.483          21.000  
C23  22428921.481   116793224.201       -1846.372          28.000  
C32  22199224.996   115597185.608         982.732          33.000  
C37  22629204.728   117836205.272         814.228          33.000  
G10  20453393.211   107483315.659       -1717.179          34.000                                                                  
G25  20980291.047   110252210.707       -1621.410          19.000                                                                  
G26  23038189.993   121066405.130        3251.575          27.000                                                                  
G31  21190636.228   111357528.638         395.677          38.000                                                                  
G32  21325058.669   112063920.275         819.339          28.000                                                                  
> 2021 11 06 07 27 24.9999675  0 11                     
C07  37847392.995   197081338.061        1055.180          23.000  
C10  38589022.576   200943184.612         948.395          30.000  
C16  37282975.833   194142017.919        -165.315          27.000  
C23  22429213.778   116794758.196       -1846.962          25.000  
C32  22198974.070   115595891.755         982.722          32.000  
C37  22628988.877   117835078.743         814.159          33.000  
G10  20453659.126   107484719.641       -1718.852          34.000    20453664.523    80264556.9331      -1283.393          27.000  
G25  20980540.474   110253516.911       -1620.316          19.000                                                                  
G26  23037509.464   121062838.196        3251.892          27.000                                                                  
G31  21190500.422   111356817.663         395.513          38.000                                                                  
G32  21324843.118   112062785.438         819.232          29.000    21324849.414    83683288.4261        612.111          29.000  
> 2021 11 06 07 27 25.9999672  0 10                     
C07  37847100.398   197079814.881        1054.500          24.000  
C10  38588751.263   200941768.183         948.153          29.000  
C16  37282917.673   194141713.891        -164.490          25.000  
C32  22198697.661   115594442.515         980.523          32.000  
C37  22628740.649   117833796.848         813.164          33.000  
G10  20453899.260   107485967.121       -1720.516          33.000    20453901.958    80265488.805       -1285.935          27.000  
G23  22456399.858   118009088.2891      -3539.084          24.000                                                                  
G26  23036801.054   121059113.984        3251.349          27.000                                                                  
G31  21190336.136   111355949.843         394.664          38.000                                                                  
G32  21324598.188   112061494.336         817.759          29.000    21324603.584    83682323.649         611.277          30.000  
> 2021 11 06 07 27 26.9999672  0 11                     
C07  37846898.637   197078760.873        1053.681          24.000  
C10  38588568.990   200940820.183         947.932          30.000  
C16  37282948.852   194141879.930        -166.774          25.000  
C20  25825132.932   134478308.8001       2639.776          22.000  
C32  22198508.193   115593462.239         982.113          32.000  
C37  22628583.558   117832983.953         813.991          33.000  
G10  20454226.634   107487688.017       -1719.505          34.000    20454229.931    80266774.743       -1285.573          27.000  
G23  22457070.494   118012626.739       -3538.697          24.000                                                                  
G26  23036181.084   121055863.224        3250.142          27.000                                                                  
G31  21190259.089   111355555.306         395.115          38.000                                                                  
G32  21324443.495   112060677.038         816.927          29.000    21324447.692    83681712.502         611.430          30.000  
> 2021 11 06 07 27 27.9999670  0 11                     
C07  37846636.619   197077394.689        1054.042          25.000  
C10  38588326.757   200939560.253         947.352          30.000  
C16  37282921.570   194141734.092        -167.046          23.000  
C20  25824565.425   134475357.276        2637.955          23.000  
C32  22198262.363   115592170.363         979.433          32.000  
C37  22628367.407   117831859.507         812.792          33.000  
G10  20454497.946   107489094.798       -1722.335          33.000    20454497.646    80267825.411       -1286.445          28.000  
G23  22457683.869   118015850.306       -3538.113          25.000                                                                  
G26  23035502.354   121052298.359        3248.459          27.000                                                                  
G31  21190125.082   111354846.335         393.434          38.000                                                                  
G32  21324229.743   112059545.091         816.033          29.000    21324232.441    83680866.616         611.095          30.000  
> 2021 11 06 07 27 28.9999670  0 11                     
C07  37846434.559   197076341.715        1052.962          25.000  
C10  38588146.282   200938612.927         946.534          30.000  
C16  37282955.447   194141901.644        -168.694          24.000  
C20  25824060.275   134472719.205        2638.227          21.000  
C32  22198073.793   115591191.501         979.540          31.000  
C37  22628214.213   117831048.131         810.111          33.000  
G10                                                                  20454825.619    80269112.513       -1287.452          28.000  
G23  22458356.603   118019388.154       -3537.294          24.000                                                                  
G26  23034882.982   121049049.338        3249.013          28.000                                                                  
G31  21190048.335   111354453.227         393.300          37.000                                                                  
G32  21324076.849   112058729.658         815.295          29.000    21324076.849    83680255.856         610.105          30.000  
> 2021 11 06 07 27 29.9999667  0 11                     
C07  37846141.961   197074819.380        1053.424          25.000  
C10  38587876.169   200937198.147         946.347          31.000  
C16  37282899.386   194141601.687        -168.345          26.000  
C20  25823466.686   134469613.033        2636.728          23.000  
C32  22197793.188   115589745.136         979.588          32.000  
C37  22627964.186   117829769.236         810.003          33.000  
G10  20455054.361   107492069.0021      -1724.370          32.000    20455063.954    80270046.619       -1287.288          27.000  
G23  22458940.899   118022454.185       -3539.893          25.000                                                                  
G26  23034173.673   121045327.525        3249.032          27.000                                                                  
G31  21189883.749   111353588.346         390.830          37.000                                                                  
G32  21323834.017   112057441.130         814.990          29.000    21323831.918    83679294.334         607.958          29.000  
> 2021 11 06 07 27 30.9999665  0 11                     
C07  37845880.842   197073454.434        1052.593          26.000  
C10  38587635.736   200935939.821         945.754          30.000  
C16  37282872.704   194141458.000        -169.219          24.000  
C20  25822900.078   134466664.964        2635.124          23.000  
C32  22197543.760   115588455.646         977.025          31.000  
C37  22627748.636   117828647.307         810.484          32.000  
G10  20455317.279   107493478.922       -1724.596          32.000    20455331.369    80271100.273       -1290.535          27.000  
G23  22459555.173   118025680.175       -3542.495          26.000                                                                  
G26  23033495.843   121041763.210        3248.695          28.000                                                                  
G31  21189748.542   111352881.808         391.211          36.000                                                                  
G32  21323619.365   112056310.362         815.508          29.000    21323616.967    83678451.113         607.277          30.000  
> 2021 11 06 07 27 31.9999662  0 10                     
C07  37845588.844   197071933.369        1054.555          26.000  
C10  38587365.023   200934525.332         946.191          30.000  
C16  37282815.744   194141158.173        -168.022          25.000  
C32  22197267.052   115587010.697         975.980          32.000  
C37  22627505.504   117827369.887         808.391          32.000  
G10  20455558.312   107494732.189       -1727.319          32.000    20455570.303    80272037.550       -1289.906          29.000  
G23  22460139.469   118028750.818       -3543.844          26.000                                                                  
G26  23032788.033   121038042.233        3247.693          28.000                                                                  
G31  21189586.055   111352018.319         390.937          36.000                                                                  
G32  21323374.135   112055022.131         815.875          28.000    21323372.037    83677489.521         610.494          30.000  
> 2021 11 06 07 27 32.9999662  0 11                     
C07  37845389.182   197070879.910        1052.868          25.000  
C10  38587183.349   200933580.269         944.314          30.000  
C16  37282849.920   194141326.555        -169.395          25.000  
C20  25821803.737   134460930.8311       2633.513          23.000  
C32  22197080.581   115586034.804         977.861          31.000  
C37  22627348.712   117826561.575         808.000          32.000  
G10  20455889.882   107496459.072       -1726.979          31.000    20455899.176    80273327.971       -1288.082          27.000  
G23  22460812.503   118032295.480       -3544.310          25.000                                                                  
G26  23032171.060   121034795.478        3245.701          28.000                                                                  
G31  21189509.008   111351628.238         388.630          36.000                                                                  
G32  21323217.943   112054206.591         814.933          28.000    21323216.145    83676880.326         609.522          30.000  
> 2021 11 06 07 27 33.9999660  0 12                     
C03  36377814.863   189428827.8961       -326.648          28.000  
C07  37845127.164   197069514.943        1052.131          26.000  
C10  38586942.316   200932323.301         945.359          31.000  
C16  37282820.840   194141183.994        -169.433          25.000  
C20  25821236.830   134457984.608        2633.547          22.000  
C32  22196833.552   115584747.232         973.220          32.000  
C37  22627130.164   117825441.650         805.666          32.000  
G10  20456160.295   107497871.717       -1728.077          32.000    20456167.190    80274381.097       -1289.319          27.000  
G23  22461424.679   118035524.946       -3544.638          26.000                                                                  
G26  23031495.927   121031234.381        3246.389          28.000                                                                  
G31  21189376.500   111350923.630         388.475          36.000                                                                  
G32  21323003.892   112053076.556         814.822          29.000    21323001.193    83676036.206         607.295          30.000  
> 2021 11 06 07 27 34.9999657  0 11                     
C07  37844835.466   197067994.597        1051.569          25.000  
C10  38586671.303   200930909.701         945.335          31.000  
C16  37282763.580   194140884.702        -168.262          25.000  
C20  25820641.442   134454883.095        2632.577          24.000  
C32  22196557.743   115583304.256         976.626          31.000  
C37  22626886.432   117824166.408         807.727          32.000  
G10  20456399.529   107499127.755       -1727.595          31.000    20456405.825    80275317.092       -1289.215          28.000  
G23  22462008.375   118038597.051       -3544.506          26.000                                                                  
G26  23030788.117   121027515.014        3245.443          28.000                                                                  
G31  21189212.813   111350062.234         388.590          37.000                                                                  
G32  21322759.561   112051789.080         814.287          28.000    21322756.563    83675075.572         607.804          30.000  
> 2021 11 06 07 27 35.9999654  0 11                     
C07  37844544.667   197066475.699        1051.093          26.000  
C10  38586399.392   200929496.563         943.680          31.000  
C16  37282705.120   194140584.479        -168.485          26.000  
C20  25820046.953   134451782.760        2631.738          22.000  
C32  22196279.535   115581861.975         975.690          31.000  
C37  22626644.800   117822891.852         805.973          32.000  
G10  20456637.864   107500384.802       -1729.848          32.000    20456645.359    80276255.135       -1292.956          28.000  
G23  22462594.170   118041668.959       -3545.381          25.000                                                                  
G26  23030082.106   121023796.973        3246.127          29.000                                                                  
G31  21189047.328   111349201.523         388.010          37.000                                                                  
G32  21322514.630   112050502.197         814.614          27.000    21322511.632    83674113.497         608.791          30.000  
> 2021 11 06 07 27 36.9999652  0 12                     
C07  37844284.147   197065111.923        1051.923          25.000  
C10  38586157.759   200928240.874         942.892          30.000  
C16  37282676.940   194140440.741        -168.430          27.000  
C20  25819482.744   134448838.204        2632.386          21.000  
C32  22196031.007   115580576.486         972.957          31.000  
C37  22626427.150   117821774.207         806.037          32.000  
G10  20456910.675   107501800.317       -1730.760          33.000    20456915.172    80277312.980       -1292.124          27.000  
G23  22463207.845   118044899.406       -3546.025          26.000                                                                  
G25  20983557.885   110269385.7501      -1636.188          16.000                                                                  
G26  23029406.074   121020236.493        3245.240          29.000                                                                  
G31  21188913.620   111348499.081         386.711          36.000                                                                  
G32  21322298.480   112049373.074         812.794          26.000    21322296.381    83673269.459         608.283          30.000  
> 2021 11 06 07 27 37.9999649  0 12                     
C07  37843993.948   197063591.506        1051.830          27.000  
C10  38585886.447   200926829.680         942.059          31.000  
C16  37282618.480   194140140.531        -168.563          27.000  
C20  25818885.857   134445738.123        2631.225          22.000  
C32  22195756.997   115579135.666         972.264          31.000  
C37  22626185.818   117820501.158         804.427          32.000  
G10  20457145.413   107503059.340       -1731.407          32.000    20457154.706    80278252.084       -1292.350          27.000  
G23  22463793.339   118047972.577       -3546.777          26.000                                                                  
G25  20983778.532   110270547.156       -1633.757          16.000                                                                  
G26  23028699.163   121016518.931        3244.681          28.000                                                                  
G31  21188749.634   111347639.867         386.682          36.000                                                                  
G32  21322052.650   112048087.901         811.414          27.000    21322052.051    83672309.859         606.547          30.000  
> 2021 11 06 07 27 38.9999649  0 11                     
C07  37843792.488   197062540.127        1051.025          25.000  
C10  38585704.473   200925887.292         942.842          30.000  
C16  37282649.659   194140309.134        -168.439          26.000  
C20  25818381.307   134443105.816        2632.293          22.000  
C32  22195571.725   115578163.833         971.265          31.000  
C37  22626030.525   117819697.090         802.713          32.000  
G10  20457476.983   107504791.832       -1733.428          32.000    20457484.778    80279545.079       -1293.028          28.000  
G23  22464467.873   118051519.833       -3547.547          25.000                                                                  
G26  23028081.591   121013274.555        3243.888          29.000                                                                  
G31  21188677.684   111347253.859         386.635          36.000                                                                  
G32  21321895.859   112047276.092         812.235          28.000    21321897.358    83671703.640         606.875          30.000  
> 2021 11 06 07 27 39.9999647  0 12                     
C07  37843530.469   197061176.329        1051.313          25.000  
C09  37674515.276   196181060.3091       -315.235          22.000  
C10  38585463.440   200924632.293         942.210          30.000  
C16  37282619.380   194140164.573        -167.224          27.000  
C20  25817814.699   134440161.326        2631.919          22.000  
C32  22195326.195   115576880.391         970.419          31.000  
C37  22625816.773   117818581.542         802.597          32.000  
G10  20457748.595   107506210.191       -1734.980          33.000    20457755.191    80280603.165       -1294.365          28.000  
G23  22465080.948   118054752.447       -3547.887          25.000                                                                  
G26  23027404.360   121009715.642        3243.498          28.000                                                                  
G31  21188545.175   111346553.493         384.036          36.000                                                                  
G32  21321681.207   112046148.848         812.188          27.000    21321683.006    83670861.874         605.772          30.000  
> 2021 11 06 07 27 40.9999644  0 11                     
C07  37843239.670   197059656.977        1050.688          26.000  
C09  37674485.896   196180906.261        -312.274          21.000  
C10  38585192.727   200923222.215         940.607          30.000  
C16  37282560.620   194139863.454        -167.071          26.000  
C32  22195047.688   115575441.657         970.866          31.000  
C37  22625574.840   117817310.689         802.459          32.000  
G10  20457992.926   107507472.048       -1733.511          33.000    20457995.624    80281545.039       -1295.958          28.000  
G23  22465664.644   118057827.756       -3547.384          25.000                                                                  
G26  23026698.348   121005999.835        3242.786          29.000                                                                  
G31  21188385.086   111345696.337         382.522          36.000                                                                  
G32  21321435.677   112044864.494         812.067          29.000    21321438.975    83669903.379         605.504          31.000  
> 2021 11 06 07 27 41.9999642  0 12                     
C07  37842978.251   197058294.481        1049.815          26.000  
C09  37674484.997   196180906.411        -312.299          20.000  
C10  38584951.394   200921968.572         942.111          30.000  
C16  37282533.339   194139718.511        -167.100          25.000  
C32  22194804.856   115574159.663         967.953          31.000  
C37  22625357.491   117816196.649         800.288          33.000  
G10  20458265.737   107508892.362       -1736.217          33.000    20458266.337    80282605.785       -1295.263          27.000  
G23  22466277.420   118061061.104       -3549.557          25.000                                                                  
G25  20984818.812   110275986.8471      -1641.128          17.000                                                                  
G26  23026021.717   121002442.288        3242.127          28.000                                                                  
G31  21188250.479   111344997.462         382.574          36.000                                                                  
G32  21321221.625   112043737.270         812.084          29.000    21321224.324    83669062.155         605.790          30.000  
> 2021 11 06 07 27 42.9999639  0 12                     
C07  37842687.153   197056777.411        1048.532          26.000  
C09  37674456.516   196180751.343        -314.378          22.000  
C10  38584680.082   200920558.567         941.468          31.000  
C16  37282476.678   194139418.793        -170.130          26.000  
C20  25816051.919   134431014.3661       2633.555          23.000  
C32  22194526.049   115572722.341         969.699          31.000  
C37  22625117.057   117814927.293         801.664          33.000  
G10  20458501.374   107510156.148       -1736.992          33.000    20458506.471    80283548.397       -1295.347          28.000  
G23  22466859.617   118064138.056       -3549.637          24.000                                                                  
G26  23025313.307   120998727.747        3241.395          28.000                                                                  
G31  21188086.193   111344141.765         382.504          36.000                                                                  
G32  21320977.894   112042453.373         810.621          29.000    21320979.993    83668103.089         605.977          29.000  
> 2021 11 06 07 27 43.9999636  0 11                     
C07  37842396.354   197055261.059        1047.629          26.000  
C09  37674428.036   196180597.253        -314.360          21.000  
C10  38584409.069   200919148.595         940.253          31.000  
C16  37282418.819   194139120.681        -171.015          27.000  
C32  22194252.639   115571285.797         967.591          30.000  
C37  22624877.223   117813658.779         799.873          33.000  
G10  20458741.208   107511421.058       -1737.908          33.000    20458746.305    80284492.551       -1298.997          28.000  
G23  22467448.109   118067215.559       -3551.386          23.000                                                                  
G26  23024605.797   120995013.838        3241.022          28.000                                                                  
G31  21187924.605   111343286.862         382.447          36.000                                                                  
G32  21320732.964   112041170.870         808.953          27.000    21320735.662    83667144.527         605.774          30.000  
> 2021 11 06 07 27 44.9999636  0 12                     
C07  37842195.193   197054212.696        1048.536          26.000  
C09  37674490.693   196180910.804        -313.418          22.000  
C10  38584229.194   200918208.343         939.834          30.000  
C16  37282449.697   194139292.574        -171.399          26.000  
C20  25814950.781   134425281.4351       2629.809          24.000  
C32  22194064.669   115570318.270         967.570          30.000  
C37  22624720.132   117812859.239         799.274          33.000  
G10  20459072.479   107513159.463       -1738.364          33.000    20459077.875    80285791.343       -1298.220          28.000  
G23  22468124.441   118070767.418       -3551.521          22.000                                                                  
G26  23023989.124   120991773.052        3240.228          28.000                                                                  
G31  21187852.955   111342905.262         381.026          36.000                                                                  
G32  21320577.671   112040362.057         808.417          29.000    21320581.269    83666539.495         604.682          30.000  
> 2021 11 06 07 27 45.9999636  0 12                     
C07  37841993.733   197053164.710        1047.511          25.000  
C09  37674551.850   196181223.279        -310.998          21.000  
C10  38584049.618   200917268.729         938.914          30.000  
C16  37282482.075   194139464.096        -171.609          26.000  
C32  22193879.097   115569351.475         964.324          31.000  
C37  22624569.636   117812060.529         798.144          34.000  
G10  20459401.651   107514898.853       -1740.231          32.000    20459408.546    80287090.220       -1298.260          27.000  
G23  22468801.372   118074319.641       -3553.096          21.000                                                                  
