     3.03           OBSERVATION DATA    M: Mixed            RINEX VERSION / TYPE
Geo++ RINEX Logger  Geo++               20211106 072421 UTC PGM / RUN BY / DATE
************************************************************COMMENT
This file was generated by the Geo++ RINEX Logger App       COMMENT
for Android devices (Version 2.1.6). If you encounter       COMMENT
any issues, please send an email to android@geopp.de        COMMENT
Filtering Mode: BEST                                        COMMENT
************************************************************COMMENT
Bad agent 1                                                 MARKER NAME
HUMAN                                                       MARKER TYPE
Yihan Zhong         PolyU IPNL                              OBSERVER / AGENCY
unknown             HUAWEI              ELS-AN00            REC # / TYPE / VERS
unknown             ELS-AN00                                ANT # / TYPE
 -2418075.1582  5385908.4939  2405633.2510                  APPROX POSITION XYZ
        0.0000        0.0000        0.0000                  ANTENNA: DELTA H/E/N
G    8 C1C L1C D1C S1C C5Q L5Q D5Q S5Q                      SYS / # / OBS TYPES
R    4 C1C L1C D1C S1C                                      SYS / # / OBS TYPES
E   12 C1B L1B D1B S1B C1C L1C D1C S1C C5Q L5Q D5Q S5Q      SYS / # / OBS TYPES
C    4 C2I L2I D2I S2I                                      SYS / # / OBS TYPES
J    8 C1C L1C D1C S1C C5Q L5Q D5Q S5Q                      SYS / # / OBS TYPES
  2021    11     6     7    24   39.9999962     GPS         TIME OF FIRST OBS
 24 R01  1 R02 -4 R03  5 R04  6 R05  1 R06 -4 R07  5 R08  6 GLONASS SLOT / FRQ #
    R09 -2 R10 -5 R11  0 R12 -1 R13 -2 R14 -7 R15  0 R16 -1 GLONASS SLOT / FRQ #
    R17  4 R18 -3 R19  3 R20  2 R21  4 R22 -3 R23  3 R24  2 GLONASS SLOT / FRQ #
G L1C                                                       SYS / PHASE SHIFT
G L5Q -0.25000                                              SYS / PHASE SHIFT
R L1C                                                       SYS / PHASE SHIFT
E L1B                                                       SYS / PHASE SHIFT
E L1C +0.50000                                              SYS / PHASE SHIFT
E L5Q -0.25000                                              SYS / PHASE SHIFT
C L2I                                                       SYS / PHASE SHIFT
J L1C                                                       SYS / PHASE SHIFT
J L5Q -0.25000                                              SYS / PHASE SHIFT
 C1C    0.000 C1P    0.000 C2C    0.000 C2P    0.000        GLONASS COD/PHS/BIS
                                                            END OF HEADER
> 2021 11  6  7 24 39.9999962  3  1
Bad agent 1                                                 MARKER NAME
> 2021 11  6  7 24 39.9999962  0  9
C09  37674061.690   196178725.1711       -252.542          32.000  
C20  25919439.845   134969324.2571       2709.224          27.000  
C23  22381085.097   116544182.3261      -1726.125          31.000  
C32  22240616.741   115812727.1261       1114.027          28.000  
C37  22665433.747   118024860.7781        951.002          35.000  
G10  20410905.724   107260032.7801      -1544.334          36.000  
G31  21213508.594   111477739.9691        530.150          39.000  
R01  19805187.954   105870079.9501       1477.664          21.000  
R12  19958225.108   106613255.9561       1664.764          35.000  
> 2021 11  6  7 24 40.9999959  0 11
C06  36837967.806   191824964.7861       -166.486          20.000  
C09  37674019.119   196178509.749        -253.560          33.000  
C20  25918829.468   134966147.009        2708.230          31.000  
C23  22381325.531   116545440.154       -1727.131          33.000  
C32  22240314.251   115811146.038        1110.917          30.000  
C37  22665163.334   118023441.090         952.889          31.000  
G10  20411110.482   107261104.076       -1541.834          34.000  
G31  21213314.928   111476737.655         532.554          41.000  
G32  21360163.167   112248414.9051        908.441          21.000  
R01  19804822.806   105868127.767        1474.685          20.000  
R12  19957826.684   106611127.770        1663.264          34.000  
> 2021 11  6  7 24 41.9999956  0 12
C06  36837909.646   191824662.536        -166.057          31.000  
C09  37673975.050   196178295.375        -253.863          26.000  
C20  25918220.589   134962970.507        2707.885          27.000  
C23  22381567.163   116546699.338       -1727.533          29.000  
C32  22240012.060   115809566.976        1110.012          28.000  
C37  22664891.422   118022021.995         950.043          28.000  
G10  20411323.635   107262176.829       -1546.127          31.000  
G23  22356255.087   117482912.6681      -3420.218          20.000  
G31  21213128.457   111475736.234         529.218          37.000  
G32  21359902.947   112247034.157         907.513          28.000  
R01  19804456.760   105866170.780        1472.858          28.000  
R12  19957429.459   106609005.531        1661.752          31.000  
> 2021 11  6  7 24 42.9999956  0  9
C06  36837942.323   191824828.078        -165.339          33.000  
C09  37674022.417   196178548.403        -254.221          26.000  
C20  25917702.848   134960263.113        2706.893          32.000  
C23  22381897.535   116548426.751       -1727.804          36.000  
C32  22239798.308   115808457.084        1110.002          26.000  
C37  22664708.549   118021072.327         948.694          28.000  
G31  21213027.726   111475208.526         527.441          31.000  
R01  19804179.152   105864686.875        1473.081          33.000  
R12  19957119.174   106607348.369        1660.670          30.000  
> 2021 11  6  7 24 43.9999954  0 12
C06  36837915.342   191824681.146        -165.898          33.000  
C09  37674010.126   196178490.329        -254.346          23.000  
C20  25917124.548   134957244.730        2706.049          29.000  
C23  22382170.646   116549842.577       -1729.387          36.000  
C32  22239527.296   115807036.140        1107.028          27.000  
C37  22664466.916   118019811.648         948.209          30.000  
G10  20411874.054   107264956.2911      -1549.820          33.000  
G23  22357494.429   117489437.2421      -3419.504          25.000  
G26  23146886.044   121637706.8701       3350.110          28.000  
G31  21212866.438   111474366.721         524.611          32.000  
R01  19803841.886   105862884.318        1473.203          33.000  
R12  19956746.232   106605356.231        1659.200          30.000  
> 2021 11  6  7 24 44.9999954  0 12
C06  36837946.520   191824846.295        -165.660          32.000  
C09  37674060.790   196178744.141        -254.467          22.000  
C20  25916605.607   134954539.075        2704.135          31.000  
C23  22382500.717   116551571.631       -1729.629          36.000  
C32  22239315.043   115805929.177        1106.984          28.000  
C37  22664285.242   118018863.699         947.081          30.000  
G23  22358144.379   117492856.306       -3419.117          24.000  
G26  23146249.285   121634358.446        3348.038          26.000  
G31  21212769.305                         523.160          32.000  
G32  21359337.838   112244001.0971        908.761          36.000  
R01  19803566.676   105861412.682        1471.538          32.000  
R12  19956435.947   106603698.496        1657.435          30.000  
> 2021 11  6  7 24 45.9999951  0 10
C06  36837888.960   191824543.698        -165.233          26.000  
C09  37674017.920   196178531.619        -255.749          25.000  
C20  25915996.729   134951366.806        2704.438          29.000  
C23  22382742.350   116552833.120       -1730.461          33.000  
C32  22239012.552   115804354.202        1106.560          34.000  
C37  22664013.630   118017448.668         946.113          30.000  
G26  23145519.590   121630536.680        3349.221          27.000  
G31  21212572.042   111472845.4171        525.534          32.000  
R01  19803198.831   105859446.690        1471.326          30.000  
R12  19956036.024   106601562.043        1656.209          30.000  
> 2021 11  6  7 24 46.9999949  0 10
C06  36837862.279   191824395.845        -164.551          19.000  
C09  37674005.629   196178475.312        -255.924          29.000  
C20  25915417.530   134948349.747        2705.580          29.000  
C23  22383019.058   116554252.295       -1731.849          35.000  
C32  22238740.340   115802935.984        1105.355          32.000  
C37  22663772.297   118016191.173         945.539          29.000  
G31  21212408.655                         522.057          34.000  
G32  21358839.283   112241407.7621        902.480          31.000  
R01  19802866.661   105857670.823        1468.639          29.000  
R12  19955664.281   106599576.101        1656.672          30.000  
> 2021 11  6  7 24 47.9999949  0  9
C06  36837892.857   191824560.877        -165.746          27.000  
C09  37674052.696   196178731.368        -256.711          24.000  
C20  25914896.191   134945644.914        2704.379          29.000  
C23  22383350.029   116555984.198       -1732.024          36.000  
C32  22238524.190   115801829.275        1107.253          30.000  
C37  22663591.822   118015246.081         944.776          27.000  
G23  22359937.737   117502328.8501      -3420.990          25.000  
G26  23144180.118   121623524.3611       3347.437          30.000  
R01  19802595.948   105856223.688        1466.985          30.000  
> 2021 11  6  7 24 48.9999949  0 13
C06  36837923.736   191824727.250        -166.322          24.000  
C09  37674101.262   196178988.184        -257.305          21.000  
C20  25914377.250   134942940.053        2705.204          25.000  
C23  22383681.600   116557716.487       -1732.032          28.000  
C32  22238313.736   115800723.896        1103.682          23.000  
C37  22663409.548   118014302.575         941.561          29.000  
G10  20413169.157   107271920.4251      -1554.652          29.000  
G23  22360586.488   117505749.335       -3421.375          23.000  
G26  23143543.059   121620178.372        3343.037          24.000  
G31  21212211.691   111470912.9021        521.653          26.000  
G32  21358491.824   112239602.7591        902.470          29.000  
R01  19802322.537   105854762.127        1467.748          25.000  
R12  19955056.302   106596328.7921       1654.202          24.000  
> 2021 11  6  7 24 49.9999946  0 12
C06  36837864.977   191824424.698        -166.268          25.000  
C20  25913768.971   134939767.210        2704.391          25.000  
C23  22383925.631   116558980.908       -1732.875          25.000  
C32  22238012.444   115799152.053        1102.811          28.000  
C37  22663137.336   118012893.128         940.497          26.000  
G10  20413374.515   107273003.716       -1557.170          32.000  
G23  22361144.702   117508698.344       -3421.676          27.000  
G26  23142817.561   121616364.212        3341.024          24.000  
G31  21212024.321   111469920.172         519.762          26.000  
G32  21358229.805   112238227.145         903.234          29.000  
R01  19801965.485   105852853.881        1464.655          23.000  
R12  19954658.178   106594202.248        1651.133          17.000  
> 2021 11  6  7 24 50.9999946  0 12
C06  36837897.055   191824592.574        -169.304          28.000  
C09  37674108.757   196179031.4401       -257.284          24.000  
C20  25913248.831   134937063.548        2702.602          23.000  
C23  22384258.101   116560714.722       -1735.285          27.000  
C32  22237801.990   115798048.923        1102.665          21.000  
C37  22662957.161   118011952.670         940.121          25.000  
G10  20413669.211   107274561.101       -1558.151          30.000  
G23  22361793.752   117512121.012       -3423.681          24.000  
G31  21211925.689   111469400.870         519.558          29.000  
G32  21358059.223   112237325.695         900.221          32.000  
R01  19801691.474   105851388.735        1463.808          26.000  
R12  19954343.995   106592523.811        1649.738          24.000  
> 2021 11  6  7 24 51.9999944  0 12
C06  36837869.773   191824449.758        -169.685          29.000  
C09  37674100.363   196178975.943        -256.706          24.000  
C161792225203.021                        -152.675          30.000  
C20  25912668.433   134934046.807        2704.511          21.000  
C23  22384533.310   116562138.539       -1737.294          29.000  
C32  22237530.678   115796634.455        1101.592          23.000  
C37  22662715.828   118010700.803         939.397          25.000  
G10  20413902.449   107275804.390       -1559.092          26.000  
G31  21211767.699   111468566.427         519.092          31.000  
G32  21357828.983   112236110.650         899.375          39.000  
R01  19801353.308   105849581.208        1464.063          28.000  
R12  19953971.953   106590535.763        1648.205          21.000  
> 2021 11  6  7 24 52.9999941  0 12
C06  36837811.913   191824152.039        -172.058          25.000  
C161792225113.083                        -152.675          26.000  
C20  25912059.554   134930875.208        2700.952          25.000  
C23  22384776.742   116563408.213       -1738.408          28.000  
C32  22237230.286   115795065.979        1098.004          23.000  
C37  22662443.617   118009293.675         938.023          22.000  
G10  20414106.608   107276891.448       -1559.348          23.000  
G26  23140766.081   121605552.1331       3343.386          18.000  
G31  21211578.230   111467575.511         518.269          35.000  
G32  21357565.165   112234739.112         901.041          37.000  
R01  19800988.461   105847630.886        1463.222          23.000  
R12  19953574.428   106588412.597        1647.495          20.000  
> 2021 11  6  7 24 53.9999941  0 12
C06  36837846.390   191824323.601        -171.805          24.000  
C161792225113.083                        -152.675          27.000  
C20  25911541.513   134928174.612        2700.498          25.000  
C23  22385112.209   116565147.127       -1739.065          29.000  
C32  22237021.330   115793967.333        1098.176          25.000  
C37  22662262.242   118008355.167         938.538          21.000  
G10  20414401.004   107278449.976       -1558.465          24.000  
G23  22363603.599   117521610.3051      -3428.178          18.000  
G31  21211479.598   111467057.903         516.653          29.000  
G32  21357395.483   112233839.994         898.381          33.000  
R01  19800717.748   105846183.521        1461.903          25.000  
R12  19953267.440   106586772.663        1646.458          19.000  
> 2021 11  6  7 24 54.9999939  0 11
C06  36837818.809   191824182.771        -172.059          25.000  
C09  37674096.166   196178971.6301       -261.680          20.000  
C16  37286707.350                        -116.361          24.000  
C20  25910962.314   134925161.981        2700.407          30.000  
C23  22385386.519   116566574.052       -1739.217          34.000  
C32  22236751.817   115792557.602        1097.276          27.000  
C37  22662022.109   118007105.611         935.872          24.000  
G23  22364200.786   117524726.352       -3435.006          16.000  
G31  21211322.807   111466226.438         515.741          35.000  
R01  19800385.578   105844408.451        1461.438          29.000  
R12  19952894.199   106584778.621        1646.454          19.000  
> 2021 11  6  7 24 55.9999939  0 12
C06  36837852.685   191824354.591        -171.292          24.000  
C20  25910443.973   134922462.033        2699.767          29.000  
C23  22385719.289   116568313.072       -1738.468          32.000  
C32  22236542.262   115791460.734        1096.687          27.000  
C37  22661843.132   118006169.179         936.502          23.000  
G10  20414932.536   107281257.9371      -1562.655          26.000  
G23  22364853.734   117528161.216       -3435.278          15.000  
G26  23138801.841   121595206.1321       3341.106          20.000  
G31  21211225.674   111465711.000         515.612          35.000  
G32  21356996.159   112231728.2351        898.295          31.000  
R01  19800112.168   105842946.309        1458.962          26.000  
R12  19952578.218   106583091.469        1644.308          19.000  
> 2021 11  6  7 24 56.9999936  0 13
C06  36837796.624   191824057.113        -170.489          25.000  
C09  37674108.457   196179027.2991       -262.329          26.000  
C16  37286667.177   194161318.2541       -117.702          22.000  
C20  25909836.893   134919294.541        2698.189          29.000  
C23  22385962.720                       -1743.004          31.000  
C32  22236241.270   115789895.133        1096.879          28.000  
C37  22661574.219   118004764.805         935.176          29.000  
G23  22365416.744   117531119.907       -3430.490          13.000  
G26  23138078.142   121591392.777        3340.568          21.000  
G31  21211042.201                         514.839          35.000  
G32  21356736.839   112230358.120         896.683          28.000  
R01  19799748.220   105841000.843        1458.130          26.000  
R12  19952177.695   106580951.463        1642.204          25.000  
> 2021 11  6  7 24 57.9999933  0 13
C06  36837742.062   191823759.269        -169.766          26.000  
C09  37674071.283   196178820.400        -261.163          28.000  
C16  37286600.923   194160967.705        -118.430          27.000  
C20  25909228.914   134916127.728        2698.339          25.000  
C23  22386207.951                       -1738.589          34.000  
C32  22235940.878   115788329.879        1096.281          27.000  
C37  22661304.405   118003361.025         934.914          33.000  
G10  20415351.946   107283442.1521      -1566.926          25.000  
G26  23137354.443   121587579.913        3340.066          27.000  
G31  21210854.231   111463791.9861        515.376          36.000  
G32  21356475.420   112228989.133         895.627          31.000  
R01  19799383.072   105839048.830        1459.489          30.000  
R12  19951775.074   106578800.820        1641.157          28.000  
> 2021 11  6  7 24 58.9999933  0 13
C06  36837775.938   191823929.452        -170.143          25.000  
C09  37674121.648   196179081.949        -261.462          28.000  
C16  37286623.708   194161086.716        -119.620          27.000  
C20  25908710.273   134913428.683        2699.577          30.000  
C23  22386540.421   116572595.0721      -1740.733          33.000  
C32  22235731.024   115787233.706        1094.689          29.000  
C37  22661126.029   118002426.600         933.606          32.000  
G10  20415650.539   107285009.695       -1569.391          28.000  
G26  23136720.082   121584240.217        3338.954          25.000  
G31  21210753.801   111463281.718         509.201          36.000  
G32  21356302.739   112228093.301         895.565          28.000  
R01  19799110.861   105837593.675        1458.103          28.000  
R12  19951466.887   106577154.126        1639.357          28.000  
> 2021 11  6  7 24 59.9999931  0 10
C06  36837748.957   191823788.570        -172.492          25.000  
C09  37674113.254   196179030.952        -261.305          29.000  
C16  37286588.032   194160894.242        -119.884          25.000  
C23  22386815.630   116574024.677       -1744.302          32.000  
C32  22235461.211   115785827.357        1093.062          30.000  
C37  22660893.990   118001181.331         933.113          32.000  
G31  21210594.311   111462456.532         509.799          34.000  
G32  21356068.601   112226883.016         894.550          26.000  
R01  19798775.993   105835804.354        1456.156          30.000  
R12  19951102.039   106575205.046        1637.358          25.000  
> 2021 11  6  7 25  0.9999928  0 12
C06  36837694.095   191823494.443        -174.288          25.000  
C09  37674074.281   196178823.820        -261.460          29.000  
C16  37286522.078   194160545.085        -118.515          25.000  
C20  25907520.996   134907251.8881       2696.924          19.000  
C23  22387064.758   116575300.012       -1744.294          34.000  
C32  22235161.418   115784266.594        1092.068          29.000  
C37  22660622.078                         928.584          33.000  
G10  20416097.530   107287358.0331      -1567.179          20.000  
G31  21210409.039                         507.825          36.000  
G32  21355807.482   112225516.289         893.801          26.000  
R01  19798410.546   105833850.638        1454.855          29.000  
R12  19950706.014   106573089.863        1637.949          28.000  
> 2021 11  6  7 25  1.9999928  0 12
C06  36837726.772   191823667.152        -172.654          25.000  
C09  37674124.946   196179085.873        -262.911          30.000  
C16  37286545.162   194160664.852        -119.857          27.000  
C20  25907003.255   134904554.800        2697.261          30.000  
C23  22387398.726   116577043.604       -1743.783          35.000  
C32  22234950.364   115783175.165        1091.276          27.000  
C37  22660442.202   117998874.2981        930.330          34.000  
G10  20416394.324   107288926.761       -1569.605          24.000  
G31  21210314.605   111460940.2841        508.806          37.000  
G32  21355634.802   112224622.801         893.637          28.000  
R01  19798139.533   105832401.280        1453.062          30.000  
R12  19950402.024   106571465.820        1635.928          29.000  
> 2021 11  6  7 25  2.9999926  0 13
C06  36837700.091   191823528.284        -173.703          26.000  
C09  37674116.552   196179036.774        -262.651          31.000  
C16  37286508.887   194160472.692        -120.326          29.000  
C20  25906426.154   134901546.217        2696.131          32.000  
C23  22387673.336   116578475.233       -1744.536          31.000  
C32  22234680.251   115781772.250        1090.690          29.000  
C37  22660205.066   117997632.174         928.142          34.000  
G10  20416633.858   107290181.914       -1570.266          30.000  
G26  23133961.991   121569782.4801       3335.842          25.000  
G31  21210150.918   111460116.563         512.118          34.000  
G32  21355405.161   112223414.546         892.476          28.000  
R01  19797804.665   105830612.066        1453.321          29.000  
R12  19950039.275   106569528.633        1634.297          30.000  
> 2021 11  6  7 25  3.9999923  0 12
C06  36837644.329   191823233.630        -173.473          23.000  
C09  37674077.579   196178831.158        -263.282          25.000  
C16  37286442.333   194160125.003        -121.022          27.000  
C20  25905819.075   134898381.901        2695.911          26.000  
C23  22387917.967   116579751.894       -1746.424          34.000  
C32  22234381.958   115780213.819        1089.771          29.000  
C37  22659940.050   117996235.658         928.309          24.000  
G10  20416842.214   107291280.368       -1571.081          27.000  
G26  23133237.393   121565974.844        3334.811          26.000  
G31  21209962.049   111459135.885         507.876          34.000  
R01  19797442.516   105828675.226        1452.387          27.000  
R12  19949654.941   106567474.923        1632.446          25.000  
> 2021 11  6  7 25  4.9999923  0 12
C06  36837677.606   191823407.836        -175.105          26.000  
C09  37674127.944   196179093.822        -262.889          30.000  
C16  37286466.317   194160246.004        -121.102          29.000  
C20  25905301.933   134895686.754        2694.370          27.000  
C23  22388255.833   116581498.335       -1746.708          31.000  
C32  22234173.302   115779124.961        1088.130          28.000  
C37  22659762.573   117995307.276         928.103          34.000  
G10  20417139.908   107292852.476       -1572.465          30.000  
G26  23132600.934   121562640.202        3334.220          27.000  
G31  21209865.516   111458627.831         507.429          32.000  
R01  19797161.910   105827175.594        1449.890          30.000  
R12  19949340.459   106565795.053        1631.978          30.000  
> 2021 11  6  7 25  5.9999921  0 11
C06  36837652.124   191823271.729        -176.221          26.000  
C09  37674118.051   196179045.020        -264.293          26.000  
C16  37286428.842   194160055.019        -121.420          27.000  
C20  25904723.633   134892680.469        2693.810          27.000  
C23  22388530.743   116582933.472       -1747.742          34.000  
C32  22233904.388   115777724.743        1088.034          32.000  
C37  22659523.938   117994067.161         927.114          31.000  
G26  23131906.614   121558991.918        3333.624          19.000  
G32  21354751.014   112219955.4801        889.821          31.000  
R01  19796832.138   105825413.149        1450.516          27.000  
R12  19948974.712   106563841.590        1629.350          28.000  
> 2021 11  6  7 25  6.9999918  0 11
C06  36837595.763   191822979.294        -176.021          22.000  
C09  37674078.478   196178841.934        -264.467          23.000  
C16  37286363.488   194159708.376        -122.278          29.000  
C20  25904117.453   134889518.059        2693.885          26.000  
C23  22388775.973   116584213.068       -1748.637          27.000  
C32  22233604.296   115776169.056        1086.550          27.000  
C37  22659255.924   117992673.390         925.553          29.000  
G31  21209527.350   111456828.3451        503.841          33.000  
G32  21354491.393   112218592.924         889.826          31.000  
R01  19796468.190   105823467.256        1449.857          26.000  
R12  19948579.886   106561732.530        1627.753          25.000  
> 2021 11  6  7 25  7.9999918  0 10
C09  37674132.741   196179107.004        -264.602          22.000  
C16  37286389.270   194159831.720        -123.883          26.000  
C20  25903600.311   134886824.265        2692.728          23.000  
C23  22389111.740   116585962.497       -1750.041          30.000  
C32  22233395.041   115775082.374        1086.456          26.000  
C37  22659076.648   117991748.712         924.491          30.000  
G31  21209434.714   111456324.445         502.051          32.000  
G32  21354321.711   112217702.982         889.792          34.000  
R01  19796193.880   105822001.206        1446.534          26.000  
R12  19948272.298   106560089.430        1627.132          28.000  
> 2021 11  6  7 25  8.9999916  0 13
C06  36837597.862   191823022.9191       -177.042          23.000  
C09  37674122.847   196179059.460        -265.113          23.000  
C16  37286352.695   194159643.245        -123.448          24.000  
C20  25903024.110   134883819.021        2692.186          29.000  
C23  22389387.550   116587401.107       -1751.524          30.000  
C32  22233125.827   115773684.444        1084.774          28.000  
C37  22658838.612   117990512.444         923.279          29.000  
G10  20418140.615   107298058.2991      -1579.692          28.000  
G26  23129851.237   121548200.6831       3332.172          18.000  
G31  21209279.721   111455506.287         502.869          34.000  
G32  21354093.269   112216498.368         889.836          31.000  
R01  19795860.811   105820220.722        1445.665          24.000  
R12  19947910.149   106558155.383        1626.440          27.000  
> 2021 11  6  7 25  9.9999913  0 12
C06  36837539.702   191822732.128        -178.101          22.000  
C09  37674085.074   196178856.041        -263.576          21.000  
C16  37286286.741   194159298.724        -123.792          30.000  
C20  25902418.229   134880658.335        2692.042          27.000  
C23  22389632.780   116588684.457       -1751.880          31.000  
C32  22232826.934   115772132.058        1082.965          32.000  
C37  22658572.097   117989121.517         921.923          31.000  
G10  20418352.269   107299165.852       -1580.545          26.000  
G31  21209096.848   111454531.272         501.844          34.000  
G32  21353836.347   112215136.778         888.373          30.000  
R01  19795501.659   105818300.725        1445.491          27.000  
R12  19947517.421   106556057.498        1626.575          26.000  
> 2021 11  6  7 25 10.9999913  0 11
C06  36837575.077   191822909.820        -176.056          21.000  
C16  37286309.225   194159421.980        -122.883          31.000  
C20  25901900.188   134877966.153        2692.119          27.000  
C23  22389969.746   116590436.790       -1753.336          34.000  
C32  22232618.279   115771048.907        1083.394          33.000  
C37  22658396.718   117988199.585         922.059          30.000  
G10  20418652.061   107300747.308       -1581.913          28.000  
G31  21209003.612                         498.818          36.000  
G32  21353670.561   112214249.013         887.404          37.000  
R01  19795229.748   105816847.405        1444.349          29.000  
R12  19947217.629   106554455.594        1624.441          24.000  
> 2021 11  6  7 25 11.9999913  0 12
C09  37674189.701   196179384.8641       -266.120          17.000  
C16  37286333.508   194159545.267        -123.351          29.000  
C20  25901383.046   134875274.353        2692.008          26.000  
C23  22390307.013                       -1753.019          36.000  
C32  22232409.024   115769965.745        1083.491          33.000  
C37  22658220.141   117987277.625         921.161          31.000  
G10  20418953.353   107302329.447       -1582.228          27.000  
G26  23127866.611   121537743.8191       3325.753          21.000  
G31  21208906.180   111453565.0791        501.568          37.000  
G32  21353505.376   112213361.677         887.021          34.000  
R01  19794963.832   105815425.244        1443.929          31.000  
R12  19946912.140   106552823.494        1623.843          23.000  
> 2021 11  6  7 25 12.9999910  0 10
C16  37286269.353   194159200.932        -124.907          26.000  
C20  25900775.966   134872114.105        2691.274          29.000  
C23  22390555.241   116593489.0201      -1754.093          36.000  
C32  22232111.629   115768414.281        1082.651          32.000  
C37  22657953.925   117985888.441         919.860          31.000  
G26  23127142.912   121533944.321        3327.578          22.000  
G31  21208720.908   111452593.117         498.750          36.000  
G32  21353243.057   112212002.236         885.412          33.000  
R01  19794606.479   105813515.718        1444.008          30.000  
R12  19946514.016   106550697.028        1621.689          24.000  
> 2021 11  6  7 25 13.9999910  0 12
C06  36837591.866   191822979.6911       -184.271          16.000  
C16  37286293.336   194159326.527        -126.627          28.000  
C20  25900259.424   134869422.359        2692.421          29.000  
C23  22390891.908   116595244.101       -1754.232          35.000  
C32  22231901.775   115767331.902        1081.483          31.000  
C37  22657777.047   117984968.504         919.611          28.000  
G12  23358004.690                       -2970.315          25.000  
G26  23126510.650   121530617.577        3326.099          23.000  
G31  21208626.473   111452095.213         497.742          35.000  
G32  21353073.974                         885.456          33.000  
R01  19794339.664   105812089.478        1442.123          31.000  
R12  19946210.926   106549078.091        1619.070          26.000  
> 2021 11  6  7 25 14.9999908  0 14
C06  36837566.683   191822850.431        -181.764          17.000  
C09  37674196.596   196179414.0151       -274.846          18.000  
C16  37286257.961   194159141.327        -127.295          29.000  
C20  25899683.522   134866417.979        2691.168          25.000  
C23  22391168.317   116596687.798       -1755.923          35.000  
C32  22231634.060                        1079.783          32.000  
C37  22657539.912   117983737.858         917.714          29.000  
G10  20419702.534   107306288.9061      -1583.649          23.000  
G12  23358508.041                       -2972.435          27.000  
G26  23125819.328   121526977.072        3324.739          24.000  
G31  21208469.682   111451283.437         495.941          36.000  
G32  21352848.830   112209961.0511        883.558          34.000  
R01  19794011.391   105810334.452        1440.631          32.000  
R12  19945848.177   106547140.692        1615.130          20.000  
> 2021 11  6  7 25 15.9999905  0 12
C16  37286191.707   194158800.145        -127.441          32.000  
C20  25899076.742   134863260.156        2688.869          27.000  
C23  22391414.147   116597975.796       -1757.187          35.000  
C32  22231332.469   115764404.1021       1079.081          32.000  
C37  22657273.396   117982351.721         918.500          29.000  
G10  20419912.988   107307400.637       -1585.920          27.000  
G12  23358984.711   122752288.5411      -2973.854          27.000  
G26  23125100.426   121523180.206        3324.520          22.000  
G31  21208282.312   111450314.166         496.062          35.000  
G32  21352589.510   112208604.382         883.426          37.000  
R01  19793655.537   105808432.070        1439.192          32.000  
R12  19945449.752   106545011.639        1615.139          21.000  
> 2021 11  6  7 25 16.9999905  0 12
C16  37286215.690   194158927.017        -126.293          29.000  
C20  25898558.101   134860571.893        2688.914          24.000  
C23  22391751.713   116599732.619       -1757.821          35.000  
C32  22231127.411   115763325.130        1078.791          32.000  
C37  22657096.818   117981433.443         918.073          29.000  
G10  20420214.280   107308986.736       -1586.677          23.000  
G12  23359550.720   122755262.470       -2974.447          26.000  
G26  23124466.965   121519855.197        3325.085          22.000  
G31  21208190.275   111449818.308         495.539          35.000  
G32  21352420.427   112207720.579         883.690          36.000  
R01  19793386.324   105806992.674        1438.085          32.000  
R12  19945146.962   106543395.018        1617.213          22.000  
> 2021 11  6  7 25 17.9999903  0 12
C16  37286179.715   194158741.879        -126.452          29.000  
C20  25897981.001   134857570.907        2687.195          26.000  
C23  22392031.719   116601178.671       -1758.249          36.000  
C32  22230865.692   115761935.420        1077.095          32.000  
C37  22656860.282   117980203.944         916.280          28.000  
G10  20420457.711   107310260.235       -1590.445          27.000  
G12  23360058.268   122757921.981       -2974.633          26.000  
G26  23123774.444   121516215.831        3323.166          24.000  
G31  21208037.681   111449008.818         493.296          35.000  
G32  21352195.882   112206522.959         882.020          36.000  
R01  19793058.950   105805242.994        1436.364          32.000  
R12  19944785.712   106541465.303        1619.254          20.000  
> 2021 11  6  7 25 18.9999900  0 11
C16  37286114.060   194158400.015        -127.803          29.000  
C23  22392279.947   116602470.064       -1761.678          35.000  
C32  22230568.598   115760391.182        1074.320          33.000  
C37  22656594.966   117978819.735         915.100          27.000  
G10  20420674.161   107311378.660       -1591.865          26.000  
G12  23360535.838   122760425.261       -2976.566          24.000  
G26  23123052.544   121512420.770        3320.740          23.000  
G31  21207860.803   111448043.504         492.066          36.000  
G32  21351936.862   112205169.023         879.768          36.000  
R01  19792698.300   105803315.105        1435.615          33.000  
R12  19944390.286   106539352.760        1615.200          23.000  
> 2021 11  6  7 25 19.9999900  0 12
C16  37286138.044   194158528.323        -129.116          31.000  
C20  25896859.777   134851730.6031       2685.203          20.000  
C23  22392617.513   116604230.729       -1759.471          35.000  
C32  22230360.841   115759316.478        1075.336          31.000  
C37  22656420.786   117977905.791         912.174          28.000  
G10  20420977.851   107312971.751       -1594.171          27.000  
G12  23361102.146   122763402.067       -2977.355          24.000  
G23  22379407.758   117604571.0331      -3450.586          21.000  
G31  21207760.973   111447552.073         487.753          36.000  
G32  21351765.081   112204288.452         882.212          36.000  
R01  19792429.686   105801879.333        1434.685          32.000  
R12  19944088.695   106537741.571        1608.856          15.000  
> 2021 11  6  7 25 20.9999898  0 13
C16  37286102.368   194158345.305        -129.196          32.000  
C20  25896282.677   134848732.171        2685.147          23.000  
C23  22392896.320   116605679.303       -1761.228          34.000  
C32  22230094.026   115757932.704        1072.850          28.000  
C37  22656183.950   117976681.567         911.486          26.000  
E03                                                                                                                                  24085181.276    94515424.2311        196.534          26.000  
E08                                                                                                                                  24137868.901    94722181.8011       1180.458          25.000  
G10  20421222.182   107314249.946       -1593.946          28.000  
G26  23121722.964   121505463.1041       3321.299          20.000  
G31  21207607.179   111446745.499         490.327          34.000  
G32  21351538.138                         879.851          39.000  
R01  19792102.912   105800132.647        1433.629          29.000  
R12  19943722.648   106535785.938        1609.328          25.000  
> 2021 11  6  7 25 21.9999895  0 13
C16  37286035.515   194158006.091        -129.277          28.000  
C20  25895674.697   134845577.832        2686.381          22.000  
C23  22393144.249   116606972.247       -1761.972          30.000  
C32  22229798.431   115756391.355        1073.427          28.000  
C37  22655919.833   117975301.707         912.699          24.000  
E03                                                                                                                                  24085041.273    94514875.432         195.124          24.000  
G10  20421434.135   107315372.798       -1598.230          26.000  
G12  23362086.364   122768570.4331      -2979.401          16.000  
G26  23121004.062   121501667.476        3325.012          18.000  
G31  21207424.006   111445783.087         490.234          33.000  
G32  21351282.415   112201740.9681        880.114          34.000  
R01  19791747.059   105798230.724        1434.930          26.000  
R12  19943330.220   106533690.217        1609.191          20.000  
> 2021 11  6  7 25 22.9999895  0  9
C16  37286060.997   194158135.814        -130.257          26.000  
C23  22393482.115   116608734.213       -1762.678          31.000  
C32  22229592.773   115755318.649        1071.523          23.000  
C37  22655744.454   117974389.275         911.530          19.000  
E03                                                                                                                                  24084990.608    94514681.119         193.640          25.000  
G10  20421737.825   107316970.169       -1596.697          25.000  
G23  22379257.862   117603783.3231      -3450.586          20.000  
G32  21351115.131   112200860.725         879.846          33.000  
R01  19791478.744   105796795.481        1433.678          25.000  
> 2021 11  6  7 25 23.9999892  0  9
C16  37285994.443   194157798.001        -130.705          27.000  
C20  25894552.274   134839738.5371       2685.011          16.000  
C23  22393730.043   116610029.246       -1764.447          31.000  
E03                                                                                                                                  24084850.905    94514134.338         193.855          27.000  
G10  20421953.376   107318094.373       -1596.889          28.000  
G31  21207144.899   111444331.0721        487.338          26.000  
G32  21350859.108   112199509.199         878.062          36.000  
R01  19791119.893   105794877.661        1430.108          26.000  
R12  19942640.397   106530005.1681       1606.790          16.000  
> 2021 11  6  7 25 24.9999890  0 11
C16  37285961.466   194157617.662        -133.438          25.000  
C23  22394008.550   116611481.673       -1765.668          31.000  
C32  22229033.960   115752394.7341       1072.007          25.000  
C37  22655243.501   117971786.5121        910.396          23.000  
E03                                                                                                                                  24084741.780    94513704.928         193.757          28.000  
G10  20422197.407   107319375.857       -1596.447          27.000  
G23  22379107.966   117602995.6131      -3450.586          16.000  
G31  21206991.106   111443528.715         486.640          26.000  
G32  21350631.266                         876.356          35.000  
R01  19790793.719   105793134.185        1427.486          26.000  
R12  19942283.045   106528095.882        1606.652          24.000  
> 2021 11  6  7 25 25.9999890  0 10
C16  37285986.049   194157750.369        -132.552          25.000  
C23  22394348.215   116613246.596       -1764.455          32.000  
C37  22655068.422   117970875.634         909.694          19.000  
E03                                                                                                                                  24084692.914    94513511.527         193.615          24.000  
G10  20422503.195   107320973.096       -1597.597          29.000  
G12  23364199.901   122779707.4691      -2982.506          15.000  
G31  21206899.369   111443043.159         483.868          31.000  
G32  21350464.581                         875.714          34.000  
R01  19790530.801   105791728.829        1422.811          24.000  
R12  19941992.246   106526542.163        1606.171          23.000  
> 2021 11  6  7 25 26.9999887  0 11
C16  37285922.793   194157414.529        -132.904          27.000  
C20  25892856.349   134830916.4021       2675.056          17.000  
C32  22228532.107   115749780.8601       1074.349          15.000  
C37  22654803.106   117969498.897         905.885          19.000  
E03                                                                                                                                  24084553.511    94512964.795         193.654          24.000  
G10  20422719.346   107322098.723       -1598.590          25.000  
G12  23364675.372   122782220.688       -2988.716          14.000  
G26  23117596.321   121483784.2221       3326.457          16.000  
G31  21206715.896   111442086.753         483.740          19.000  
G32  21350206.460   112196098.9861        874.730          35.000  
R12  19941604.315   106524470.417        1604.471          25.000  
> 2021 11  6  7 25 27.9999885  0  8
C16  37285889.516   194157235.617        -133.804          27.000  
C32  22228264.992   115748394.249        1076.009          13.000  
E03                                                                                                                                  24084444.086    94512539.096         191.745          22.000  
G10  20422963.377   107323383.377       -1599.877          29.000  
G12  23365184.719   122784897.984       -2995.280          13.000  
G26  23116903.501   121480144.115        3322.234          15.000  
G31  21206560.604   111441287.651         484.835          23.000  
G32  21349980.416   112194908.536         876.391          36.000  
> 2021 11  6  7 25 28.9999882  0  9
C16  37285825.060   194156900.495        -133.516          27.000  
C23  22395130.374   116617299.9101      -1769.942          17.000  
C32  22227969.997   115746850.230        1075.441          12.000  
E03                                                                                                                                  24084305.282    94511994.303         190.677          22.000  
G10  20423177.428   107324511.835       -1604.096          25.000  
G12  23365663.488   122787421.265       -2995.531          11.000  
G31  21206375.332   111440329.369         484.993          20.000  
G32  21349722.295   112193561.788         872.986          36.000  
R12  19940851.536   106520449.2791       1599.836          21.000  
> 2021 11  6  7 25 29.9999882  0  9
C16  37285851.742   194157034.456        -134.478          26.000  
C23  22395470.339   116619070.131       -1770.354          25.000  
C37  22654131.871   117966004.6971        904.226          19.000  
E03                                                                                                                                  24084256.416    94511802.971         194.112          22.000  
G10  20423482.917   107326116.405       -1604.772          21.000  
G26  23115552.636   121473031.6591       3315.585          12.000  
G31  21206280.597   111439846.023         481.921          24.000  
G32  21349557.109   112192687.245         874.942          36.000  
R12  19940554.741   106518863.366        1600.000          24.000  
> 2021 11  6  7 25 30.9999880  0  5
C16  37285816.666   194156856.313        -133.766          27.000  
C23  22395752.143   116620528.696       -1771.090          23.000  
G26  23114867.310   121469400.497        3317.348          10.000  
G32  21349331.365   112191498.312         873.818          35.000  
R01  19788913.420   105783082.3511       1435.572          14.000  
> 2021 11  6  7 25 31.9999880  0  4
C16  37285842.748   194156990.621        -134.715          27.000  
C32  22227293.065   115743319.7491       1075.435          11.000  
C37  22653728.650   117963891.2781        899.011          20.000  
G32  21349161.983   112190624.677         872.857          36.000  
> 2021 11  6  7 25 32.9999880  0  8
C16  37285868.830   194157125.265        -135.143          27.000  
C23  22396437.769   116624068.6031      -1769.134          22.000  
C32  22227087.108   115742245.501        1070.896          12.000  
C37  22653556.269   117962991.374         899.740          19.000  
G10  20424339.724   107330616.2381      -1607.089          24.000  
G26  23113608.482   121462770.2201       3311.409          12.000  
G31  21205947.828   111438085.4161        482.261          23.000  
G32  21348995.898   112189751.712         872.070          36.000  
> 2021 11  6  7 25 33.9999877  0  7
C16  37285803.775   194156792.095        -135.038          28.000  
C23  22396688.695   116625371.829       -1772.776          22.000  
C37  22653292.152   117961622.868         899.047          19.000  
G10  20424555.574   107331751.109       -1607.011          25.000  
G26  23112892.877   121458989.526        3306.350          12.000  
G31  21205767.353   111437131.129         481.363          22.000  
G32  21348741.973   112188406.891         869.986          36.000  
> 2021 11  6  7 25 34.9999875  0  7
C16  37285771.098   194156615.130        -133.028          24.000  
C23  22396967.502   116626833.642       -1774.642          25.000  
C37  22653060.712   117960412.183         898.473          20.000  
G10  20424799.905   107333042.116       -1606.179          20.000  
G31  21205619.255   111436335.242         479.108          21.000  
G32  21348518.928   112187220.428         871.150          35.000  
R01  19787697.462   105776583.1691       1424.936          16.000  
> 2021 11  6  7 25 35.9999875  0  7
C16  37285796.880   194156748.140        -134.396          22.000  
C23  22397306.867   116628610.526       -1777.510          25.000  
C37  22652888.632   117959513.592         898.152          23.000  
G10  20425107.193   107334648.377       -1605.582          22.000  
G31  21205530.217   111435857.552         477.220          24.000  
G32  21348353.143   112186348.066         871.930          29.000  
R01  19787435.443   105775181.872        1420.255          17.000  
> 2021 11  6  7 25 36.9999872  0  9
C16  37285733.624   194156413.955        -134.868          27.000  
C20  25887259.223   134801789.5891       2681.333          16.000  
C23  22397556.594   116629918.711       -1776.462          28.000  
C37  22652625.414   117958148.376         895.270          21.000  
G10  20425321.244   107335784.574       -1610.855          18.000  
G26  23110857.886   121448279.0451       3309.783          17.000  
G31  21205351.541   111434908.393         476.028          31.000  
G32  21348098.019   112185004.079         870.755          32.000  
R01  19787081.389   105773290.041        1416.165          26.000  
> 2021 11  6  7 25 37.9999869  0  7
C16  37285670.967   194156081.535        -136.429          28.000  
C20  25886655.142   134798640.793        2678.875          18.000  
G10  20425536.495   107336922.918       -1612.585          25.000  
G26  23110138.384   121444497.187        3308.772          18.000  
G31  21205172.265   111433960.726         474.830          31.000  
G32  21347841.097   112183660.928         869.750          37.000  
R01  19786725.835   105771389.052        1414.420          26.000  
> 2021 11  6  7 25 38.9999867  0  5
C16  37285637.091   194155906.146        -136.909          28.000  
C37  22652128.957   117955577.9781        894.385          22.000  
G31  21205024.167   111433171.617         473.371          32.000  
G32  21347612.655                         868.135          36.000  
R01  19786404.457   105769670.560        1411.243          25.000  
> 2021 11  6  7 25 39.9999867  0  6
C16  37285662.873   194156043.543        -137.274          26.000  
C32  22225279.059   115732795.5541       1052.575          20.000  
C37  22651957.776   117954683.589         893.914          23.000  
G26  23108821.995   121437566.3181       3306.927          18.000  
G31  21204933.930   111432698.132         472.823          28.000  
G32  21347449.868   112181592.3391        868.051          35.000  
> 2021 11  6  7 25 40.9999864  0  4
C16  37285599.017   194155712.292        -137.246          28.000  
C37  22651698.156   117953320.970         894.711          22.000  
G31  21204754.954   111431751.698         474.379          27.000  
G32  21347194.745   112180251.253         867.099          35.000  
> 2021 11  6  7 25 41.9999862  0  5
C16  37285564.541   194155536.836        -136.707          27.000  
C32  22224726.542   115729905.2631       1055.673          19.000  
C37  22651467.016   117952113.949         893.812          24.000  
G31  21204606.257   111430962.271         474.140          28.000  
G32  21346968.101   112179067.933         867.158          35.000  
> 2021 11  6  7 25 42.9999862  0  5
C16  37285592.122   194155674.118        -138.863          28.000  
C32  22224523.582   115728849.047        1056.363          19.000  
G10  20426852.284   107343907.3821      -1618.094          19.000  
G31  21204517.218   111430488.526         473.412          28.000  
G32  21346806.214   112178200.326         868.843          36.000  
> 2021 11  6  7 25 43.9999859  0  4
C16  37285528.865   194155344.926        -140.546          26.000  
C32  22224230.385   115727324.752        1055.513          26.000  
G31  21204336.743   111429542.775         472.382          31.000  
G32  21346547.493   112176860.862         866.030          37.000  
> 2021 11  6  7 25 44.9999857  0  6
C16  37285496.188   194155173.340        -140.641          25.000  
C32  22223968.367   115725956.866        1054.344          19.000  
C37  22650808.072   117948658.6701        891.935          20.000  
G10  20427322.359   107346353.8161      -1617.904          25.000  
G31  21204185.648   111428756.055         472.207          32.000  
G32  21346322.049   112175679.808         865.574          34.000  
> 2021 11  6  7 25 45.9999854  0  5
C16  37285434.431   194154845.352        -140.195          27.000  
C37  22650547.552   117947297.387         894.476          23.000  
G26  23104652.482   121415694.5591       3301.036          18.000  
G31  21204006.072   111427811.592         471.629          28.000  
G32  21346068.424   112174341.093         866.460          35.000  
> 2021 11  6  7 25 46.9999854  0  6
C16  37285461.712   194154985.798        -140.075          27.000  
C32  22223473.110   115723379.3391       1052.680          20.000  
C37  22650375.771   117946404.962         890.528          23.000  
G10  20427853.591   107349120.6151      -1620.525          23.000  
G31  21203916.434   111427341.128         470.077          29.000  
G32  21345903.838   112173475.401         863.632          35.000  
> 2021 11  6  7 25 47.9999852  0  5
C16  37285428.435   194154813.398        -140.019          27.000  
C37  22650142.832   117945203.298         888.183          22.000  
G10  20428103.318   107350427.948       -1624.539          23.000  
G31  21203767.437   111426557.398         468.179          30.000  
G32  21345681.392   112172295.849         863.411          35.000  
> 2021 11  6  7 25 48.9999849  0  6
C16  37285366.078   194154485.489        -140.789          26.000  
C32  22222918.194   115720495.3111       1049.343          20.000  
G10  20428322.766   107351580.806       -1626.095          22.000  
G26  23102611.795   121405005.3751       3295.995          17.000  
G31  21203590.560   111425617.082         465.910          31.000  
G32  21345426.569   112170959.448         863.592          34.000  
> 2021 11  6  7 25 49.9999849  0  7
C16  37285393.060   194154625.599        -140.108          28.000  
C32  22222717.033   115719447.434        1047.512          21.000  
C37  22649713.230   117942960.9771        884.414          22.000  
G10  20428631.852   107353206.555       -1626.250          22.000  
G26  23101982.830   121401709.245        3297.067          16.000  
G31  21203503.320   111425151.801         464.686          30.000  
G32  21345261.083   112170096.233         863.859          35.000  
> 2021 11  6  7 25 50.9999846  0  5
C16  37285330.103   194154297.631        -141.009          28.000  
C37  22649452.111   117941608.531         884.359          22.000  
G10  20428852.200   107354359.474       -1626.427          24.000  
G31  21203326.742   111424214.829         463.964          32.000  
G32  21345007.459   112168760.390         864.118          37.000  
> 2021 11  6  7 25 51.9999844  0  6
C16  37285297.126   194154126.493        -141.878          25.000  
C32  22222162.717   115716574.8581       1044.685          23.000  
C37  22649222.769   117940411.701         885.419          21.000  
G10  20429101.028   107355670.042       -1625.372          25.000  
G26  23100569.009   121394324.1631       3301.062          19.000  
G32  21344779.916   112167582.900         862.522          35.000  
> 2021 11  6  7 25 52.9999844  0  4
C16  37285324.107   194154268.496        -141.753          27.000  
G10  20429412.212   107357296.850       -1627.546          26.000  
G31  21203085.709   111422971.1001        464.803          32.000  
G32  21344615.030   112166720.580         862.079          34.000  
> 2021 11  6  7 25 53.9999844  0  5
C16  37285350.189   194154409.643        -141.064          28.000  
C32  22221760.395   115714480.6941       1048.146          21.000  
G10  20429721.598   107358924.639       -1627.650          25.000  
G31  21202998.470   111422506.216         464.984          30.000  
G32  21344455.841   112165858.704         861.140          35.000  
> 2021 11  6  7 25 54.9999841  0  4
C16  37285288.132   194154082.440        -141.512          27.000  
G10  20429940.746   107360080.833       -1630.225          25.000  
G31  21202820.992   111421569.393         463.397          30.000  
G32  21344205.514   112164525.646         859.928          36.000  
> 2021 11  6  7 25 55.9999839  0  6
C16  37285256.354   194153911.726        -142.209          23.000  
C32  22221207.278   115711606.2871       1044.720          23.000  
C37  22648386.948   117936088.1881        883.577          20.000  
G10  20430191.373   107361397.042       -1631.517          22.000  
G31  21202672.895   111420791.682         462.307          30.000  
G32  21343978.571   112163349.824         860.977          33.000  
> 2021 11  6  7 25 56.9999839  0  5
C16  37285282.736   194154053.895        -141.464          27.000  
C32  22221007.017   115710561.497        1044.549          23.000  
G10  20430501.658   107363029.427       -1632.904          26.000  
G31  21202584.156   111420329.751         461.076          30.000  
G32  21343813.086   112162489.058         860.288          34.000  
> 2021 11  6  7 25 57.9999836  0  6
C09  37674332.103   196180119.5211       -286.164          21.000  
C16  37285220.679   194153726.644        -141.272          28.000  
G10  20430722.905   107364189.233       -1633.304          25.000  
G26  23096541.297   121373269.6371       3295.374          16.000  
G31  21202405.780   111419396.054         460.540          30.000  
G32  21343560.660   112161156.263         858.908          36.000  
> 2021 11  6  7 25 58.9999834  0  6
C09  37674327.306   196180093.403        -286.656          21.000  
C16  37285189.800   194153555.458        -141.922          27.000  
C32  22220458.996   115707691.7301       1042.835          21.000  
G10  20430975.030   107365507.713       -1634.332          25.000  
G31  21202258.282   111418621.044         459.123          29.000  
G32  21343338.214   112159982.298         855.894          35.000  
> 2021 11  6  7 25 59.9999831  0  5
C16  37285127.443   194153229.728        -144.194          22.000  
C32  22220169.097   115706180.021        1043.393          23.000  
G10  20431196.877   107366669.510       -1634.839          25.000  
G31  21202079.606   111417689.546         458.429          31.000  
G32  21343084.890   112158651.926         853.821          33.000  
> 2021 11  6  7 26  0.9999831  0  5
C16  37285155.024   194153374.267        -145.244          24.000  
C32  22219969.735   115705138.300        1039.148          25.000  
G10  20431511.659   107368305.272       -1636.546          23.000  
G31  21201992.066   111417230.690         458.371          29.000  
G32  21342918.205   112157795.059         860.053          33.000  
> 2021 11  6  7 26  1.9999828  0  6
C09  37674313.515   196180020.9631       -285.163          20.000  
C16  37285092.967   194153050.379        -144.504          26.000  
C32  22219680.136   115703632.226        1036.298          25.000  
G10  20431733.505   107369468.725       -1634.771          24.000  
G31  21201812.191   111416300.241         458.867          22.000  
G32  21342664.581   112156465.134         854.837          32.000  
> 2021 11  6  7 26  2.9999826  0  6
C09  37674306.920   196179992.620        -284.247          20.000  
C16  37285059.990   194152883.009        -145.493          24.000  
C32  22219419.916   115702282.145        1039.171          30.000  
G10  20431984.731   107370788.239       -1635.424          27.000  
G31  21201664.993   111415527.012         457.014          31.000  
G32  21342441.535   112155293.792         856.855          30.000  
> 2021 11  6  7 26  3.9999826  0  5
C16  37285087.871   194153029.375        -146.941          21.000  
C32  22219220.554   115701242.713        1039.206          30.000  
G10  20432297.415   107372424.963       -1638.399          30.000  
G31  21201578.952   111415070.395         456.143          32.000  
G32  21342278.448   112154436.789         856.398          26.000  
> 2021 11  6  7 26  4.9999823  0  6
C09  37674322.209   196180095.8281       -286.013          23.000  
C16  37285027.612   194152706.116        -144.050          23.000  
C32  22218930.654   115699734.876        1040.789          28.000  
G10  20432521.959   107373591.585       -1639.670          30.000  
G31  21201404.173   111414141.551         456.267          30.000  
G32  21342026.323   112153108.401         855.839          24.000  
