     3.03           OBSERVATION DATA    M: Mixed            RINEX VERSION / TYPE
RTKCONV 2.4.3 b34                       20211029 073353 UTC PGM / RUN BY / DATE 
format: RINEX                                               COMMENT             
log: E:\Dropbox\210912_wj_gdd\left_hw\0geo++\best\2021-09-12COMMENT             
                                                            MARKER NAME         
                                                            MARKER NUMBER       
                                                            MARKER TYPE         
                                                            OBSERVER / AGENCY   
                                                            REC # / TYPE / VERS 
                                                            ANT # / TYPE        
        0.0000        0.0000        0.0000                  APPROX POSITION XYZ 
        0.0000        0.0000        0.0000                  ANTENNA: DELTA H/E/N
G    8 C1C L1C D1C S1C C5Q L5Q D5Q S5Q                      SYS / # / OBS TYPES 
C    4 C2I L2I D2I S2I                                      SYS / # / OBS TYPES 
  2021    09    12    13    00   00.9980664     GPS         TIME OF FIRST OBS   
  2021    09    12    13    27   58.9997051     GPS         TIME OF LAST OBS    
G L1C                                                       SYS / PHASE SHIFT   
G L5Q  0.00000                                              SYS / PHASE SHIFT   
C L2I                                                       SYS / PHASE SHIFT   
  0                                                         GLONASS SLOT / FRQ #
                                                            GLONASS COD/PHS/BIS 
                                                            END OF HEADER       
> 2021 09 12 13 00 00.9980664  0  1                     
G31  21372905.246   112315517.2571      -1884.662          24.000                                                                  
> 2021 09 12 13 00 01.9980657  0  1                     
G31  21373054.842   112316299.252       -1884.688          23.000                                                                  
> 2021 09 12 13 00 02.9980646  0  1                     
G31  21373085.421   112316449.884       -1883.379          28.000                                                                  
> 2021 09 12 13 00 03.9980641  0  1                     
G31  21373292.577   112317545.461       -1883.119          30.000                                                                  
> 2021 09 12 13 00 04.9980631  0  1                     
G31  21373351.337   112317853.099       -1882.527          32.000                                                                  
> 2021 09 12 13 00 05.9980623  0  1                     
G31  21373468.556   112318474.928       -1882.742          33.000                                                                  
> 2021 09 12 13 00 06.9980616  0  1                     
G31  21373616.953   112319254.525       -1882.594          31.000                                                                  
> 2021 09 12 13 00 07.9980608  0  1                     
G31  21373734.172   112319876.317       -1883.323          32.000                                                                  
> 2021 09 12 13 00 08.9980600  0  1                     
G31  21373851.391   112320500.039       -1883.779          34.000                                                                  
> 2021 09 12 13 00 09.9980593  0  1                     
G31  21374003.385   112321280.783       -1881.929          33.000                                                                  
> 2021 09 12 13 00 10.9980582  0  1                     
G31  21374031.566   112321430.697       -1882.685          27.000                                                                  
> 2021 09 12 13 00 11.9980577  0  1                     
G31  21374239.322   112322525.853       -1882.917          31.000                                                                  
> 2021 09 12 13 00 12.9980567  0  1                     
G31  21374296.283   112322832.965       -1883.129          29.000                                                                  
> 2021 09 12 13 00 14.9980552  0  1                     
G31  21374562.498   112324237.8871      -1883.899          23.000                                                                  
> 2021 09 12 13 00 15.9980541  0  1                     
G31  21374589.779   112324389.012       -1884.006          25.000                                                                  
> 2021 09 12 13 00 16.9980536  0  1                     
G31  21374797.536   112325486.443       -1886.373          25.000                                                                  
> 2021 09 12 13 00 17.9980529  0  1                     
G31  21374945.933   112326269.085       -1884.160          26.000                                                                  
> 2021 09 12 13 00 18.9980518  0  1                     
G31  21374973.214   112326419.828       -1883.826          31.000                                                                  
> 2021 09 12 13 00 19.9980511  0  1                     
G31  21375120.112   112327200.267       -1883.347          31.000                                                                  
> 2021 09 12 13 00 21.9980495  0  1                     
G31  21375357.548   112328446.6681      -1884.675          35.000                                                                  
> 2021 09 12 13 00 24.9980472  0  1                     
G31  21375748.177   112330476.1081      -1885.897          33.000                                                                  
> 2021 09 12 13 00 25.9980465  0  1                     
G31  21375895.376   112331258.585       -1884.504          32.000                                                                  
> 2021 09 12 13 00 27.9980447  0  1                     
G31  21376070.754   112332191.3641      -1883.837          25.000                                                                  
> 2021 09 12 13 00 28.9980436  0  1                     
G31  21376099.234   112332343.963       -1888.855          26.000                                                                  
> 2021 09 12 13 00 29.9980431  0  1                     
G31  21376307.890   112333444.382       -1886.834          21.000                                                                  
> 2021 09 12 13 00 30.9980424  0  1                     
G31  21376457.187   112334228.307       -1886.727          30.000                                                                  
> 2021 09 12 13 00 31.9980413  0  1                     
G31  21376484.468   112334382.064       -1887.551          22.000                                                                  
> 2021 09 12 13 00 32.9980406  0  1                     
G31  21376634.064   112335165.697       -1886.351          27.000                                                                  
> 2021 09 12 13 00 33.9980398  0  1                     
G31  21376751.883   112335790.854       -1885.409          25.000                                                                  
> 2021 09 12 13 00 34.9980390  0  1                     
G31  21376870.001   112336416.987       -1886.411          26.000                                                                  
> 2021 09 12 13 00 35.9980383  0  1                     
G31  21377018.698   112337200.293       -1885.895          24.000                                                                  
> 2021 09 12 13 00 37.9980367  0  1                     
G31  21377262.429   112338453.4031      -1887.776          26.000                                                                  
> 2021 09 12 13 00 38.9980360  0  1                     
G31  21377411.726   112339238.193       -1887.523          23.000                                                                  
> 2021 09 12 13 00 40.9980342  0  1                     
G31  21377591.301   112340178.0331      -1888.840          28.000                                                                  
> 2021 09 12 13 00 41.9980334  0  1                     
G31  21377713.917   112340806.296       -1888.094          24.000                                                                  
> 2021 09 12 13 00 42.9980326  0  1                     
G31  21377835.333   112341436.465       -1891.252          19.000                                                                  
> 2021 09 12 13 00 43.9980316  0  1                     
G31  21377896.790   112341753.569       -1893.333          28.000                                                                  
> 2021 09 12 13 00 44.9980308  0  1                     
G31  21378018.506   112342386.513       -1892.228          27.000                                                                  
> 2021 09 12 13 00 45.9980301  0  1                     
G31  21378169.601   112343175.142       -1889.907          28.000                                                                  
> 2021 09 12 13 00 46.9980293  0  1                     
G31  21378290.118   112343804.537       -1889.940          25.000                                                                  
> 2021 09 12 13 00 47.9980285  0  1                     
G31  21378410.334   112344434.450       -1890.882          31.000                                                                  
> 2021 09 12 13 00 48.9980275  0  1                     
G31  21378471.192   112344750.535       -1892.034          31.000                                                                  
> 2021 09 12 13 00 49.9980268  0  2                     
G31  21378622.887   112345540.189       -1892.778          32.000                                                                  
G32  20959903.061   110145033.6801      -2218.835          28.000                                                                  
> 2021 09 12 13 00 50.9980262  0  3                     
G26  20201365.486   106158891.4251       -553.147          29.000                                                                  
G31  21378800.964   112346487.105       -1891.757          33.000                                                                  
G32  20960143.794   110146308.087       -2220.805          25.000                                                                  
> 2021 09 12 13 00 51.9980252  0  5                     
C06  36208888.408   188549318.1381       -684.836          29.000  
C10  37142311.113   193409760.4591       -561.777          25.000  
C16  36780498.191   191525780.7051       -642.692          30.000  
C32  23125551.614   120420815.6031        298.797          26.000  
G31  21378856.126   112346802.938       -1891.060          33.000                                                                  
> 2021 09 12 13 00 52.9980244  0  5                     
C06  36208780.183   188548753.825        -684.362          26.000  
C16  36780380.972   191525174.086        -641.669          30.000  
C32  23125255.419   120419268.532         296.888          23.000  
G31  21378975.743   112347433.943       -1892.009          32.000                                                                  
G32  20960442.687   110147913.4851      -2219.822          27.000                                                                  
> 2021 09 12 13 00 53.9980237  0  5                     
C06  36208702.237   188548345.428        -684.983          29.000  
C16  36780294.932   191524723.343        -642.798          27.000  
C32  23124989.203   120417878.417         297.196          25.000  
G26  20200934.684   106156614.9841       -555.433          27.000                                                                  
G32  20960655.240   110149029.939       -2217.793          24.000                                                                  
> 2021 09 12 13 00 54.9980229  0  5                     
C06  36208592.513   188547780.914        -684.546          27.000  
C16  36780177.713   191524116.585        -642.164          29.000  
C32  23124695.406   120416333.299         296.420          28.000  
G31  21379246.156   112348854.4681      -1891.745          31.000                                                                  
G32  20960834.216   110149989.034       -2220.820          25.000                                                                  
> 2021 09 12 13 00 55.9980221  0  6                     
C06  36208483.389   188547217.815        -687.032          24.000  
C16  36780060.494   191523509.752        -642.627          27.000  
C32  23124401.910   120414788.505         295.999          27.000  
G26  20200665.470   106155205.3951       -556.608          28.000                                                                  
G31  21379365.773   112349486.491       -1893.050          32.000                                                                  
G32  20961011.394   110150949.416       -2220.677          29.000                                                                  
> 2021 09 12 13 00 56.9980211  0  3                     
C10  37141617.993   193406184.4391       -567.247          19.000  
C16  36779884.516   191522592.404        -645.099          24.000  
G32  20961133.110   110151595.254       -2222.385          26.000                                                                  
> 2021 09 12 13 00 57.9980204  0  3                     
C06  36208238.158   188545936.5571       -684.277          16.000  
C16  36779801.173   191522144.819        -644.690          21.000  
G26  20200374.072   106153647.0101       -561.819          18.000                                                                  
> 2021 09 12 13 00 58.9980196  0  3                     
C16  36779683.955   191521539.699        -644.521          21.000  
C32  23123491.440   120410002.4111        292.199          13.000  
G31  21379702.740   112351232.9251      -1897.449          17.000                                                                  
> 2021 09 12 13 00 59.9980188  0  4                     
C10  37141259.441   193404293.2721       -567.298          18.000  
C16  36779567.635   191520934.399        -643.368          21.000  
G26  20200106.657   106152253.2841       -564.013          17.000                                                                  
G31  21379827.154   112351869.525       -1897.400          20.000                                                                  
> 2021 09 12 13 01 00.9980180  0  5                     
C06  36207912.584   188544238.2031       -682.823          16.000  
C16  36779451.915   191520329.169        -643.244          24.000  
G26  20199974.748   106151556.835        -563.157          24.000                                                                  
G31  21379944.373   112352505.339       -1894.856          23.000                                                                  
G32  20961893.683   110155608.2031      -2225.533          25.000                                                                  
> 2021 09 12 13 01 01.9980170  0  4                     
C06  36207744.100   188543359.122        -682.985          18.000  
C16  36779274.438   191519411.257        -643.673          24.000  
G26  20199781.382   106150543.882        -562.124          25.000                                                                  
G31  21380005.230   112352824.625       -1894.308          27.000                                                                  
> 2021 09 12 13 01 02.9980163  0  3                     
C16  36779185.999   191518961.248        -642.508          23.000  
G26  20199679.753   106150002.610        -561.519          24.000                                                                  
G31  21380155.726   112353616.151       -1895.325          22.000                                                                  
> 2021 09 12 13 01 03.9980157  0  3                     
C16  36779130.538   191518666.627        -641.994          23.000  
G26  20199608.102   106149619.760        -562.845          24.000                                                                  
G32  20962483.075   110158664.6851      -2227.880          28.000                                                                  
> 2021 09 12 13 01 04.9980147  0  6                     
C06  36207448.505   188541826.0681       -688.797          20.000  
C10  37140577.713   193400731.0901       -571.218          15.000  
C16  36778953.960   191517748.141        -643.599          22.000  
G26  20199417.135   106148609.368        -564.628          25.000                                                                  
G31  21380397.059   112354883.1381      -1893.905          21.000                                                                  
G32  20962610.487   110159317.810       -2229.587          30.000                                                                  
> 2021 09 12 13 01 05.9980140  0  3                     
C06  36207371.458   188541424.182        -690.693          21.000  
G26  20199314.905   106148071.056        -564.596          27.000                                                                  
G32  20962825.738   110160444.799       -2229.537          25.000                                                                  
> 2021 09 12 13 01 06.9980129  0  4                     
C16  36778664.660   191516227.3681       -646.287          22.000  
G26  20199091.560   106146903.388        -565.619          25.000                                                                  
G31  21380585.928   112355835.2821      -1892.715          19.000                                                                  
G32  20962919.273   110160941.428       -2229.640          19.000                                                                  
> 2021 09 12 13 01 07.9980124  0  5                     
C06  36207158.606   188540306.6741       -688.638          21.000  
C16  36778639.478   191516092.479        -644.415          21.000  
G26  20199048.390   106146680.668        -565.408          19.000                                                                  
G31  21380793.085   112356943.515       -1896.366          22.000                                                                  
G32  20963192.684   110162383.371       -2229.794          25.000                                                                  
> 2021 09 12 13 01 08.9980116  0  5                     
C06  36207050.680   188539745.814        -687.886          21.000  
C16  36778523.458   191515488.322        -644.729          23.000  
G26  20198913.483   106145986.177        -565.904          19.000                                                                  
G31  21380913.602   112357580.167       -1897.275          25.000                                                                  
G32  20963377.056   110163353.552       -2231.698          27.000                                                                  
> 2021 09 12 13 01 09.9980106  0  4                     
C16  36778349.279   191514571.502        -644.873          21.000  
G26  20198724.014   106144977.799        -569.629          20.000                                                                  
G31  21380976.258   112357901.798       -1895.026          25.000                                                                  
G32  20963502.070   110164009.164       -2229.948          26.000                                                                  
> 2021 09 12 13 01 10.9980099  0  3                     
C16  36778262.039   191514123.443        -645.379          20.000  
G31  21381124.056   112358695.806       -1897.943          21.000                                                                  
G32  20963715.522   110165137.832       -2233.153          26.000                                                                  
> 2021 09 12 13 01 11.9980091  0  3                     
C16  36778145.120   191513520.321        -647.463          18.000  
G26  20198502.468   106143758.8551       -573.495          24.000                                                                  
G31  21381243.073   112359334.772       -1898.594          22.000                                                                  
> 2021 09 12 13 01 12.9980083  0  2                     
G31  21381362.391   112359973.058       -1898.624          27.000                                                                  
G32  20964086.665   110167084.9201      -2237.427          22.000                                                                  
> 2021 09 12 13 01 13.9980076  0  2                     
G31  21381511.687   112360768.893       -1898.704          29.000                                                                  
G32  20964301.316   110168219.576       -2237.527          16.000                                                                  
> 2021 09 12 13 01 14.9980065  0  3                     
C16  36777736.503   191511401.3611       -645.750          25.000  
G26  20198036.290   106141375.1951       -571.342          25.000                                                                  
G32  20964396.950   110168723.341       -2236.718          24.000                                                                  
> 2021 09 12 13 01 15.9980058  0  2                     
G26  20197934.961   106140844.276        -573.619          24.000                                                                  
G31  21381691.863   112361731.1581      -1899.851          30.000                                                                  
> 2021 09 12 13 01 16.9980050  0  4                     
C16  36777538.940   191510351.7561       -645.144          18.000  
G26  20197802.153   106140158.022        -574.089          23.000                                                                  
G31  21381816.576   112362371.180       -1900.809          29.000                                                                  
G32  20964796.573   110170834.4851      -2237.483          24.000                                                                  
> 2021 09 12 13 01 17.9980042  0  2                     
G26  20197670.544   106139471.702        -574.007          28.000                                                                  
G32  20964983.044   110171810.022       -2236.132          24.000                                                                  
> 2021 09 12 13 01 18.9980035  0  3                     
G26  20197570.713   106138943.532        -575.029          29.000                                                                  
G31  21382092.385   112363811.3111      -1900.251          20.000                                                                  
G32  20965201.893   110172945.017       -2239.043          20.000                                                                  
> 2021 09 12 13 01 19.9980024  0  4                     
C16  36777133.021   191508221.3341       -644.644          25.000  
G26  20197348.567   106137785.941        -575.275          30.000                                                                  
G31  21382123.264   112363977.948       -1899.214          27.000                                                                  
G32  20965298.426   110173451.147       -2239.334          26.000                                                                  
> 2021 09 12 13 01 20.9980019  0  2                     
C16  36777105.440   191508086.485        -646.845          31.000  
G26  20197306.895   106137574.440        -577.377          35.000                                                                  
> 2021 09 12 13 01 21.9980009  0  7                     
C06  36205563.710   188531987.2841       -689.420          29.000  
C07  36417243.867   189634144.7911       -618.579          25.000  
C16  36776927.963   191507172.613        -647.709          30.000  
C32  23116625.593   120374262.5361        277.456          26.000  
G26  20197116.527   106136576.619        -578.137          34.000                                                                  
G31  21382401.771   112365413.1391      -1899.877          29.000                                                                  
G32  20965699.248   110175568.4041      -2241.552          30.000                                                                  
> 2021 09 12 13 01 22.9980001  0  6                     
C06  36205456.684   188531427.817        -689.837          30.000  
C07  36417123.950   189633515.248        -620.178          27.000  
C16  36776811.643   191506571.525        -648.002          27.000  
C32  23116332.096   120372736.521         276.785          29.000  
G26  20196985.818   106135894.214        -578.900          31.000                                                                  
G31  21382522.588   112366053.207       -1900.193          27.000                                                                  
> 2021 09 12 13 01 23.9979991  0  7                     
C06  36205290.299   188530556.676        -690.105          30.000  
C07  36416945.273   189632574.342        -619.893          25.000  
C16  36776635.365   191505658.166        -648.588          26.000  
C32  23115978.641   120370899.021         275.812          31.000  
G26  20196795.749   106134897.615        -578.432          32.000                                                                  
G31  21382584.944   112366379.065       -1902.509          26.000                                                                  
G32  20966013.731   110177215.6291      -2241.799          33.000                                                                  
> 2021 09 12 13 01 24.9979986  0  6                     
C06  36205272.611   188530465.935        -689.795          29.000  
C07  36416916.194   189632413.675        -620.430          24.000  
C16  36776609.883   191505526.406        -648.408          26.000  
C32  23115775.382   120369843.624         274.266          31.000  
G26  20196761.873   106134688.649        -579.201          32.000                                                                  
G31  21382798.097   112367493.526       -1902.785          28.000                                                                  
> 2021 09 12 13 01 25.9979978  0  7                     
C06  36205164.686   188529907.472        -690.965          29.000  
C07  36416795.677   189631785.476        -620.007          24.000  
C16  36776494.463   191504926.022        -648.374          28.000  
C32  23115482.484   120368320.974         273.548          31.000  
G26  20196632.662                        -581.712          33.000                                                                  
G29  23639885.448   124228436.4151      -1365.634          22.000                                                                  
G32  20966474.212   110179565.1061      -2243.051          34.000                                                                  
> 2021 09 12 13 01 26.9979968  0  7                     
C06  36204996.802   188529037.200        -690.708          29.000  
C07  36416612.804   189630845.818        -622.769          23.000  
C16  36776318.185   191504013.346        -648.396          30.000  
C32  23115130.528   120366486.452         272.853          31.000  
G26  20196443.793   106133026.5491       -581.493          33.000                                                                  
G31  21382985.767   112368465.8541      -1906.584          25.000                                                                  
G32  20966598.926   110180233.470       -2243.705          35.000                                                                  
> 2021 09 12 13 01 27.9979960  0 10                     
C06  36204890.076   188528480.049        -692.925          29.000  
C07  36416491.088   189630221.303        -624.113          22.000  
C10  37137489.251   193384599.6501       -575.037          24.000  
C16  36776201.565   191503412.594        -648.521          31.000  
C23  22616805.311   117771640.0601      -1755.115          24.000  
C32  23114839.729   120364964.476         272.559          29.000  
G26  20196317.280   106132348.159        -581.209          34.000                                                                  
G29  23639858.467   124228333.3001      -1365.841          25.000                                                                  
G31  21383108.082   112369111.236       -1904.916          25.000                                                                  
G32  20966784.497   110181217.465       -2247.087          34.000                                                                  
> 2021 09 12 13 01 28.9979953  0 10                     
C06  36204814.828   188528079.815        -692.342          29.000  
C07  36416401.150   189629752.958        -623.661          22.000  
C10  37137390.619   193384082.409        -575.818          23.000  
C16  36776115.525   191502968.065        -648.511          31.000  
C23  22616932.124   117772302.159       -1754.994          25.000  
C32  23114579.210   120363599.028         272.826          27.000  
G26  20196221.347   106131828.212        -582.956          35.000                                                                  
G29  23639907.932   124228595.947       -1364.541          26.000                                                                  
G31  21383263.375   112369912.670       -1904.290          29.000                                                                  
G32  20967007.543   110182359.686       -2243.756          34.000                                                                  
> 2021 09 12 13 01 29.9979945  0  9                     
C06  36204707.802   188527522.082        -691.431          29.000  
C07  36416280.634   189629127.472        -623.535          25.000  
C16  36776000.405   191502366.561        -647.823          24.000  
C23  22617029.856   117772809.151       -1756.467          20.000  
C32  23114287.512   120362077.327         272.970          30.000  
G26  20196091.537   106131151.378        -583.955          33.000                                                                  
G29  23639926.220   124228700.097       -1365.309          25.000                                                                  
G31  21383385.990   112370556.666       -1904.470          26.000                                                                  
G32  20967200.009   110183344.996       -2245.604          33.000                                                                  
> 2021 09 12 13 01 30.9979937  0  8                     
C06  36204601.676   188526964.280        -690.963          29.000  
C07  36416160.417   189628502.018        -623.576          25.000  
C16  36775884.985   191501766.178        -649.608          30.000  
C32  23113996.713   120360555.824         272.431          32.000  
G26  20195963.525   106130475.201        -584.235          32.000                                                                  
G29  23639943.008   124228805.609       -1366.340          26.000                                                                  
G31  21383506.207   112371199.963       -1903.813          29.000                                                                  
G32  20967388.279   110184330.960       -2248.528          33.000                                                                  
> 2021 09 12 13 01 31.9979927  0  8                     
C06  36204434.991   188526094.179        -691.297          27.000  
C07  36415980.841   189627564.299        -622.384          22.000  
C16  36775709.906   191500854.722        -650.028          30.000  
C23  22617166.262   117773511.5191      -1756.748          20.000  
C32  23113645.056   120358722.392         271.259          28.000  
G26  20195777.654   106129484.850        -584.247          33.000                                                                  
G31  21383567.364   112371527.467       -1902.473          26.000                                                                  
G32  20967512.693   110185002.579       -2247.220          33.000                                                                  
> 2021 09 12 13 01 32.9979919  0  9                     
C06  36204327.666   188525536.817        -691.560          28.000  
C07  36415860.025   189626938.017        -623.135          23.000  
C10  37136809.921   193381077.2611       -576.066          21.000  
C16  36775593.886   191500255.481        -649.819          30.000  
C23  22617263.694   117774019.887       -1755.724          20.000  
C32  23113351.859   120357202.873         269.376          30.000  
G26  20195642.747   106128810.595        -586.498          32.000                                                                  
G31  21383691.179   112372169.737       -1903.465          25.000                                                                  
G32  20967700.063   110185990.110       -2248.496          35.000                                                                  
> 2021 09 12 13 01 33.9979912  0  9                     
C06  36204250.619   188525135.833        -692.275          30.000  
C07  36415770.387   189626469.508        -624.376          23.000  
C10  37136711.590   193380559.548        -573.982          20.000  
C16  36775508.445   191499812.982        -650.795          29.000  
C32  23113089.841   120355841.242         267.880          29.000  
G26  20195549.812   106128294.459        -587.959          33.000                                                                  
G29  23639974.186   124228971.5351      -1369.334          29.000                                                                  
G31  21383843.173   112372971.125       -1905.312          23.000                                                                  
G32  20967922.210   110187135.643       -2247.465          36.000                                                                  
> 2021 09 12 13 01 34.9979904  0  7                     
C06  36204143.893   188524579.289        -692.642          31.000  
C07  36415650.170   189625845.169        -623.544          24.000  
C16  36775394.824   191499214.056        -650.300          27.000  
C32  23112797.843   120354324.542         267.713          31.000  
G26  20195412.807   106127621.578        -588.156          30.000                                                                  
G29  23639995.472   124229080.634       -1369.572          28.000                                                                  
G32  20968111.978   110188124.439       -2248.980          35.000                                                                  
> 2021 09 12 13 01 35.9979894  0  9                     
C06  36203977.508   188523710.380        -692.350          32.000  
C07  36415469.095   189624908.585        -625.036          24.000  
C16  36775219.445   191498303.042        -649.912          29.000  
C23  22617526.312   117775393.1121      -1760.114          19.000  
C32  23112445.287   120352496.368         266.370          32.000  
G26  20195230.233   106126634.399        -586.862          32.000                                                                  
G29  23639959.497   124228875.320       -1370.785          23.000                                                                  
G31  21384025.147   112373946.8831      -1906.813          24.000                                                                  
G32  20968241.189   110188799.009       -2249.612          33.000                                                                  
> 2021 09 12 13 01 36.9979886  0  9                     
C06  36203869.283   188523153.721        -692.094          26.000  
C07  36415351.277   189624285.551        -625.586          23.000  
C10  37136260.702   193378220.0721       -575.469          19.000  
C16  36775104.925   191497704.331        -650.527          31.000  
C23  22617622.546   117775903.448       -1758.496          19.000  
C32  23112154.788   120350980.841         266.945          29.000  
G26  20195104.020   106125963.006        -590.256          32.000                                                                  
G29  23639977.484   124228985.877       -1371.300          25.000                                                                  
G31  21384147.163   112374593.255       -1906.311          30.000                                                                  
> 2021 09 12 13 01 37.9979881  0 10                     
C06  36203851.895   188523064.291        -692.304          27.000  
C07  36415320.998   189624130.510        -625.293          24.000  
C10  37136220.829   193378014.944        -575.592          18.000  
C16  36775080.641   191497573.974        -650.421          30.000  
C23  22617810.516   117776880.154       -1757.041          20.000  
C32  23111953.627   120349933.456         266.358          31.000  
G26  20195070.144   106125765.498        -593.303          33.000                                                                  
G29  23640089.007   124229569.537       -1371.649          24.000                                                                  
G31  21384358.816   112375711.793       -1906.580          34.000                                                                  
G32  20968704.668   110191251.2771      -2251.780          27.000                                                                  
> 2021 09 12 13 01 38.9979871  0  7                     
C06  36203685.510   188522195.073        -691.063          27.000  
C10  37136031.660   193377029.684        -576.662          20.000  
C16  36774909.460   191496664.335        -652.710          25.000  
C32  23111600.772   120348106.891         264.267          29.000  
G26  20194881.275   106124781.018        -590.073          27.000                                                                  
G31  21384419.674   112376041.924       -1905.356          29.000                                                                  
G32  20968832.080   110191927.752       -2251.705          31.000                                                                  
> 2021 09 12 13 01 39.9979863  0  8                     
C06  36203580.882   188521637.012        -691.078          22.000  
C07  36415025.402   189622573.3761       -625.276          17.000  
C16  36774799.736   191496068.928        -654.234          25.000  
C23  22617945.122   117777587.1501      -1757.267          20.000  
C32  23111309.373   120346595.627         261.993          24.000  
G26  20194749.666   106124110.545        -591.328          25.000                                                                  
G29  23640077.315   124229477.7541      -1375.924          14.000                                                                  
G31  21384541.990   112376687.518       -1905.920          30.000                                                                  
> 2021 09 12 13 01 40.9979853  0  3                     
C07  36414844.028   189621635.772        -622.497          14.000  
C32  23110958.316   120344772.342         262.214          12.000  
G31  21384604.646   112377018.789       -1907.109          29.000                                                                  
> 2021 09 12 13 01 41.9979848  0  7                     
C06  36203401.307   188520681.9171       -695.222          24.000  
C07  36414813.749   189621479.441        -625.688          16.000  
C23  22618168.168   117778765.3251      -1762.952          18.000  
C32  23110758.355   120343728.407         263.793          16.000  
G26  20194526.920   106122934.7911       -595.057          25.000                                                                  
G31  21384817.499   112378138.192       -1906.950          28.000                                                                  
G32  20969426.568   110195062.8231      -2253.475          25.000                                                                  
> 2021 09 12 13 01 42.9979840  0  5                     
C07  36414692.633   189620856.073        -622.343          15.000  
C32  23110468.456   120342216.579         262.379          27.000  
G26  20194401.906   106122269.764        -595.924          22.000                                                                  
G31  21384940.114   112378785.077       -1907.344          32.000                                                                  
G32  20969613.039   110196056.480       -2253.471          32.000                                                                  
> 2021 09 12 13 01 43.9979830  0  6                     
C06  36203132.693   188519263.1911       -696.586          22.000  
C23  22618300.676   117779480.3681      -1763.282          14.000  
C32  23110116.199   120340392.851         263.121          17.000  
G26  20194214.236   106121292.115        -598.799          21.000                                                                  
G31  21385002.771   112379116.892       -1907.589          30.000                                                                  
G32  20969741.950   110196734.698       -2254.710          21.000                                                                  
> 2021 09 12 13 01 44.9979822  0  2                     
G26  20194086.225   106120629.610        -597.109          20.000                                                                  
G31  21385125.686   112379764.459       -1908.006          33.000                                                                  
> 2021 09 12 13 01 45.9979812  0  4                     
C16  36774031.368   191492040.5941       -652.818          20.000  
G26  20193900.953   106119651.628        -597.685          22.000                                                                  
G31  21385188.042   112380097.370       -1909.038          25.000                                                                  
G32  20970063.627   110198412.8661      -2259.437          21.000                                                                  
> 2021 09 12 13 01 46.9979807  0  3                     
C16  36774006.485   191491913.023        -653.587          25.000  
G26  20193864.978   106119461.201        -597.318          26.000                                                                  
G32  20970345.132   110199885.250       -2260.343          25.000                                                                  
> 2021 09 12 13 01 47.9979796  0  5                     
C16  36773800.528   191490849.148        -652.765          24.000  
C32  23108899.941   120334051.2861        257.247          14.000  
G26  20193647.928   106118325.347        -597.369          25.000                                                                  
G31  21385434.472   112381394.6991      -1909.534          24.000                                                                  
G32  20970445.563   110200413.161       -2260.333          24.000                                                                  
> 2021 09 12 13 01 48.9979789  0  4                     
C16  36773716.586   191490409.434        -653.321          25.000  
G26  20193553.794   106117821.052        -599.048          25.000                                                                  
G31  21385589.764   112382201.093       -1909.508          26.000                                                                  
G32  20970666.210   110201570.258       -2259.681          25.000                                                                  
> 2021 09 12 13 01 49.9979781  0  4                     
C16  36773602.665   191489811.765        -651.239          19.000  
G26  20193423.983   106117160.770        -601.803          21.000                                                                  
G31  21385712.080   112382849.956       -1909.717          26.000                                                                  
G32  20970855.079   110202568.587       -2258.569          28.000                                                                  
> 2021 09 12 13 01 50.9979773  0  2                     
G31  21385831.397   112383500.207       -1909.099          23.000                                                                  
G32  20971044.548   110203567.945       -2260.631          27.000                                                                  
> 2021 09 12 13 01 51.9979766  0  4                     
C32  23107811.095   120328331.3191        256.646          23.000  
G26  20193203.036   106115999.9721       -601.655          20.000                                                                  
G31  21385984.891   112384306.753       -1911.771          22.000                                                                  
G32  20971263.996   110204725.345       -2261.052          31.000                                                                  
> 2021 09 12 13 01 52.9979756  0  2                     
C32  23107464.535   120326514.510         255.078          23.000  
G31  21386052.044   112384641.171       -1909.336          15.000                                                                  
> 2021 09 12 13 01 53.9979748  0  2                     
C32  23107176.135   120325010.145         254.792          20.000  
G32  20971585.673   110206412.6251      -2262.480          35.000                                                                  
> 2021 09 12 13 01 54.9979743  0  2                     
C32  23106978.272   120323975.483         254.130          23.000  
G32  20971872.575                       -2263.077          35.000                                                                  
> 2021 09 12 13 01 55.9979732  0  2                     
G31  21386417.191   112386589.1111      -1910.744          24.000                                                                  
G32  20971972.406   110208464.4981      -2263.557          33.000                                                                  
> 2021 09 12 13 01 56.9979725  0  2                     
G31  21386572.784   112387397.836       -1912.789          27.000                                                                  
G32  20972190.655   110209625.607       -2264.779          31.000                                                                  
> 2021 09 12 13 01 57.9979715  0  2                     
C32  23105991.055   120318847.7981        252.971          20.000  
G32  20972321.664   110210315.018       -2264.427          31.000                                                                  
> 2021 09 12 13 01 58.9979709  0  3                     
C32  23105762.613   120317657.559         253.953          22.000  
G31  21386829.106   112388704.3411      -1914.373          24.000                                                                  
G32  20972580.085   110211635.026       -2266.311          32.000                                                                  
> 2021 09 12 13 01 59.9979699  0  3                     
C32  23105416.353   120315842.734         253.760          22.000  
G31  21386892.962   112389042.303       -1912.465          25.000                                                                  
G32  20972709.595   110212324.775       -2264.009          33.000                                                                  
> 2021 09 12 13 02 00.9979692  0  1                     
G31  21387046.156   112389851.866       -1912.101          30.000                                                                  
> 2021 09 12 13 02 01.9979681  0  2                     
G31  21387082.731   112390030.793       -1912.236          25.000                                                                  
G32  20973029.174   110214020.1081      -2265.347          21.000                                                                  
> 2021 09 12 13 02 02.9979674  0  3                     
C32  23104515.177   120311194.0761        247.482          18.000  
G26  20191703.774   106108154.6501       -609.678          24.000                                                                  
G32  20973250.721   110215183.807       -2267.857          14.000                                                                  
> 2021 09 12 13 02 03.9979668  0  2                     
G31  21387417.599   112391808.5161      -1912.679          26.000                                                                  
G32  20973500.448   110216506.577       -2268.564          29.000                                                                  
> 2021 09 12 13 02 04.9979658  0  2                     
G31  21387483.253   112392146.719       -1912.916          21.000                                                                  
G32  20973631.457   110217200.482       -2270.422          27.000                                                                  
> 2021 09 12 13 02 05.9979651  0  3                     
C32  23103675.758   120306858.7331        248.205          18.000  
G31  21387638.846   112392956.530       -1911.776          22.000                                                                  
G32  20973853.303   110218368.523       -2270.511          28.000                                                                  
> 2021 09 12 13 02 06.9979640  0  3                     
C32  23103297.420   120304894.376         246.299          18.000  
G31  21387673.921   112393135.734       -1911.467          23.000                                                                  
G32  20973954.633   110218906.876       -2271.817          29.000                                                                  
> 2021 09 12 13 02 07.9979635  0  3                     
C32  23103096.859   120303868.110         244.519          19.000  
G31  21387888.873   112394261.362       -1913.360          20.000                                                                  
G32  20974234.939   110220391.474       -2272.672          34.000                                                                  
> 2021 09 12 13 02 08.9979628  0  1                     
G32  20974458.285   110221561.187       -2272.408          36.000                                                                  
> 2021 09 12 13 02 09.9979617  0  2                     
C32  23102463.098   120300568.2961        245.431          23.000  
G32  20974562.313                       -2271.954          35.000                                                                  
> 2021 09 12 13 02 10.9979610  0  2                     
C32  23102206.175   120299230.894         245.559          22.000  
G32  20974788.356   110223239.3351      -2274.137          36.000                                                                  
> 2021 09 12 13 02 11.9979602  0  1                     
G32  20974981.423   110224253.374       -2275.246          36.000                                                                  
> 2021 09 12 13 02 12.9979594  0  3                     
C32  23101634.471   120296246.3741        241.348          22.000  
G31  21388479.164   112397367.5481      -1913.030          17.000                                                                  
G32  20975173.889   110225268.101       -2275.001          36.000                                                                  
> 2021 09 12 13 02 13.9979584  0  2                     
G31  21388539.122   112397705.665       -1913.643          17.000                                                                  
G32  20975306.398   110225968.529       -2276.318          35.000                                                                  
> 2021 09 12 13 02 14.9979576  0  2                     
C32  23101003.108   120292956.6781        238.848          21.000  
G32  20975501.263   110226984.804       -2278.177          35.000                                                                  
> 2021 09 12 13 02 15.9979569  0  1                     
G32  20975723.409   110228159.365       -2277.235          36.000                                                                  
> 2021 09 12 13 02 16.9979561  0  1                     
G32  20975914.676   110229177.004       -2277.959          35.000                                                                  
> 2021 09 12 13 02 17.9979553  0  2                     
G31  21389067.057   112400480.9001      -1915.419          16.000                                                                  
G32  20976108.342   110230195.324       -2279.546          35.000                                                                  
> 2021 09 12 13 02 18.9979543  0  2                     
G31  21389131.512   112400821.208       -1915.630          23.000                                                                  
G32  20976240.251   110230899.276       -2280.799          35.000    20976247.146    82315298.4401      -1703.411          26.000  
> 2021 09 12 13 02 19.9979535  0  2                     
G31  21389255.626   112401477.490       -1917.294          25.000                                                                  
G32  20976439.313   110231919.146       -2280.677          33.000    20976440.512    82316060.728       -1703.882          27.000  
> 2021 09 12 13 02 20.9979528  0  2                     
G31  21389411.818   112402291.771       -1917.028          23.000                                                                  
G32  20976660.560   110233096.633       -2279.933          34.000    20976663.858    82316940.671       -1703.001          27.000  
> 2021 09 12 13 02 21.9979520  0  1                     
G32  20976855.425   110234116.267       -2280.185          27.000    20976857.224    82317702.373       -1703.406          24.000  
> 2021 09 12 13 02 22.9979510  0  2                     
G31  21389603.386   112403290.8851      -1918.275          30.000                                                                  
G32  20976988.233   110234821.495       -2281.091          37.000    20976990.632    82318230.165       -1705.740          21.000  
> 2021 09 12 13 02 23.9979502  0  2                     
G31  21389729.598   112403948.559       -1917.879          32.000                                                                  
G32  20977182.499   110235843.315       -2281.824          34.000    20977185.497    82318994.395       -1706.197          24.000  
> 2021 09 12 13 02 24.9979497  0  2                     
G31  21389942.751   112405077.688       -1916.923          29.000                                                                  
G32  20977471.798   110237338.209       -2284.297          38.000                                                                  
> 2021 09 12 13 02 25.9979487  0  4                     
G10  24065714.852   126466184.1381      -4885.020          29.000                                                                  
G29  23641007.271   124234331.6491      -1408.155          24.000                                                                  
G31  21390006.307   112405419.463       -1917.976          29.000                                                                  
G32  20977610.003                       -2284.734          40.000                                                                  
> 2021 09 12 13 02 26.9979479  0  4                     
G10  24066398.679   126469808.325       -4884.009          29.000                                                                  
G29  23641030.055   124234479.219       -1407.897          21.000                                                                  
G31  21390131.320   112406077.489       -1918.765          29.000                                                                  
G32  20977803.969   110239108.7681      -2285.156          39.000                                                                  
> 2021 09 12 13 02 27.9979469  0  7                     
C06  36198189.715   188493615.2581       -701.591          27.000  
C16  36769021.836   191465996.9441       -659.579          29.000  
C32  23097209.834   120273179.0971        232.601          30.000  
G10  24067025.245   126473116.695       -4883.927          29.000                                                                  
G29  23640997.078   124234313.130       -1410.392          24.000                                                                  
G31  21390196.375   112406420.771       -1918.836          30.000                                                                  
G32  20977938.875   110239818.799       -2285.573          40.000                                                                  
> 2021 09 12 13 02 28.9979464  0  7                     
C06  36198171.427   188493536.234        -701.904          27.000  
C16  36768997.852   191465876.256        -660.016          29.000  
C32  23097014.370   120272166.366         231.890          28.000  
G10  24067802.907   126477214.346       -4885.773          28.000                                                                  
G29  23641119.094   124234935.613       -1410.846          25.000                                                                  
G31  21390411.027   112407552.033       -1918.972          30.000                                                                  
G32  20978224.278   110241317.266       -2285.721          40.000                                                                  
> 2021 09 12 13 02 29.9979453  0  6                     
C06  36197975.663   188492521.467        -702.252          26.000  
C16  36768794.893   191464818.519        -659.586          29.000  
C32  23096639.929   120270217.426         231.458          27.000  
G29  23641057.337   124234613.671       -1411.905          26.000                                                                  
G31  21390445.203   112407738.153       -1919.604          28.000                                                                  
G32  20978330.104   110241871.141       -2287.093          38.000                                                                  
> 2021 09 12 13 02 30.9979446  0  6                     
C06  36197900.415   188492129.963        -701.713          26.000  
C16  36768712.150   191464385.399        -660.040          28.000  
C32  23096386.304   120268893.667         230.340          28.000  
G29  23641116.995   124234922.620       -1411.685          25.000                                                                  
G31  21390600.495   112408555.403       -1920.217          28.000                                                                  
G32  20978553.749   110243055.584       -2287.830          38.000                                                                  
> 2021 09 12 13 02 31.9979436  0  6                     
