     3.03           OBSERVATION DATA    M: Mixed            RINEX VERSION / TYPE
Geo++ RINEX Logger  Geo++               20210912 135942 UTC PGM / RUN BY / DATE
************************************************************COMMENT
This file was generated by the Geo++ RINEX Logger App       COMMENT
for Android devices (Version 2.1.6). If you encounter       COMMENT
any issues, please send an email to android@geopp.de        COMMENT
Filtering Mode: BEST                                        COMMENT
************************************************************COMMENT
Geo++                                                       MARKER NAME
GEODETIC                                                    MARKER TYPE
Geo++               Geo++                                   OBSERVER / AGENCY
unknown             HUAWEI              ELS-AN00            REC # / TYPE / VERS
unknown             ELS-AN00                                ANT # / TYPE
 -2418720.9508  5385477.4541  2405874.2756                  APPROX POSITION XYZ
        0.0000        0.0000        0.0000                  ANTENNA: DELTA H/E/N
G    8 C1C L1C D1C S1C C5Q L5Q D5Q S5Q                      SYS / # / OBS TYPES
R    4 C1C L1C D1C S1C                                      SYS / # / OBS TYPES
E   12 C1B L1B D1B S1B C1C L1C D1C S1C C5Q L5Q D5Q S5Q      SYS / # / OBS TYPES
C    4 C2I L2I D2I S2I                                      SYS / # / OBS TYPES
J    8 C1C L1C D1C S1C C5Q L5Q D5Q S5Q                      SYS / # / OBS TYPES
  2021     9    12    14     0    0.9981635     GPS         TIME OF FIRST OBS
 24 R01  1 R02 -4 R03  5 R04  6 R05  1 R06 -4 R07  5 R08  6 GLONASS SLOT / FRQ #
    R09 -2 R10 -5 R11  0 R12 -1 R13 -2 R14 -7 R15  0 R16 -1 GLONASS SLOT / FRQ #
    R17  4 R18 -3 R19  3 R20  2 R21  4 R22 -3 R23  3 R24  2 GLONASS SLOT / FRQ #
G L1C                                                       SYS / PHASE SHIFT
G L5Q -0.25000                                              SYS / PHASE SHIFT
R L1C                                                       SYS / PHASE SHIFT
E L1B                                                       SYS / PHASE SHIFT
E L1C +0.50000                                              SYS / PHASE SHIFT
E L5Q -0.25000                                              SYS / PHASE SHIFT
C L2I                                                       SYS / PHASE SHIFT
J L1C                                                       SYS / PHASE SHIFT
J L5Q -0.25000                                              SYS / PHASE SHIFT
 C1C    0.000 C1P    0.000 C2C    0.000 C2P    0.000        GLONASS COD/PHS/BIS
                                                            END OF HEADER
> 2021  9 12 14  0  0.9981635  0  3
G16  20727481.463   108923661.925          -0.771          26.000  
G26  20361987.989   107002887.547       -2384.966          29.000  
G32  22168192.280   116494793.139       -3898.043          21.000  
> 2021  9 12 14  0  1.9981624  0  3
G16  20727151.392   108921929.683          -0.039          30.000  
G26  20362111.504   107003540.315       -2386.569          33.000  
G32  22168603.295   116496958.014       -3898.618          23.000  
> 2021  9 12 14  0  2.9981619  0  3
G16  20727000.596   108921142.859          -1.911          28.000  
G26  20362414.594   107005139.079       -2387.070          32.000  
G32  22169195.685   116500069.906       -3899.512          22.000  
> 2021  9 12 14  0  3.9981609  0  3
G16  20726700.804   108919570.235          -3.901          33.000  
G26  20362571.085   107005950.344       -2387.333          33.000  
G32  22169639.678   116502394.336       -3899.367          21.000  
> 2021  9 12 14  0  4.9981601  0  2
G16  20726460.670   108918314.274          -4.699          29.000  
G32  22170142.130   116505031.684       -3896.671          22.000  
> 2021  9 12 14  0  5.9981591  0  3
G16  20726160.578   108916744.255          -5.739          31.000  
G26  20362944.027   107007890.0851      -2387.558          29.000  
G32  22170583.125   116507351.380       -3895.246          23.000  
> 2021  9 12 14  0  6.9981583  0  3
G16  20725919.844   108915490.618          -7.799          32.000  
G26  20363157.180   107009018.052       -2387.632          31.000  
G32  22171083.179   116509986.136       -3894.133          19.000  
> 2021  9 12 14  0  7.9981576  0  3
G16  20725722.281   108914394.988          -6.431          31.000  
G26  20363400.611   107010303.146       -2388.303          30.000  
G32  22171615.610   116512778.078       -3896.198          21.000  
> 2021  9 12 14  0  8.9981568  0  2
G16  20725482.747   108913141.878          -7.956          31.000  
G32  22172117.163   116515413.530       -3896.146          24.000  
> 2021  9 12 14  0  9.9981558  0  3
G16  20725182.055   108911574.515          -8.558          29.000  
G26  20363769.955   107012244.2881      -2388.496          30.000  
G32  22172558.757   116517735.483       -3897.210          24.000  
> 2021  9 12 14  0 10.9981550  0  3
G16  20724942.521   108910323.281          -9.440          29.000  
G26  20363983.408   107013373.495       -2390.391          34.000  
G32  22173058.211   116520371.893       -3897.478          23.000  
> 2021  9 12 14  0 11.9981545  0  3
G16  20724793.224   108909544.497          -8.545          30.000  
G26  20364287.097   107014976.248       -2390.907          30.000  
G32  22173651.201   116523481.707       -3900.020          22.000  
> 2021  9 12 14  0 12.9981535  0  2
G16  20724494.631   108907977.676          -9.435          31.000  
G26  20364442.690   107015791.796       -2390.716          30.000  
> 2021  9 12 14  0 13.9981527  0  3
G16  20724255.996   108906727.749          -9.888          31.000  
G26  20364658.240   107016922.212       -2390.845          30.000  
G32  22174602.742   116528447.6001      -3901.462          21.000  
> 2021  9 12 14  0 14.9981517  0  2
G16  20723961.600                          -9.660          32.000  
G26  20364812.933   107017738.544       -2391.979          35.000  
> 2021  9 12 14  0 15.9981512  0  4
C10  36813350.648   191696776.4721      -1020.050          31.000  
G16  20723813.502   108904377.6021        -14.291          34.000  
G26  20365119.321   107019342.551       -2391.935          30.000  
G32  22175644.521   116533888.7341      -3902.982          23.000  
> 2021  9 12 14  0 16.9981501  0  3
C10  36813217.540   191696079.490       -1019.938          31.000  
G16  20723485.230   108902657.944         -12.691          31.000  
G32  22176060.333   116536058.945       -3903.993          27.000  
> 2021  9 12 14  0 17.9981494  0  4
C10  36813204.949   191696005.768       -1018.256          28.000  
G16  20723275.675   108901567.440         -12.658          33.000  
G26  20365489.865   107021291.7461      -2393.484          31.000  
G32  22176595.163   116538861.038       -3903.736          23.000  
> 2021  9 12 14  0 18.9981484  0  2
C10  36813100.321   191695464.003       -1019.980          28.000  
G16  20722977.381   108900004.783         -13.046          35.000  
> 2021  9 12 14  0 19.9981478  0  3
C10  36813116.510   191695547.255       -1019.992          29.000  
G26  20365921.266   107023557.9441      -2393.983          29.000  
G32  22177600.667   116544145.8691      -3904.348          21.000  
> 2021  9 12 14  0 20.9981468  0  4
C10  36813013.381   191695006.484       -1020.478          24.000  
G16  20722502.810   108897509.4821        -13.894          33.000  
G26  20366078.357   107024377.433       -2395.695          32.000  
G32  22178045.858   116546474.480       -3903.419          23.000  
> 2021  9 12 14  0 21.9981460  0  3
C10  36812970.211   191694777.696       -1020.420          27.000  
G26  20366294.807   107025512.676       -2395.834          30.000  
G32  22178552.208   116549116.168       -3900.990          21.000  
> 2021  9 12 14  0 22.9981450  0  3
C10  36812866.483   191694236.679       -1019.187          28.000  
G16  20721971.278   108894704.4211        -16.799          30.000  
G26  20366453.398   107026333.191       -2396.598          34.000  
> 2021  9 12 14  0 23.9981445  0  3
C10  36812913.850   191694474.612       -1017.903          27.000  
G16  20721824.379   108893932.751         -15.659          30.000  
G26  20366759.486   107027941.489       -2395.548          32.000  
> 2021  9 12 14  0 24.9981435  0  4
C10  36812810.122   191693933.498       -1021.960          25.000  
G16  20721527.285   108892373.628         -17.065          29.000  
G26  20366915.078   107028761.680       -2396.127          32.000  
G32  22180030.484   116556888.3871      -3905.288          21.000  
> 2021  9 12 14  0 25.9981427  0  3
C10  36812766.052   191693706.092       -1021.392          25.000  
G16  20721289.550   108891130.572         -17.326          29.000  
G26  20367132.428   107029897.673       -2397.072          33.000  
> 2021  9 12 14  0 26.9981420  0  3
C10  36812751.363   191693634.572       -1021.418          28.000  
G16  20721083.293   108890045.701         -18.284          31.000  
G26  20367377.958   107031191.834       -2396.900          34.000  
> 2021  9 12 14  0 27.9981409  0  3
C10  36812616.756   191692937.517       -1019.046          30.000  
C32  22680737.252   118104530.2961      -1593.009          34.000  
G26  20367503.571   107031855.772       -2396.256          31.000  
> 2021  9 12 14  0 28.9981404  0  4
C10  36812662.024   191693177.378       -1021.674          29.000  
C32  22680892.545   118105344.123       -1595.618          35.000  
G16  20720611.119   108887564.3241        -21.151          25.000  
G26  20367809.659   107033464.121       -2395.755          28.000  
> 2021  9 12 14  0 29.9981394  0  4
C10  36812557.996   191692637.722       -1022.523          23.000  
C32  22680897.641                       -1594.287          36.000  
G16  20720315.824   108886010.091         -21.854          26.000  
G26  20367964.951   107034284.430       -2395.794          27.000  
> 2021  9 12 14  0 30.9981386  0  4
C10  36812515.126   191692411.829       -1024.765          23.000  
C32  22680962.097   118105732.5711      -1595.215          31.000  
G16  20720076.589   108884772.201         -23.082          23.000  
G26  20368180.202   107035419.250       -2395.022          28.000  
> 2021  9 12 14  0 31.9981376  0  2
C10  36812413.197   191691875.215       -1026.394          21.000  
C32  22680969.292   118105766.479       -1594.979          29.000  
> 2021  9 12 14  0 32.9981371  0  1
G26  20368645.780   107037849.4721      -2397.896          30.000  
> 2021  9 12 14  0 33.9981361  0  4
C06  35804063.363   186441119.2821       -733.044          28.000  
C23  23068835.078   120125477.7051      -2050.870          34.000  
G16  20719348.094   108880900.6461        -23.162          15.000  
G26  20368802.571   107038671.778       -2398.555          31.000  
> 2021  9 12 14  0 34.9981353  0  3
C06  35803963.532   186440604.488        -734.635          25.000  
C23  23068985.873   120126280.108       -2052.622          33.000  
G26  20369019.921   107039811.007       -2400.383          30.000  
> 2021  9 12 14  0 35.9981343  0  5
C06  35803805.541   186439777.585        -734.463          29.000  
C23  23069078.509   120126771.672       -2053.062          30.000  
C32  22681212.723   118107000.3261      -1599.514          21.000  
G26  20369177.612   107040636.750       -2402.191          29.000  
G32  22185437.241   116585374.9461      -3911.806          29.000  
> 2021  9 12 14  0 36.9981338  0  6
C06  35803795.948   186439730.565        -733.267          27.000  
C23  23069321.041   120128043.618       -2052.436          35.000  
C32  22681371.313   118107820.012       -1600.799          21.000  
G16  20718681.056   108877354.9851        -27.369          17.000  
G26  20369484.599   107042250.392       -2401.243          32.000  
G32  22186027.833   116588497.584       -3910.306          26.000  
> 2021  9 12 14  0 37.9981327  0  5
C06  35803607.678   186438747.161        -735.171          25.000  
C10  36812131.092   191690382.1101      -1022.163          17.000  
C23  23069383.098   120128378.775       -2051.491          30.000  
C32  22681348.529   118107703.350       -1600.947          24.000  
G26  20369612.011   107042918.312       -2400.990          33.000  
> 2021  9 12 14  0 38.9981320  0  3
C06  35803538.426   186438388.271        -733.259          29.000  
C23  23069567.771   120129337.339       -2051.340          29.000  
G26  20369859.040   107044215.577       -2401.731          29.000  
> 2021  9 12 14  0 39.9981312  0  4
C06  35803436.497   186437872.818        -734.217          31.000  
C23  23069719.466   120130140.128       -2052.228          26.000  
C32  22681512.815   118108566.1341      -1606.193          19.000  
G26  20370075.490   107045358.180       -2404.670          30.000  
> 2021  9 12 14  0 40.9981304  0  5
C06  35803336.966   186437358.131        -734.996          32.000  
C23  23069872.659   120130944.883       -2055.190          26.000  
C32  22681582.367   118108923.787       -1606.174          20.000  
G16  20717684.246   108872114.0001        -32.640          19.000  
G26  20370291.041   107046502.815       -2405.686          31.000  
> 2021  9 12 14  0 41.9981297  0  5
C06  35803267.714   186437000.463        -735.610          30.000  
C10  36812010.575   191689777.2131      -1023.589          15.000  
C23  23070057.931   120131907.774       -2055.855          27.000  
C32  22681681.299   118109436.901       -1606.092          20.000  
G26  20370540.168   107047805.810       -2404.689          32.000  
> 2021  9 12 14  0 42.9981286  0  2
C06  35803078.844   186436019.102        -735.796          23.000  
C23  23070119.688   120132245.764       -2055.441          24.000  
> 2021  9 12 14  0 43.9981279  0  6
C06  35803010.492   186435661.212        -735.789          23.000  
C23  23070303.761   120133207.729       -2054.445          27.000  
C32  22681766.440   118109842.3531      -1609.840          19.000  
G26  20370916.408   107049782.9531      -2405.738          27.000  
G31  21862468.728   114888047.9111      -2094.080          26.000  
J03  37218291.413   195583441.1591      -1273.794          26.000  
> 2021  9 12 14  0 44.9981271  0  6
C06  35802909.162   186435148.373        -737.513          21.000  
C10  36811818.109   191688774.5401      -1013.004          12.000  
C23  23070458.454   120134012.029       -2052.643          28.000  
G26  20371134.057   107050926.962       -2404.142          28.000  
G31  21862626.718   114888881.406       -2094.293          25.000  
J03  37218292.312   195583455.929       -1274.934          24.000  
> 2021  9 12 14  0 45.9981263  0  3
C06  35802811.429   186434636.488        -737.406          23.000  
C23  23070612.547   120134815.639       -2051.170          23.000  
G26  20371351.107   107052070.974       -2404.736          29.000  
> 2021  9 12 14  0 46.9981253  0  3
C06  35802651.940   186433813.561        -739.311          18.000  
C23  23070707.881   120135306.535       -2052.421          23.000  
G26  20371508.198   107052900.648       -2405.252          27.000  
> 2021  9 12 14  0 47.9981245  0  1
J03  37218226.058   195583176.5351      -1268.756          27.000  
> 2021  9 12 14  0 48.9981235  0  4
C23  23070965.403   120136601.8391      -2051.726          21.000  
G16  20715690.926   108861522.2371        -31.744          17.000  
G26  20371883.838   107054876.3331      -2405.109          23.000  
G31  21863151.655   114891575.1961      -2086.832          25.000  
> 2021  9 12 14  0 49.9981230  0  3
C06  35802384.225   186432436.6271       -734.086          23.000  
C23  23071208.834   120137871.989       -2050.193          28.000  
G26  20372191.425   107056493.750       -2404.883          31.000  
> 2021  9 12 14  0 50.9981220  0  2
C06  35802222.337   186431607.430        -731.171          21.000  
C23  23071302.370   120138361.169       -2050.745          32.000  
> 2021  9 12 14  0 51.9981212  0  5
C06  35802122.506   186431088.742        -730.394          22.000  
C16  36352407.452   189296381.1791       -716.146          20.000  
C23  23071453.465   120139162.946       -2051.566          31.000  
C37  23954460.972   124737290.6451       -503.875          26.000  
G16  20715015.793   108857996.2651        -32.377          19.000  
> 2021  9 12 14  0 52.9981204  0  5
C06  35802021.776   186430569.780        -730.236          21.000  
C16  36352304.024   189295847.724        -716.121          20.000  
C23  23071608.158                       -2053.583          30.000  
C37  23954314.373   124736546.501        -505.649          25.000  
G26  20372801.803   107059614.1231      -2407.925          29.000  
> 2021  9 12 14  0 53.9981197  0  5
C06  35801952.224   186430206.915        -731.029          22.000  
C16  36352231.774   189295471.978        -717.699          23.000  
C23  23071788.933                       -2052.840          31.000  
G16  20714573.299   108855699.5791        -36.510          20.000  
G26  20373055.727   107060919.808       -2408.953          30.000  
> 2021  9 12 14  0 54.9981189  0  6
C06  35801854.792   186429689.122        -731.428          26.000  
C16  36352129.844   189294941.434        -717.966          21.000  
C23  23071944.825   120141679.3871      -2051.516          30.000  
G03                                                                  23078835.854                        -964.825          26.000  
G26  20373276.374   107062068.735       -2409.953          29.000  
G32  22194940.662   116635200.1301      -3918.319          26.000  
> 2021  9 12 14  0 55.9981179  0  7
C06  35801695.602   186428860.571        -732.694          25.000  
C16  36351968.856   189294099.098        -718.060          22.000  
C23  23072040.459   120142169.603       -2052.474          32.000  
G03                                                                  23078782.192                        -966.785          24.000  
G16  20714045.964   108852945.0861        -46.274          18.000  
J01  36031225.402   189345366.5531      -1046.278          21.000  
J03  37218192.781   195582932.4871      -1269.350          26.000  
> 2021  9 12 14  0 56.9981171  0  8
C06  35801597.870   186428344.720        -733.592          25.000  
C16  36351870.823   189293568.427        -717.537          22.000  
C23  23072194.252   120142972.949       -2053.316          33.000  
G03                                                                  23078789.986    90566124.6081       -967.510          27.000  
G16  20713815.724   108851733.312         -52.633          17.000  
G26  20373651.415   107064053.9391      -2411.546          28.000  
J01  36031182.232   189345151.169       -1044.147          20.000  
J03  37218196.079   195582942.201       -1271.051          26.000  
> 2021  9 12 14  0 57.9981164  0  6
C06  35801529.817   186427985.098        -733.539          25.000  
C23  23072378.625   120143932.994       -2052.577          30.000  
G03                                                                  23078826.861    90566269.844        -969.006          24.000  
G16  20713614.563   108850686.285         -59.761          15.000  
G26  20373898.444   107065362.790       -2411.571          32.000  
J03  37218229.356   195583110.556       -1272.023          25.000  
> 2021  9 12 14  0 58.9981156  0  8
C06  35801432.684   186427470.263        -734.984          25.000  
C16  36351695.145   189292665.6991       -720.221          24.000  
C23  23072532.718   120144736.578       -2052.059          30.000  
C37  23953464.761   124732093.9511       -506.701          24.000  
G03                                                                  23078835.854    90566297.661        -969.193          25.000  
G16  20713388.220   108849486.281         -58.934          13.000  
J01  36031124.671   189344875.8881      -1044.565          23.000  
J03  37218229.656   195583122.231       -1272.705          25.000  
> 2021  9 12 14  0 59.9981146  0  9
C06  35801277.991   186426645.281        -737.928          21.000  
C16  36351533.857   189291823.015        -717.051          23.000  
C23  23072626.253   120145227.491       -2052.611          31.000  
C37  23953263.301   124731037.649        -503.466          25.000  
G03                                                                  23078782.192    90566090.145        -968.764          24.000  
G26  20374273.184   107067348.9681      -2409.844          34.000  
G32  22197347.396   116648027.8101      -3921.304          26.000  
J01  36031021.543   189344345.629       -1045.596          24.000  
J03  37218171.796   195582819.862       -1273.960          23.000  
> 2021  9 12 14  1  0.9981138  0  6
C06  35801181.458   186426134.709        -738.621          25.000  
C23  23072781.546   120146030.939       -2052.907          28.000  
C37  23953120.000   124730292.028        -503.499          22.000  
G26  20374488.435   107068499.054       -2411.204          31.000  
G32  22197847.450   116650688.498       -3921.582          29.000  
J01  36030978.373   189344134.008       -1049.716          17.000  
> 2021  9 12 14  1  1.9981130  0  4
C23  23072936.239   120146834.607       -2053.007          19.000  
C37  23952978.198   124729548.656        -506.398          29.000  
G26  20374705.185   107069650.598       -2412.562          31.000  
G32  22198350.202   116653350.013       -3922.289          28.000  
> 2021  9 12 14  1  2.9981123  0  5
C06  35801018.671   186425265.7921       -736.044          18.000  
C23  23073124.208   120147794.461       -2052.539          24.000  
C37  23952865.176   124728961.717        -505.081          26.000  
G26  20374948.617   107070961.885       -2414.312          21.000  
G32  22198883.533   116656169.715       -3924.033          28.000  
> 2021  9 12 14  1  3.9981112  0  5
C06  35800831.600   186424286.628        -739.982          19.000  
C23  23073193.161   120148130.694       -2056.634          26.000  
C37  23952632.538   124727748.778        -504.786          29.000  
G26  20375078.727   107071643.535       -2416.756          25.000  
G32  22199299.045   116658362.004       -3928.616          25.000  
> 2021  9 12 14  1  4.9981105  0  6
C06  35800764.746   186423935.372        -742.504          20.000  
C23  23073380.231   120149093.960       -2054.743          23.000  
C37  23952520.415   124727161.559        -506.598          29.000  
G16  20711909.943   108841794.8221        -54.935          16.000  
G26  20375327.854   107072958.072       -2417.727          24.000  
G32  22199835.674   116660923.837       -3927.891          26.000  
> 2021  9 12 14  1  5.9981097  0  7
C06  35800667.913   186423430.111        -743.576          19.000  
C16  36350894.399   189288481.2521       -717.395          23.000  
C23  23073534.325   120149899.264       -2054.392          24.000  
C37  23952379.513   124726419.652        -507.502          33.000  
G26  20375545.503   107074114.936       -2416.009          26.000  
G32  22200341.723   116663590.725       -3926.134          28.000  
J03  37218137.619   195582747.7941      -1275.119          19.000  
> 2021  9 12 14  1  6.9981089  0  5
C06  35800572.579   186422922.081        -740.401          19.000  
C16  36350793.369   189287950.578        -717.903          19.000  
C23  23073690.816   120150703.809       -2053.470          24.000  
C37  23952238.011   124725679.500        -510.284          27.000  
G26  20375764.951   107075270.428       -2415.940          24.000  
> 2021  9 12 14  1  7.9981079  0  4
C06  35800416.687   186422100.189        -738.220          20.000  
C23  23073788.249   120151195.561       -2051.856          22.000  
G16  20711155.066   108837851.1571        -46.032          14.000  
G26  20375923.542   107076110.836       -2415.402          24.000  
> 2021  9 12 14  1  8.9981071  0  5
C06  35800322.253   186421588.381        -737.440          20.000  
C23  23073942.042   120152000.384       -2055.600          24.000  
C37  23951901.044   124723887.8221       -508.773          22.000  
G16  20710920.928   108836638.455         -47.477          15.000  
G26  20376144.489   107077266.857       -2416.183          24.000  
> 2021  9 12 14  1  9.9981064  0  3
C23  23074127.914   120152963.858       -2057.491          27.000  
C37  23951791.919   124723304.631        -509.360          22.000  
G26  20376393.616   107078581.100       -2417.462          24.000  
> 2021  9 12 14  1 10.9981056  0  3
C06  35800152.870   186420722.6731       -739.424          20.000  
C23  23074282.906   120153772.346       -2058.408          24.000  
G26  20376613.064   107079739.289       -2418.236          26.000  
> 2021  9 12 14  1 11.9981046  0  3
C23  23074377.941   120154269.151       -2057.848          25.000  
G16  20710181.340   108832841.5561        -49.627          26.000  
G26  20376772.254   107080582.048       -2418.547          26.000  
> 2021  9 12 14  1 12.9981038  0  4
C06  35799893.549   186419389.1321       -738.621          20.000  
C23  23074534.132   120155078.583       -2058.635          24.000  
G16  20709946.602   108831631.589         -50.854          29.000  
G26  20376993.201   107081740.786       -2420.459          24.000  
> 2021  9 12 14  1 13.9981030  0  6
C06  35799795.817   186418879.190        -739.986          19.000  
C23  23074687.326   120155887.339       -2057.090          22.000  
C37  23951175.846   124720036.6551       -511.535          17.000  
G16  20709710.666   108830419.263         -48.565          27.000  
G26  20377212.949   107082900.131       -2418.925          22.000  
G32  22204328.064   116684471.2611      -3931.514          21.000  
> 2021  9 12 14  1 14.9981023  0  4
C06  35799727.764   186418525.220        -738.013          19.000  
C23  23074871.999   120156851.701       -2057.627          25.000  
G16  20709508.006   108829367.242         -51.959          31.000  
G26  20377465.974   107084216.895       -2420.920          25.000  
> 2021  9 12 14  1 15.9981015  0  4
C23  23075025.792   120157660.667       -2056.660          23.000  
C37  23950924.320   124718714.1541       -509.363          18.000  
G16  20709275.667   108828159.575         -53.516          30.000  
G26  20377690.518   107085378.315       -2421.259          25.000  
> 2021  9 12 14  1 16.9981005  0  2
G16  20708984.269   108826637.697         -53.984          30.000  
G26  20377851.807   107086223.010       -2420.088          28.000  
> 2021  9 12 14  1 17.9980997  0  3
C37  23950584.056   124716921.7071       -508.313          17.000  
G16  20708754.328   108825431.054         -53.807          25.000  
G26  20378074.852   107087383.268       -2421.427          25.000  
> 2021  9 12 14  1 18.9980989  0  2
C23  23075416.721   120159766.6471      -2054.774          15.000  
G26  20378294.300   107088543.899       -2421.193          22.000  
> 2021  9 12 14  1 19.9980982  0  3
C23  23075599.295   120160727.030       -2053.711          18.000  
G16  20708324.126   108823180.0791        -58.220          28.000  
G26  20378543.728   107089861.950       -2421.633          26.000  
> 2021  9 12 14  1 20.9980972  0  2
C23  23075691.931   120161221.151       -2055.977          19.000  
G26  20378705.915   107090708.624       -2422.861          25.000  
> 2021  9 12 14  1 21.9980964  0  2
G16  20707808.482   108820460.7491        -58.048          30.000  
G26  20378925.963   107091871.090       -2423.405          26.000  
> 2021  9 12 14  1 22.9980956  0  1
G26  20379146.910   107093034.572       -2424.014          25.000  
> 2021  9 12 14  1 23.9980948  0  3
G16  20707354.597   108818057.0951        -62.716          31.000  
G26  20379367.857   107094199.058       -2424.880          25.000  
G32  22209409.846   116711236.1961      -3934.875          18.000  
> 2021  9 12 14  1 24.9980938  0  2
G16  20707068.895   108816543.478         -61.535          29.000  
G26  20379527.347   107095049.368       -2426.281          26.000  
> 2021  9 12 14  1 25.9980931  0  2
G16  20706871.031   108815502.074         -61.732          26.000  
G26  20379777.374   107096372.762       -2426.086          26.000  
> 2021  9 12 14  1 26.9980923  0  3
G16  20706641.091   108814302.600         -59.317          26.000  
G26  20379998.321   107097538.378       -2425.228          29.000  
G32  22210913.904   116719099.3071      -3932.851          20.000  
> 2021  9 12 14  1 27.9980915  0  2
G26  20380218.069   107098704.220       -2428.732          27.000  
G32  22211424.451   116721773.325       -3935.855          30.000  
> 2021  9 12 14  1 28.9980905  0  2
G26  20380377.858   107099556.570       -2427.420          27.000  
G32  22211875.339   116724134.652       -3937.382          28.000  
> 2021  9 12 14  1 29.9980897  0  2
G26  20380600.004   107100723.234       -2426.706          26.000  
G32  22212387.684   116726811.569       -3937.084          30.000  
> 2021  9 12 14  1 30.9980890  0  3
G16  20705700.342   108809339.5801        -57.905          24.000  
G26  20380851.830   107102046.342       -2425.259          30.000  
G32  22212929.109   116729645.083       -3935.554          28.000  
> 2021  9 12 14  1 31.9980882  0  4
G16  20705472.200   108808138.194         -60.084          23.000  
G26  20381071.878   107103211.608       -2425.895          35.000  
G32  22213439.356   116732320.708       -3936.944          31.000  
J03  37217996.717   195582053.6241      -1275.448          25.000  
> 2021  9 12 14  1 32.9980874  0  3
G16  20705240.760   108806938.218         -61.522          22.000  
G26  20381292.525   107104377.448       -2426.994          32.000  
J03  37218002.713   195582069.831       -1277.867          17.000  
> 2021  9 12 14  1 33.9980864  0  2
G16  20704953.859   108805425.796         -64.793          25.000  
G26  20381453.513   107105229.747       -2428.148          26.000  
> 2021  9 12 14  1 34.9980856  0  2
G16  20704728.115   108804230.829         -66.619          26.000  
G26  20381673.861   107106397.753       -2428.567          26.000  
> 2021  9 12 14  1 35.9980849  0  2
G16  20704530.852   108803195.786         -69.749          24.000  
G26  20381924.787   107107725.447       -2430.535          26.000  
> 2021  9 12 14  1 36.9980841  0  2
G16  20704304.208   108802005.571         -69.954          27.000  
G26  20382147.833   107108897.408       -2433.984          25.000  
> 2021  9 12 14  1 37.9980831  0  2
G16  20704015.808   108800499.403         -69.503          26.000  
G26  20382313.318   107109756.738       -2434.550          25.000  
> 2021  9 12 14  1 38.9980823  0  2
G16  20703788.565   108799308.727         -69.853          27.000  
G26  20382537.563   107110930.940       -2434.389          25.000  
> 2021  9 12 14  1 39.9980815  0  2
G16  20703560.723   108798119.345         -71.931          28.000  
G26  20382763.307   107112104.821       -2434.798          25.000  
> 2021  9 12 14  1 40.9980808  0  1
G16  20703364.959   108797087.612         -71.788          26.000  
> 2021  9 12 14  1 41.9980797  0  1
G16  20703048.378   108795426.908         -73.526          25.000  
> 2021  9 12 14  1 42.9980790  0  2
G16  20702855.312   108794397.298         -73.375          25.000  
G26  20383415.055   107115473.5531      -2437.362          22.000  
> 2021  9 12 14  1 43.9980782  0  1
G26  20383637.501   107116650.342       -2436.934          23.000  
> 2021  9 12 14  1 44.9980774  0  3
G16  20702410.719   108792021.9971        -73.542          22.000  
G26  20383861.446   107117826.881       -2436.611          22.000  
G32  22219932.261   116766570.8121      -3948.270          17.000  
> 2021  9 12 14  1 45.9980764  0  2
G16  20702125.017   108790520.613         -75.147          27.000  
G26  20384026.932   107118688.117       -2437.285          26.000  
> 2021  9 12 14  1 46.9980756  0  2
G16  20701898.374   108789336.140         -76.471          29.000  
G32  22220879.905   116771631.3791      -3947.727          17.000  
> 2021  9 12 14  1 47.9980749  0  2
G16  20701703.509   108788310.290         -78.727          25.000  
G26  20384503.602   107121201.6531      -2439.622          22.000  
> 2021  9 12 14  1 48.9980741  0  3
G16  20701477.765   108787127.890         -78.608          21.000  
G26  20384726.048   107122380.762       -2438.394          23.000  
G32  22221922.283   116777160.6421      -3945.071          19.000  
> 2021  9 12 14  1 49.9980731  0  3
G16  20701194.161   108785631.354         -78.363          22.000  
G26  20384887.336   107123245.009       -2440.292          23.000  
G32  22222370.173   116779529.314       -3944.468          19.000  
> 2021  9 12 14  1 50.9980723  0  1
G16  20700967.818   108784449.748         -80.608          19.000  
> 2021  9 12 14  1 51.9980716  0  0
> 2021  9 12 14  1 52.9980708  0  2
G16  20700555.304   108782249.5131        -81.344          20.000  
G32  22223924.597   116787720.3531      -3941.941          17.000  
> 2021  9 12 14  1 53.9980698  0  2
G26  20385761.831   107127809.7371      -2442.046          18.000  
G32  22224373.087   116790089.144       -3949.487          16.000  
> 2021  9 12 14  1 54.9980690  0  0
> 2021  9 12 14  1 55.9980680  0  2
G16  20699759.055   108778089.6281        -83.012          19.000  
G32  22225340.517   116795157.7071      -3958.485          14.000  
> 2021  9 12 14  1 56.9980675  0  1
G32  22225947.297   116798331.889       -3966.590          12.000  
> 2021  9 12 14  1 57.9980664  0  2
G16  20699307.867   108775735.1891        -83.180          19.000  
G26  20386594.055   107132215.6491      -2440.085          18.000  
> 2021  9 12 14  1 58.9980657  0  3
G16  20699111.803   108774715.875         -83.653          25.000  
G26  20386846.480   107133553.330       -2441.138          19.000  
G32  22226921.023   116803426.0901      -3961.920          13.000  
> 2021  9 12 14  1 59.9980649  0  1
G16  20698886.359   108773540.524         -86.077          21.000  
> 2021  9 12 14  2  0.9980641  0  2
G16  20698660.316   108772364.935         -84.227          21.000  
G32  22227952.309   116808822.7791      -3955.171          16.000  
> 2021  9 12 14  2  1.9980634  0  1
G16  20698467.549   108771345.944         -84.030          22.000  
> 2021  9 12 14  2  2.9980623  0  3
G16  20698151.868   108769696.316         -83.105          24.000  
G26  20387677.205   107137966.3351      -2442.838          20.000  
G32  22228921.238   116813895.9391      -3953.173          19.000  
> 2021  9 12 14  2  3.9980616  0  1
G16  20697957.902   108768676.537         -85.064          22.000  
> 2021  9 12 14  2  4.9980608  0  1
G16  20697734.856   108767501.144         -86.130          24.000  
> 2021  9 12 14  2  5.9980600  0  2
G16  20697512.111   108766326.957         -86.355          21.000  
G26  20388377.220   107141672.9891      -2446.858          21.000  
> 2021  9 12 14  2  6.9980590  0  2
G16  20697230.905   108764838.023         -86.606          23.000  
G32  22230945.737   116824526.1651      -3958.647          17.000  
> 2021  9 12 14  2  7.9980582  0  0
> 2021  9 12 14  2  8.9980575  0  0
> 2021  9 12 14  2  9.9980567  0  1
G26  20389249.616   107146264.5231      -2448.076          17.000  
> 2021  9 12 14  2 10.9980557  0  1
G32  22232961.241   116835159.8961      -3959.445          16.000  
> 2021  9 12 14  2 11.9980549  0  1
G16  20696089.595   108758824.1301        -95.215          17.000  
> 2021  9 12 14  2 12.9980541  0  1
G16  20695865.051   108757658.677         -93.254          18.000  
> 2021  9 12 14  2 13.9980534  0  1
G26  20390112.419   107150843.3301      -2445.502          25.000  
> 2021  9 12 14  2 14.9980524  0  1
G16  20695389.580   108755163.5521        -90.796          20.000  
> 2021  9 12 14  2 15.9980516  0  1
G26  20390494.055   107152899.1271      -2446.320          25.000  
> 2021  9 12 14  2 16.9980508  0  2
G16  20694938.992   108752824.9341        -91.336          26.000  
G26  20390716.201   107154085.766       -2448.157          23.000  
> 2021  9 12 14  2 17.9980500  0  2
G16  20694714.148   108751656.729         -92.879          26.000  
G26  20390940.446   107155274.389       -2449.840          25.000  
> 2021  9 12 14  2 18.9980490  0  3
G16  20694429.345   108750174.674         -93.127          24.000  
G26  20391105.931   107156149.138       -2449.854          28.000  
G32  22236949.080   116855955.3991      -3962.402          24.000  
> 2021  9 12 14  2 19.9980483  0  3
G16  20694234.480   108749165.241         -93.896          22.000  
G26  20391360.455   107157495.677       -2449.304          26.000  
G32  22237490.206   116858815.867       -3964.016          30.000  
> 2021  9 12 14  2 20.9980472  0  3
G16  20693922.995   108747526.044         -95.295          23.000  
G26  20391496.261   107158212.241       -2450.152          26.000  
G32  22237914.412   116861047.051       -3965.097          26.000  
> 2021  9 12 14  2 21.9980467  0  3
G16  20693791.686   108746834.048         -96.543          24.000  
G26  20391809.544   107159874.412       -2449.787          27.000  
G32  22238514.896   116864224.422       -3964.864          26.000  
> 2021  9 12 14  2 22.9980457  0  3
G16  20693507.783   108745354.554         -95.470          24.000  
G26  20391974.730   107160749.311       -2450.467          25.000  
G32  22238965.784   116866613.815       -3965.306          26.000  
> 2021  9 12 14  2 23.9980449  0  2
G16  20693284.737   108744189.045         -94.592          25.000  
G32  22239479.029   116869318.833       -3965.666          30.000  
> 2021  9 12 14  2 24.9980442  0  3
G16  20693088.073   108742911.761         -94.833          24.000  
G26  20392459.494   107163286.3451      -2448.880          24.000  
G32  22240022.253   116872182.223       -3966.212          30.000  
> 2021  9 12 14  2 25.9980434  0  4
G16  20692867.426   108741747.510         -97.229          26.000  
G26  20392685.238   107164475.503       -2449.585          28.000  
G32  22240535.797   116874888.066       -3965.854          36.000  
J03  37217662.748   195580137.5971      -1283.722          30.000  
> 2021  9 12 14  2 26.9980426  0  2
G16  20692645.879   108740585.059         -98.168          25.000  
J03  37217667.245   195580160.482       -1282.272          30.000  
> 2021  9 12 14  2 27.9980416  0  4
C32  22688594.213   118145616.4771      -1667.181          28.000  
G16  20692367.072   108739107.134         -96.738          20.000  
G26  20393077.966   107166539.1411      -2449.278          24.000  
J03  37217612.083   195579867.123       -1281.233          30.000  
> 2021  9 12 14  2 28.9980408  0  4
C32  22688673.358   118146034.839       -1667.091          28.000  
G26  20393301.911   107167729.102       -2451.581          25.000  
G32  22242020.370   116882680.7961      -3961.912          27.000  
J03  37217617.779   195579887.171       -1280.169          31.000  
> 2021  9 12 14  2 29.9980401  0  5
C32  22688782.183   118146609.311       -1667.784          29.000  
G16  20691953.659   108736941.9651        -99.954          17.000  
G26  20393557.334   107169078.654       -2453.347          26.000  
G32  22242564.193   116885540.115       -3963.525          30.000  
J03  37217652.255   195580064.090       -1279.428          27.000  
> 2021  9 12 14  2 30.9980393  0  5
C32  22688861.328   118147028.504       -1667.795          31.000  
G16  20691729.414   108735782.196         -99.924          16.000  
G26  20393783.378   107170270.974       -2452.655          28.000  
G32  22243079.536   116888243.279       -3963.281          29.000  
J03  37217654.054   195580083.446       -1279.099          23.000  
> 2021  9 12 14  2 31.9980383  0  5
C01  37325624.608   194364321.7841      -1295.703          29.000  
C32  22688876.618   118147135.894       -1668.929          27.000  
G16  20691448.508   108734305.549         -97.934          25.000  
G26  20393950.362   107171149.957       -2457.210          21.000  
G32  22243534.621   116890631.357       -3964.236          30.000  
> 2021  9 12 14  2 32.9980375  0  3
C32  22688952.165   118147556.074       -1669.484          26.000  
G32  22244049.665   116893335.222       -3964.307          30.000  
J03  37217605.788   195579806.5911      -1281.656          28.000  
> 2021  9 12 14  2 33.9980367  0  3
G16  20691005.115   108731980.5121        -97.378          18.000  
G26  20394409.344   107173541.6681      -2455.125          25.000  
G31  21878930.931   114974557.7751      -2103.672          28.000  
> 2021  9 12 14  2 34.9980360  0  3
C32  22689151.227   118148560.6951      -1676.623          27.000  
G16  20690811.749   108730976.115         -99.040          25.000  
G26  20394667.166   107174894.784       -2457.052          31.000  
> 2021  9 12 14  2 35.9980349  0  4
C32  22689142.833   118148520.539       -1678.158          23.000  
G16  20690500.864   108729344.096        -101.699          24.000  
G26  20394804.171   107175619.548       -2458.064          30.000  
G31  21879186.354   114975931.5521      -2106.815          18.000  
> 2021  9 12 14  2 36.9980342  0  4
C32  22689254.056   118149106.287       -1678.580          21.000  
G16  20690309.297   108728344.499        -104.044          24.000  
G26  20395061.693   107176974.762       -2458.047          29.000  
G32  22246084.956   116904004.1291      -3966.792          20.000  
> 2021  9 12 14  2 37.9980334  0  2
C32  22689336.499   118149534.436       -1676.930          21.000  
G26  20395289.535   107178172.096       -2457.683          30.000  
> 2021  9 12 14  2 38.9980326  0  2
C32  22689420.441   118149963.476       -1676.797          20.000  
G26  20395516.778   107179369.826       -2458.083          30.000  
> 2021  9 12 14  2 39.9980316  0  4
C32  22689443.525   118150078.523       -1676.823          24.000  
G16  20689593.692   108724567.2171       -107.214          23.000  
G26  20395685.261   107180253.519       -2459.732          32.000  
G32  22247584.818   116911817.3301      -3975.547          20.000  
> 2021  9 12 14  2 40.9980308  0  4
C32  22689525.069   118150507.289       -1678.162          25.000  
G16  20689374.544   108723412.909        -105.223          24.000  
G26  20395913.703   107181453.579       -2463.633          34.000  
G32  22248102.859   116914533.165       -3977.191          21.000  
> 2021  9 12 14  2 41.9980298  0  3
C32  22689545.455   118150624.515       -1677.808          24.000  
G16  20689095.137   108721943.299        -105.560          27.000  
G26  20396081.587   107182341.111       -2461.800          28.000  
> 2021  9 12 14  2 42.9980293  0  3
C32  22689719.334   118151523.251       -1679.571          23.000  
G16  20688965.627   108721262.050        -107.154          27.000  
G26  20396398.767   107184014.763       -2461.443          29.000  
> 2021  9 12 14  2 43.9980285  0  3
C32  22689803.276   118151953.449       -1677.530          22.000  
G16  20688747.678   108720109.326        -105.463          28.000  
G26  20396625.710   107185215.332       -2460.964          27.000  
> 2021  9 12 14  2 44.9980275  0  2
C32  22689826.360   118152070.558       -1679.734          20.000  
G16  20688465.873   108718640.067        -107.852          19.000  
> 2021  9 12 14  2 45.9980268  0  1
C32  22689940.881   118152658.108       -1680.732          21.000  
> 2021  9 12 14  2 46.9980260  0  1
G26  20397285.853   107188665.6011      -2463.882          24.000  
> 2021  9 12 14  2 47.9980252  0  2
C32  22690107.266   118153519.4101      -1678.368          17.000  
G26  20397516.393   107189869.042       -2464.560          27.000  
> 2021  9 12 14  2 48.9980242  0  2
G16  20687563.798   108713879.8211       -112.459          21.000  
G26  20397685.176   107190758.266       -2465.029          26.000  
> 2021  9 12 14  2 49.9980234  0  2
G16  20687346.148   108712732.294        -113.448          20.000  
G26  20397914.218   107191963.395       -2466.349          25.000  
> 2021  9 12 14  2 50.9980227  0  2
C32  22690330.611   118154654.2461      -1680.778          17.000  
G26  20398174.438   107193327.048       -2465.961          25.000  
> 2021  9 12 14  2 51.9980219  0  2
G26  20398403.479   107194532.217       -2465.383          24.000  
G32  22253765.938   116944252.7821      -3975.315          21.000  
> 2021  9 12 14  2 52.9980209  0  1
G26  20398573.461   107195422.123       -2464.468          22.000  
> 2021  9 12 14  2 53.9980201  0  3
G16  20686458.163   108707999.1311       -119.612          18.000  
G26  20398802.503   107196625.345       -2464.363          24.000  
G32  22254723.476   116949372.0461      -3979.935          23.000  
> 2021  9 12 14  2 54.9980193  0  3
G16  20686239.315   108706859.484        -120.101          18.000  
G26  20399031.844   107197829.404       -2465.270          27.000  
G32  22255236.720   116952092.954       -3982.056          27.000  
> 2021  9 12 14  2 55.9980186  0  1
G26  20399292.364   107199192.269       -2465.791          25.000  
> 2021  9 12 14  2 56.9980175  0  2
G26  20399431.168   107199925.240       -2465.665          27.000  
G32  22256204.750   116957223.2491      -3983.849          26.000  
> 2021  9 12 14  2 57.9980168  0  2
G26  20399690.488   107201288.134       -2467.637          28.000  
G32  22256750.372   116960102.913       -3981.513          25.000  
> 2021  9 12 14  2 58.9980160  0  2
G26  20399923.127   107202495.866       -2468.611          31.000  
G32  22257265.116   116962824.603       -3982.327          25.000  
> 2021  9 12 14  2 59.9980152  0  2
G26  20400154.267   107203704.264       -2469.396          30.000  
G32  22257779.860   116965546.552       -3982.814          27.000  
> 2021  9 12 14  3  0.9980142  0  3
G16  20684844.980   108699521.5361       -118.803          19.000  
G26  20400327.847   107204598.112       -2469.283          27.000  
G32  22258236.743   116967953.766       -3982.874          31.000  
> 2021  9 12 14  3  1.9980134  0  3
G16  20684623.433   108698380.241        -119.082          19.000  
G26  20400557.788   107205806.831       -2469.217          28.000  
G32  22258752.386   116970676.268       -3983.581          24.000  
> 2021  9 12 14  3  2.9980124  0  2
G26  20400727.170   107206701.330       -2470.761          31.000  
G32  22259209.570   116973083.172       -3980.759          24.000  
> 2021  9 12 14  3  3.9980119  0  1
G26  20401047.649   107208384.454       -2470.951          34.000  
> 2021  9 12 14  3  4.9980109  0  1
G26  20401217.331   107209283.019       -2473.749          32.000  
> 2021  9 12 14  3  5.9980101  0  2
G26  20401444.874   107210495.042       -2471.740          28.000  
G32  22260795.472   116981396.9511      -3982.979          25.000  
> 2021  9 12 14  3  6.9980091  0  2
G26  20401614.256   107211391.208       -2471.600          30.000  
G32  22261255.953   116983806.691       -3986.243          25.000  
> 2021  9 12 14  3  7.9980086  0  3
G16  20683287.858   108691535.1911       -117.584          27.000  
G26  20401932.636   107213074.535       -2470.799          30.000  
G32  22261866.930   116987006.127       -3988.145          26.000  
> 2021  9 12 14  3  8.9980076  0  3
G16  20683005.453   108690078.674        -120.639          24.000  
G26  20402102.019   107213969.981       -2470.544          30.000  
G32  22262324.713   116989419.656       -3988.948          26.000  
> 2021  9 12 14  3  9.9980068  0  3
G16  20682786.005   108688939.593        -121.430          22.000  
G26  20402332.259   107215181.136       -2472.586          27.000  
G32  22262845.753   116992148.901       -3990.597          25.000  
> 2021  9 12 14  3 10.9980058  0  3
G16  20682508.997   108687485.961        -122.586          24.000  
G26  20402504.040   107216077.962       -2472.431          28.000  
G32  22263306.234   116994564.248       -3991.258          24.000  
> 2021  9 12 14  3 11.9980052  0  3
G16  20682351.606   108686663.134        -122.832          24.000  
G26  20402795.139   107217605.530       -2473.663          28.000  
G32  22263886.932   116997609.413       -3989.789          24.000  
> 2021  9 12 14  3 12.9980042  0  2
G16  20682073.998   108685209.244        -120.508          25.000  
G26  20402965.121   107218504.180       -2475.545          30.000  
> 2021  9 12 14  3 13.9980035  0  3
G16  20681887.527   108684226.150        -120.324          25.000  
G26  20403224.442   107219876.980       -2476.147          27.000  
G32  22264893.935   117002906.4661      -3987.096          21.000  
> 2021  9 12 14  3 14.9980024  0  3
G16  20681580.540   108682614.274        -121.854          24.000  
G26  20403363.545   107220619.823       -2475.411          28.000  
G32  22265323.237   117005160.790       -3987.325          26.000  
> 2021  9 12 14  3 15.9980019  0  4
C23  23092580.439                       -2069.390          34.000  
G16  20681453.428   108681950.195        -124.281          25.000  
G26  20403683.124   107222307.344       -2475.230          27.000  
G32  22265931.516   117008361.576       -3990.195          22.000  
> 2021  9 12 14  3 16.9980009  0  4
C23  23092679.671   120249632.8091      -2069.379          33.000  
G16  20681177.619   108680498.726        -124.061          25.000  
G26  20403853.706   107223207.972       -2475.668          28.000  
G32  22266392.897   117010776.374       -3990.513          22.000  
> 2021  9 12 14  3 17.9980001  0  4
C23  23092835.862   120250451.822       -2067.315          33.000  
G16  20680960.569   108679362.858        -124.547          27.000  
G26  20404086.045   107224423.677       -2476.805          27.000  
G32  22266913.636   117013505.926       -3989.497          24.000  
> 2021  9 12 14  3 18.9979991  0  4
C23  23092932.396   120250958.336       -2067.669          34.000  
G16  20680684.460   108677912.809        -125.937          25.000  
G26  20404257.826   107225325.433       -2477.900          28.000  
G32  22267371.120   117015919.903       -3991.270          24.000  
> 2021  9 12 14  3 19.9979986  0  4
C23  23093178.525   120252245.768       -2068.617          33.000  
G16  20680557.948   108677251.633        -127.188          25.000  
G26  20404581.302   107227015.178       -2477.760          26.000  
G32  22267982.996   117019123.285       -3991.844          22.000  
> 2021  9 12 14  3 20.9979976  0  4
C23  23093276.857   120252753.412       -2068.091          34.000  
G16  20680281.539   108675802.567        -125.824          25.000  
G26  20404753.083   107227917.171       -2478.391          28.000  
G32  22268441.079   117021540.066       -3993.146          28.000  
> 2021  9 12 14  3 21.9979968  0  3
C23  23093435.747                       -2066.421          33.000  
G26  20404985.423   107229134.444       -2477.571          27.000  
G32  22268961.219   117024273.156       -3993.327          27.000  
> 2021  9 12 14  3 22.9979958  0  3
C23  23093530.781   120254086.3521      -2066.809          35.000  
G26  20405157.803   107230036.539       -2477.910          29.000  
G32  22269421.101   117026691.437       -3994.468          28.000  
> 2021  9 12 14  3 23.9979953  0  4
C23  23093776.611   120255374.077       -2068.751          35.000  
G16  20679669.962   108672568.8161       -130.684          24.000  
G26  20405482.778   107231728.253       -2479.980          26.000  
G32  22270031.778   117029898.806       -3995.417          30.000  
> 2021  9 12 14  3 24.9979942  0  4
C23  23093843.465   120255725.340       -2068.310          30.000  
G16  20679365.973   108670966.114        -128.684          26.000  
G26  20405628.777   107232475.735       -2481.203          29.000  
G32  22270460.481   117032160.386       -3994.468          26.000  
> 2021  9 12 14  3 25.9979935  0  3
C23  23094029.936   120256699.270       -2066.542          26.000  
G16  20679181.900   108669992.624        -130.044          24.000  
G26  20405891.995   107233854.461       -2481.075          27.000  
> 2021  9 12 14  3 26.9979924  0  4
C23  23094097.389   120257049.528       -2068.009          32.000  
G16  20678876.112   108668390.296        -130.690          26.000  
G26  20406034.396   107234602.434       -2481.020          30.000  
G32  22271443.500   117037313.7471      -3994.668          22.000  
> 2021  9 12 14  3 27.9979917  0  3
C23  23094284.759   120258024.887       -2069.107          35.000  
G16  20678689.041   108667418.469        -131.197          23.000  
G32  22271994.219   117040206.201       -3995.830          28.000  
> 2021  9 12 14  3 28.9979909  0  4
C23  23094443.350   120258845.671       -2069.893          32.000  
G16  20678474.690   108666290.023        -131.830          28.000  
G26  20406528.155   107237200.0651      -2480.111          30.000  
G32  22272515.259   117042942.467       -3997.023          28.000  
> 2021  9 12 14  3 29.9979901  0  4
C23  23094601.040   120259666.148       -2069.073          28.000  
G16  20678260.938   108665162.753        -132.852          27.000  
G26  20406759.894   107238420.545       -2481.267          31.000  
G32  22273035.099   117045677.881       -3995.252          23.000  
> 2021  9 12 14  3 30.9979891  0  4
C23  23094697.873   120260173.586       -2068.241          37.000  
G16  20677986.928   108663721.158        -134.410          28.000  
G26  20406931.375   107239327.372       -2482.916          31.000  
G32  22273496.179   117048098.183       -3996.214          25.000  
> 2021  9 12 14  3 31.9979884  0  4
C23  23094885.244   120261149.514       -2069.297          38.000  
G16  20677804.954   108662753.962        -136.875          25.000  
G26  20407193.694   107240707.436       -2483.012          31.000  
G32  22274045.399   117050992.021       -3996.460          23.000  
> 2021  9 12 14  3 32.9979876  0  4
C23  23095045.333   120261970.095       -2068.393          37.000  
G16  20677588.503   108661631.153        -139.055          24.000  
G26  20407426.033   107241931.687       -2485.800          29.000  
G32  22274564.940   117053726.030       -3994.653          18.000  
> 2021  9 12 14  3 33.9979868  0  2
C23  23095206.022                       -2066.652          32.000  
G26  20407657.773   107243155.945       -2484.900          28.000  
> 2021  9 12 14  3 34.9979858  0  3
C23  23095305.852   120263307.2721      -2071.038          31.000  
G16  20677105.538   108659076.3831       -142.211          23.000  
G26  20407830.153   107244065.229       -2484.924          25.000  
> 2021  9 12 14  3 35.9979850  0  3
C23  23095463.243   120264128.685       -2069.561          33.000  
G16  20676894.184   108657958.954        -143.137          20.000  
G26  20408061.593   107245289.480       -2485.203          26.000  
> 2021  9 12 14  3 36.9979843  0  2
C23  23095647.316   120265104.462       -2067.959          30.000  
G26  20408324.211   107246671.057       -2485.506          28.000  
> 2021  9 12 14  3 37.9979835  0  3
C23  23095802.309   120265923.264       -2067.676          32.000  
G26  20408559.248   107247896.243       -2485.795          26.000  
G32  22277105.381   117067236.9591      -3991.487          23.000  
> 2021  9 12 14  3 38.9979825  0  2
C23  23095901.840   120266430.218       -2070.485          32.000  
G26  20408733.428   107248806.025       -2485.234          25.000  
> 2021  9 12 14  3 39.9979817  0  2
C23  23096060.730   120267250.236       -2068.056          28.000  
G26  20408966.966   107250031.557       -2485.684          24.000  
> 2021  9 12 14  3 40.9979809  0  1
G26  20409203.802   107251257.523       -2486.872          25.000  
> 2021  9 12 14  3 41.9979802  0  2
C23  23096415.384   120269042.0741      -2064.766          25.000  
G26  20409468.519   107252642.421       -2487.176          23.000  
> 2021  9 12 14  3 42.9979791  0  1
C23  23096485.236   120269390.681       -2066.681          25.000  
> 2021  9 12 14  3 43.9979784  0  2
C23  23096673.805   120270365.035       -2067.133          24.000  
G32  22280082.920   117082625.5421      -3995.909          25.000  
> 2021  9 12 14  3 44.9979776  0  3
C23  23096834.494   120271183.231       -2068.005          22.000  
G26  20410105.278   107256008.0931      -2484.706          19.000  
G32  22280598.263   117085361.582       -3998.193          26.000  
> 2021  9 12 14  3 45.9979768  0  2
C23  23096991.885   120272002.032       -2066.393          22.000  
G26  20410339.416   107257232.752       -2484.964          20.000  
> 2021  9 12 14  3 46.9979758  0  1
G16  20674422.395   108645058.0911       -145.750          25.000  
> 2021  9 12 14  3 47.9979750  0  3
C23  23097253.304   120273323.2731      -2068.473          22.000  
G16  20674208.943   108643943.849        -147.153          27.000  
G26  20410751.331   107259367.7301      -2485.717          21.000  
> 2021  9 12 14  3 48.9979743  0  3
C23  23097440.675   120274299.200       -2068.143          23.000  
G16  20674026.369   108642988.859        -149.568          24.000  
G26  20411013.649   107260752.283       -2488.045          23.000  
> 2021  9 12 14  3 49.9979735  0  2
C23  23097596.866   120275118.826       -2067.248          25.000  
G26  20411249.586   107261981.901       -2492.603          23.000  
> 2021  9 12 14  3 50.9979725  0  3
C23  23097696.098   120275623.208       -2065.103          19.000  
G16  20673542.804   108640452.3561       -149.649          21.000  
G26  20411423.765   107262899.196       -2493.144          22.000  
> 2021  9 12 14  3 51.9979717  0  1
G26  20411658.203   107264132.012       -2493.950          24.000  
> 2021  9 12 14  3 52.9979709  0  1
G26  20411892.041   107265365.519       -2493.219          23.000  
> 2021  9 12 14  3 53.9979702  0  1
G26  20412156.458   107266756.133       -2493.768          24.000  
> 2021  9 12 14  3 54.9979692  0  2
G16  20672667.710   108635849.4931       -151.773          22.000  
G26  20412331.237   107267674.254       -2494.433          25.000  
> 2021  9 12 14  3 55.9979684  0  2
G16  20672458.755   108634740.693        -153.164          22.000  
G26  20412566.574   107268908.872       -2495.367          23.000  
> 2021  9 12 14  3 56.9979674  0  3
G16  20672188.342   108633317.786        -152.368          22.000  
G26  20412741.653   107269828.541       -2494.560          23.000  
G32  22286675.655   117117336.5161      -4007.609          20.000  
> 2021  9 12 14  3 57.9979668  0  2
G16  20672037.546   108632525.784        -153.622          22.000  
G26  20413033.651   107271377.890       -2495.153          22.000  
> 2021  9 12 14  3 58.9979658  0  2
G26  20413206.032   107272297.135       -2494.249          25.000  
G32  22287724.030   117122835.1341      -4011.411          17.000  
> 2021  9 12 14  3 59.9979651  0  2
G16  20671590.256   108630157.1391       -155.311          20.000  
G26  20413469.849   107273688.935       -2495.374          24.000  
> 2021  9 12 14  4  0.9979640  0  1
G26  20413614.948   107274453.174       -2497.448          23.000  
> 2021  9 12 14  4  1.9979635  0  3
G16  20671167.249   108627943.9421       -153.893          19.000  
G26  20413939.923   107276162.035       -2495.866          21.000  
G32  22289330.318   117131249.5171      -4009.139          19.000  
> 2021  9 12 14  4  2.9979625  0  3
G16  20670895.337   108626523.681        -155.459          20.000  
G26  20414113.503   107277081.647       -2494.856          22.000  
G32  22289794.996   117133682.741       -4009.432          19.000  
> 2021  9 12 14  4  3.9979617  0  2
G26  20414347.341   107278316.444       -2495.289          23.000  
G32  22290319.333   117136431.108       -4008.572          19.000  
> 2021  9 12 14  4  4.9979607  0  3
G16  20670425.562   108624004.2411       -158.934          19.000  
G26  20414520.322   107279236.977       -2496.573          23.000  
G32  22290783.412   117138864.245       -4009.209          20.000  
> 2021  9 12 14  4  5.9979602  0  1
G26  20414843.798   107280946.613       -2498.488          26.000  
> 2021  9 12 14  4  6.9979592  0  1
G26  20415018.577   107281869.721       -2498.758          27.000  
> 2021  9 12 14  4  7.9979584  0  1
