     3.03           OBSERVATION DATA    M: Mixed            RINEX VERSION / TYPE
Geo++ RINEX Logger  Geo++               20210913 042740 UTC PGM / RUN BY / DATE
************************************************************COMMENT
This file was generated by the Geo++ RINEX Logger App       COMMENT
for Android devices (Version 2.1.6). If you encounter       COMMENT
any issues, please send an email to android@geopp.de        COMMENT
Filtering Mode: BEST                                        COMMENT
************************************************************COMMENT
Geo++                                                       MARKER NAME
GEODETIC                                                    MARKER TYPE
Geo++               Geo++                                   OBSERVER / AGENCY
unknown             HUAWEI              ELS-AN00            REC # / TYPE / VERS
unknown             ELS-AN00                                ANT # / TYPE
 -2418848.8919  5385589.6291  2405517.4731                  APPROX POSITION XYZ
        0.0000        0.0000        0.0000                  ANTENNA: DELTA H/E/N
G    8 C1C L1C D1C S1C C5Q L5Q D5Q S5Q                      SYS / # / OBS TYPES
R    4 C1C L1C D1C S1C                                      SYS / # / OBS TYPES
E   12 C1B L1B D1B S1B C1C L1C D1C S1C C5Q L5Q D5Q S5Q      SYS / # / OBS TYPES
C    4 C2I L2I D2I S2I                                      SYS / # / OBS TYPES
J    8 C1C L1C D1C S1C C5Q L5Q D5Q S5Q                      SYS / # / OBS TYPES
  2021     9    13     4    27   58.5253251     GPS         TIME OF FIRST OBS
 24 R01  1 R02 -4 R03  5 R04  6 R05  1 R06 -4 R07  5 R08  6 GLONASS SLOT / FRQ #
    R09 -2 R10 -5 R11  0 R12 -1 R13 -2 R14 -7 R15  0 R16 -1 GLONASS SLOT / FRQ #
    R17  4 R18 -3 R19  3 R20  2 R21  4 R22 -3 R23  3 R24  2 GLONASS SLOT / FRQ #
G L1C                                                       SYS / PHASE SHIFT
G L5Q -0.25000                                              SYS / PHASE SHIFT
R L1C                                                       SYS / PHASE SHIFT
E L1B                                                       SYS / PHASE SHIFT
E L1C +0.50000                                              SYS / PHASE SHIFT
E L5Q -0.25000                                              SYS / PHASE SHIFT
C L2I                                                       SYS / PHASE SHIFT
J L1C                                                       SYS / PHASE SHIFT
J L5Q -0.25000                                              SYS / PHASE SHIFT
 C1C    0.000 C1P    0.000 C2C    0.000 C2P    0.000        GLONASS COD/PHS/BIS
                                                            END OF HEADER
> 2021  9 13  4 27 58.5253251  0  0
> 2021  9 13  4 27 59.5253251  0  0
> 2021  9 13  4 28  0.5253251  0  0
> 2021  9 13  4 28  1.5253251  0  0
> 2021  9 13  4 28  2.5253251  0  0
> 2021  9 13  4 28  3.5253251  0  0
> 2021  9 13  4 28  4.5253251  0  0
> 2021  9 13  4 28  5.5253251  0  0
> 2021  9 13  4 28  6.5253251  0  0
> 2021  9 13  4 28  7.5253251  0  0
> 2021  9 13  4 28  8.5253251  0  0
> 2021  9 13  4 28  9.5253251  0  0
> 2021  9 13  4 28 10.5253251  0  0
> 2021  9 13  4 28 11.5253251  0  0
> 2021  9 13  4 28 12.5253251  0  0
> 2021  9 13  4 28 13.5253251  0  0
> 2021  9 13  4 28 14.5253251  0  0
> 2021  9 13  4 28 15.5253251  0  0
> 2021  9 13  4 28 16.5253251  0  0
> 2021  9 13  4 28 17.5253251  0  0
> 2021  9 13  4 28 18.5253251  0  0
> 2021  9 13  4 28 19.5253251  0  0
> 2021  9 13  4 28 20.5253251  0  0
> 2021  9 13  4 28 21.5253251  0  0
> 2021  9 13  4 28 22.5253251  0  0
> 2021  9 13  4 28 23.5253251  0  0
> 2021  9 13  4 28 24.5253251  0  0
> 2021  9 13  4 28 25.5253251  0  0
> 2021  9 13  4 28 26.5253251  0  0
> 2021  9 13  4 28 27.5253251  0  0
> 2021  9 13  4 28 28.5253251  0  0
> 2021  9 13  4 28 29.5253251  0  0
> 2021  9 13  4 28 30.5253251  0  1
G06  24399239.958                           0.000          27.000  
> 2021  9 13  4 29 39.0973873  0  1
G06  22184645.190                       -3424.690          28.000  
> 2021  9 13  4 29 40.0973873  0  1
G06  22185296.639                       -3425.433          29.000  
> 2021  9 13  4 29 41.0973873  0  1
G06  22185948.088                       -3425.611          30.000  
> 2021  9 13  4 29 42.0973873  0  1
G06  22186602.834                       -3425.889          30.000  
> 2021  9 13  4 29 43.0973873  0  1
G06  22187254.283                       -3426.739          30.000  
> 2021  9 13  4 29 44.0973873  0  1
G06  22187904.234                       -3426.871          31.000  
> 2021  9 13  4 29 45.0973873  0  1
G06  22188556.582                       -3427.137          31.000  
> 2021  9 13  4 29 46.0973873  0  1
G06  22189207.731                       -3428.152          30.000  
> 2021  9 13  4 29 47.0973873  0  1
G06  22189861.279                       -3427.621          29.000  
> 2021  9 13  4 29 48.0973873  0  1
G06  22190514.826                       -3428.308          30.000  
> 2021  9 13  4 29 49.0973873  0  1
G06  22191167.774                       -3430.025          30.000  
> 2021  9 13  4 29 50.0973873  0  1
G06  22191821.622                       -3430.512          30.000  
> 2021  9 13  4 29 51.0973873  0  1
G06  22192476.069                       -3430.301          29.000  
> 2021  9 13  4 29 52.0973873  0  1
G06  22193129.616                       -3430.688          30.000  
> 2021  9 13  4 29 53.0973873  0  1
G06  22193781.964                       -3431.423          30.000  
> 2021  9 13  4 29 54.0973873  0  1
G06  22194434.613                       -3432.752          27.000  
> 2021  9 13  4 29 55.0973873  0  1
G06  22195089.659                       -3433.708          27.000  
> 2021  9 13  4 29 56.0973873  0  1
G06  22195743.207                       -3433.166          29.000  
> 2021  9 13  4 29 57.0973873  0  1
G06  22196397.054                       -3434.167          29.000  
> 2021  9 13  4 29 58.0973873  0  1
G06  22197049.402                       -3435.227          29.000  
> 2021  9 13  4 29 59.0973873  0  1
G06  22197702.350                       -3435.484          30.000  
> 2021  9 13  4 30  0.0973873  0  1
G06  22198354.699                       -3435.026          30.000  
> 2021  9 13  4 30  1.0973873  0  1
G06  22199007.947                       -3435.247          29.000  
> 2021  9 13  4 30  2.0973873  0  1
G06  22199661.794                       -3436.213          29.000  
> 2021  9 13  4 30  3.0973873  0  1
G06  22200316.541                       -3436.899          30.000  
> 2021  9 13  4 30  4.0973873  0  1
G06  22200969.489                       -3437.572          30.000  
> 2021  9 13  4 30  5.0973873  0  1
G06  22201624.535                       -3438.584          30.000  
> 2021  9 13  4 30  6.0973873  0  1
G06  22202279.282                       -3439.132          30.000  
> 2021  9 13  4 30  7.0973873  0  1
G06  22202932.829                       -3437.956          28.000  
> 2021  9 13  4 30  8.0973873  0  0
> 2021  9 13  4 30  9.0973873  0  0
> 2021  9 13  4 30 10.0973873  0  1
G06  22204896.470                       -3439.289          19.000  
> 2021  9 13  4 30 11.0973873  0  1
G06  22205549.418                       -3440.281          20.000  
> 2021  9 13  4 30 12.0973873  0  1
G06  22206203.565                       -3440.242          20.000  
> 2021  9 13  4 30 13.0973873  0  1
G06  22206858.911                       -3442.513          20.000  
> 2021  9 13  4 30 14.0973873  0  1
G06  22207516.956                       -3442.245          21.000  
> 2021  9 13  4 30 15.0973873  0  1
G06  22208172.002                       -3442.597          21.000  
> 2021  9 13  4 30 16.0973873  0  0
> 2021  9 13  4 30 17.0973873  0  0
> 2021  9 13  4 30 18.0973873  0  1
G06  22210139.840                       -3445.957          20.000  
> 2021  9 13  4 30 19.0973873  0  1
G06  22210795.186                       -3447.167          20.000  
> 2021  9 13  4 30 20.0973873  0  1
R21  20862776.001                       -4880.787          26.000  
> 2021  9 13  4 30 21.0973873  0  1
R21  20863694.565                       -4881.397          24.000  
> 2021  9 13  4 30 22.0973873  0  1
R21  20864611.030                       -4881.893          24.000  
> 2021  9 13  4 30 23.0973873  0  1
G06  22213416.272                       -3449.075          19.000  
> 2021  9 13  4 30 24.0973873  0  1
R21  20866434.068                       -4882.764          25.000  
> 2021  9 13  4 30 25.0973873  0  1
R21  20867349.335                       -4883.838          26.000  
> 2021  9 13  4 30 26.0973873  0  2
G06  22215386.208                       -3448.114          19.000  
R21  20868269.098                       -4884.315          25.000  
> 2021  9 13  4 30 27.0973873  0  1
R21  20869184.065                       -4884.937          24.000  
> 2021  9 13  4 30 28.0973873  0  1
R21  20870098.132                       -4885.189          23.000  
> 2021  9 13  4 30 29.0973873  0  1
R21  20871012.499                       -4886.496          25.000  
> 2021  9 13  4 30 30.0973873  0  2
G06  22218004.895                       -3450.236          19.000  
R21  20871928.664                       -4885.810          25.000  
> 2021  9 13  4 30 31.0973873  0  1
R21  20872843.631                       -4885.510          24.000  
> 2021  9 13  4 30 32.0973873  0  1
R21  20873762.795                       -4887.415          24.000  
> 2021  9 13  4 30 33.0973873  0  0
> 2021  9 13  4 30 34.0973873  0  2
G06  22220632.276                       -3451.035          20.000  
R21  20875585.233                       -4887.394          23.000  
> 2021  9 13  4 30 35.0973873  0  1
R21  20876498.401                       -4890.257          24.000  
> 2021  9 13  4 30 36.0973873  0  1
R21  20877408.871                       -4892.161          25.000  
> 2021  9 13  4 30 37.0973873  0  2
G06  22222601.313                       -3450.727          20.000  
R21  20878323.238                       -4890.757          23.000  
> 2021  9 13  4 30 38.0973873  0  1
R21  20879231.609                       -4891.176          24.000  
> 2021  9 13  4 30 39.0973873  0  1
R21  20880143.278                       -4888.382          24.000  
> 2021  9 13  4 30 40.0973873  0  2
G06  22224580.843                       -3454.683          19.000  
R21  20881053.747                       -4892.139          23.000  
> 2021  9 13  4 30 41.0973873  0  0
> 2021  9 13  4 30 42.0973873  0  2
G06  22225903.527                       -3460.638          19.000  
R21  20882874.087                       -4892.570          23.000  
> 2021  9 13  4 30 43.0973873  0  1
R21  20883785.156                       -4890.728          25.000  
> 2021  9 13  4 30 44.0973873  0  1
R21  20884694.427                       -4890.604          23.000  
> 2021  9 13  4 30 45.0973873  0  1
R21  20885604.597                       -4892.806          23.000  
> 2021  9 13  4 30 46.0973873  0  1
R21  20886517.765                       -4894.398          24.000  
> 2021  9 13  4 30 47.0973873  0  1
R21  20887437.228                       -4896.275          26.000  
> 2021  9 13  4 30 48.0973873  0  1
R21  20888352.195                       -4896.533          26.000  
> 2021  9 13  4 30 49.0973873  0  2
G06  22230509.239                       -3461.825          15.000  
R21  20889267.161                       -4897.416          26.000  
> 2021  9 13  4 30 50.0973873  0  3
G06  22231165.484                       -3459.393          15.000  
G110279242451.384                           0.000          22.000  
R21  20890180.029                       -4896.428          25.000  
> 2021  9 13  4 30 51.0973873  0  3
G11  19817410.192                       -2414.546          20.000  
J02  35345847.379                       -1143.235          26.000  
R21  20891092.897                       -4895.974          24.000  
> 2021  9 13  4 30 52.0973873  0  3
G06  22232479.175                       -3455.744          16.000  
G11  19817410.192                       -2414.546          23.000  
R21  20892006.965                       -4896.232          27.000  
> 2021  9 13  4 30 53.0973873  0  2
G11  19818333.853                       -2415.555          20.000  
R21  20892924.329                       -4897.118          26.000  
> 2021  9 13  4 30 54.0973873  0  3
G06  22233789.868                       -3455.084          18.000  
G11  19818794.334                       -2413.584          22.000  
R21  20893846.491                       -4899.008          26.000  
> 2021  9 13  4 30 55.0973873  0  3
G06  22234445.813                       -3456.821          19.000  
G11  19819253.316                       -2412.064          23.000  
R21  20894761.757                       -4900.023          25.000  
> 2021  9 13  4 30 56.0973873  0  4
G06  22235101.460                       -3459.864          19.000  
G11  19819712.299                       -2411.573          22.000  
J02  35346923.634                       -1142.873          26.000  
R21  20895672.227                       -4901.035          26.000  
