     3.03           OBSERVATION DATA    M: Mixed            RINEX VERSION / TYPE
Geo++ RINEX Logger  Geo++               20210912 103049 UTC PGM / RUN BY / DATE
************************************************************COMMENT
This file was generated by the Geo++ RINEX Logger App       COMMENT
for Android devices (Version 2.1.6). If you encounter       COMMENT
any issues, please send an email to android@geopp.de        COMMENT
Filtering Mode: BEST                                        COMMENT
************************************************************COMMENT
Geo++                                                       MARKER NAME
GEODETIC                                                    MARKER TYPE
Geo++               Geo++                                   OBSERVER / AGENCY
unknown             HUAWEI              ELS-AN00            REC # / TYPE / VERS
unknown             ELS-AN00                                ANT # / TYPE
 -2417109.6643  5385878.7752  2406617.3697                  APPROX POSITION XYZ
        0.0000        0.0000        0.0000                  ANTENNA: DELTA H/E/N
G    8 C1C L1C D1C S1C C5Q L5Q D5Q S5Q                      SYS / # / OBS TYPES
R    4 C1C L1C D1C S1C                                      SYS / # / OBS TYPES
E   12 C1B L1B D1B S1B C1C L1C D1C S1C C5Q L5Q D5Q S5Q      SYS / # / OBS TYPES
C    4 C2I L2I D2I S2I                                      SYS / # / OBS TYPES
J    8 C1C L1C D1C S1C C5Q L5Q D5Q S5Q                      SYS / # / OBS TYPES
  2021     9    12    10    31    7.9995812     GPS         TIME OF FIRST OBS
 24 R01  1 R02 -4 R03  5 R04  6 R05  1 R06 -4 R07  5 R08  6 GLONASS SLOT / FRQ #
    R09 -2 R10 -5 R11  0 R12 -1 R13 -2 R14 -7 R15  0 R16 -1 GLONASS SLOT / FRQ #
    R17  4 R18 -3 R19  3 R20  2 R21  4 R22 -3 R23  3 R24  2 GLONASS SLOT / FRQ #
G L1C                                                       SYS / PHASE SHIFT
G L5Q -0.25000                                              SYS / PHASE SHIFT
R L1C                                                       SYS / PHASE SHIFT
E L1B                                                       SYS / PHASE SHIFT
E L1C +0.50000                                              SYS / PHASE SHIFT
E L5Q -0.25000                                              SYS / PHASE SHIFT
C L2I                                                       SYS / PHASE SHIFT
J L1C                                                       SYS / PHASE SHIFT
J L5Q -0.25000                                              SYS / PHASE SHIFT
 C1C    0.000 C1P    0.000 C2C    0.000 C2P    0.000        GLONASS COD/PHS/BIS
                                                            END OF HEADER
> 2021  9 12 10 31  7.9995812  2  0
> 2021  9 12 10 31  7.9995812  0 13
C06  36693326.639   191071779.8551      -1459.633          20.000  
C13  36929288.186   192300494.2631      -2860.385          20.000  
C25  21803951.339   113538896.2311      -1509.644          32.000  
C33  22245515.050   115838234.1591      -1599.769          26.000  
G10  20153939.818   105909668.1111      -1193.153          28.000  
G12  22398049.453   117702544.0691      -2817.549          13.000  
G23  21153616.056   111163002.3761      -3592.329          22.000  
G25  20791959.026   109262481.4841      -1088.083          24.000  
G31  21840776.645   114774055.5981        399.143          23.000  
G32  21840560.794   114772920.7601       -157.790          33.000  
J01  38067020.950   200043545.1151       -233.386          29.000  
J02  37881803.473   199070220.5561      -2040.876          23.000  
R12  19078305.764   101912884.5361      -1789.682          30.000  
> 2021  9 12 10 31  8.9995802  0 12
C06  36693305.353   191071678.127       -1459.143          23.000  
C13  36929538.213   192301793.173       -2860.842          23.000  
C25  21803940.246   113538845.532       -1510.874          30.000  
C33  22245521.346   115838273.027       -1599.485          24.000  
G10  20153868.767   105909286.171       -1193.741          27.000  
G23  21154002.489   111165018.982       -3591.955          21.000  
G25  20791867.590   109261994.914       -1089.407          25.000  
G31  21840399.806   114772080.833         399.144          22.000  
G32  21840294.878   114771504.179        -157.037          32.000  
J01  38066765.227   200042202.457        -232.297          28.000  
J02  37881893.111   199070685.898       -2041.389          22.000  
R12  19078339.640   101913065.478       -1791.988          28.000  
> 2021  9 12 10 31  9.9995794  0 12
C16  37340064.411   194439513.6531      -1440.175          23.000  
C25  21803990.012   113539108.482       -1512.782          30.000  
C33  22245587.001   115838624.755       -1600.314          23.000  
G10  20153857.375   105909219.940       -1194.443          28.000  
G12  22398591.778   117705343.5521      -2813.839          14.000  
G23  21154446.182   111167351.348       -3593.944          21.000  
G25  20791835.212   109261824.502       -1090.494          26.000  
G31  21840083.225   114770421.090         399.738          22.000  
G32  21840082.925   114770402.893        -158.302          32.000  
J01  38066568.563   200041174.235        -232.054          27.000  
J02  37882038.510   199071467.468       -2042.862          22.000  
R12  19078439.771   101913600.080       -1792.319          27.000  
> 2021  9 12 10 31 10.9995784  0 11
C06  36693326.938   191071785.8771      -1458.455          20.000  
C13  36930100.623   192304705.6021      -2861.757          21.000  
C16  37340041.927   194439392.811       -1440.547          23.000  
C25  21803980.119   113539060.539       -1513.866          33.000  
C33  22245594.795   115838664.325       -1601.304          26.000  
G10  20153783.926   105908839.267       -1195.046          28.000  
G12  22398832.511   117706580.387       -2815.064          12.000  
G25  20791742.576   109261338.962       -1090.549          26.000  
G31  21839706.686   114768446.565         398.708          22.000  
G32  21839810.714   114768986.845        -159.874          28.000  
J01  38066312.840   200039831.326        -233.455          27.000  
> 2021  9 12 10 31 11.9995776  0 13
C13  36930410.609   192306320.064       -2864.651          23.000  
C16  37340079.101   194439583.985       -1440.388          20.000  
C24  24419518.819   127158841.9221      -4047.349          20.000  
C25  21804031.383   113539325.781       -1515.625          32.000  
C33  22245664.347   115839016.663       -1602.239          24.000  
G10  20153770.735   105908774.776       -1196.790          27.000  
G23  21155267.613   111171703.2441      -3593.777          17.000  
G25  20791711.098   109261168.871       -1090.124          26.000  
G31  21839394.902   114766787.575         397.662          21.000  
G32  21839600.259   114767886.195        -159.689          31.000  
J01  38066117.076   200038804.464        -234.011          25.000  
J02  37882274.447   199072719.3071      -2045.292          19.000  
R12  19078571.979   101914306.1331      -1794.355          30.000  
> 2021  9 12 10 31 12.9995768  0 11
C06  36693408.782   191072208.0831      -1460.913          21.000  
C16  37340115.976   194439775.026       -1440.103          19.000  
C25  21804082.348   113539591.961       -1515.056          30.000  
C33  22245732.700   115839369.862       -1602.444          24.000  
G10  20153761.141   105908711.401       -1197.522          30.000  
G23  21155708.907   111174037.384       -3594.358          17.000  
G25  20791680.519   109260999.244       -1091.797          26.000  
G31  21839080.719   114765129.797         396.590          18.000  
G32  21839391.004   114766785.525        -159.807          34.000  
J01  38065920.711   200037778.414        -234.031          28.000  
R12  19078666.714   101914812.856       -1796.757          29.000  
> 2021  9 12 10 31 13.9995758  0 12
C06  36693390.794   191072107.842       -1463.061          25.000  
C16  37340091.393   194439654.534       -1441.171          20.000  
C24  24420532.417   127164127.3721      -4048.119          20.000  
C25  21804075.453   113539546.100       -1515.635          28.000  
C33  22245741.693   115839411.545       -1602.980          30.000  
G12  22399662.936   117710946.0151      -2821.575          11.000  
G23  21156093.241   111176056.732       -3594.681          17.000  
G25  20791587.583   109260516.615       -1093.583          23.000  
G31  21838705.079   114763158.253         395.496          23.000  
G32  21839126.287   114765370.033        -160.221          34.000  
J01  38065664.689   200036437.128        -234.341          30.000  
R12  19078701.190   101914996.837       -1798.035          30.000  
> 2021  9 12 10 31 14.9995748  0 10
C06  36693372.807   191072009.475       -1462.948          22.000  
C16  37340066.210   194439533.657       -1439.283          20.000  
C24  24421008.787   127166613.724       -4047.040          20.000  
C25  21804065.859   113539500.658       -1516.645          28.000  
C33  22245750.387   115839453.357       -1602.398          31.000  
G10  20153622.038   105907952.0991      -1196.094          25.000  
G32  21838857.973                        -160.094          33.000  
J01  38065408.066   200035095.950        -234.345          30.000  
J02  37882612.613   199074436.9521      -2043.640          22.000  
R12  19078732.968   101915166.377       -1798.145          29.000  
> 2021  9 12 10 31 15.9995743  0 12
C06  36693505.015   191072691.955       -1461.740          23.000  
C16  37340191.224   194440191.978       -1439.069          24.000  
C25  21804206.462   113540237.872       -1518.078          29.000  
C33  22245909.277   115840275.995       -1603.784          28.000  
G10  20153702.382   105908361.531       -1198.335          27.000  
G23  21157010.606   111180886.5021      -3596.933          17.000  
G25  20791546.212   109260341.8481      -1093.830          26.000  
G31  21838112.389   114760005.5331        393.917          22.000  
G32  21838733.559   114763345.7481       -161.172          34.000  
J01  38065301.640   200034542.250        -233.569          29.000  
J02  37882853.646   199075693.467       -2044.236          22.000  
R12  19078918.839   101916159.164       -1797.182          29.000  
> 2021  9 12 10 31 16.9995732  0 12
C16  37340137.860   194439914.225       -1438.667          25.000  
C24  24422083.244   127172206.8531      -4045.122          21.000  
C25  21804167.789   113540037.599       -1517.795          30.000  
C33  22245887.093   115840162.308       -1603.534          29.000  
G10  20153601.952   105907827.954       -1200.247          27.000  
G23  21157364.661   111182750.509       -3597.002          17.000  
G25  20791424.496   109259703.097       -1095.917          27.000  
G31  21837707.969   114757878.625         393.777          19.000  
G32  21838431.069   114761773.601        -160.514          33.000  
J01  38065015.938   200033042.404        -233.128          29.000  
J02  37882913.605   199076004.444       -2043.995          23.000  
R12  19078923.336   101916183.348       -1799.665          28.000  
> 2021  9 12 10 31 17.9995722  0 12
C06  36693441.159   191072340.3451      -1463.480          19.000  
C16  37340116.875   194439792.288       -1440.131          25.000  
C24  24422561.712   127174691.257       -4046.360          21.000  
C25  21804159.694   113539994.968       -1519.254          30.000  
C33  22245894.887   115840205.445       -1604.813          28.000  
G10  20153530.002   105907453.628       -1201.921          30.000  
G25  20791336.357   109259223.803       -1096.732          27.000  
G31  21837335.028   114755909.631         393.155          22.000  
G32  21838166.952   114760359.282        -161.530          32.000  
J01  38064759.315   200031700.902        -234.940          28.000  
J02  37883002.043   199076474.112       -2045.785          22.000  
R12  19078957.812   101916367.370       -1799.196          30.000  
> 2021  9 12 10 31 18.9995715  0 13
C06  36693512.210   191072711.533       -1463.892          21.000  
C16  37340183.429   194440138.720       -1440.050          23.000  
C24  24423131.318   127177645.622       -4047.348          21.000  
C25  21804240.938   113540421.083       -1519.631          28.000  
C33  22245993.519   115840717.955       -1606.544          26.000  
G10  20153547.389   105907553.736       -1203.700          30.000  
G23  21158220.868   111187275.1441      -3609.727          17.000  
G25  20791336.058   109259218.530       -1097.943          26.000  
G31  21837051.724   114754413.747         392.514          22.000  
G32  21837986.177   114759418.482        -165.323          34.000  
J01  38064594.430   200030832.801        -234.389          28.000  
J02  37883180.720   199077416.767       -2046.646          21.000  
R12  19079082.526   101917034.206       -1800.479          29.000  
> 2021  9 12 10 31 19.9995707  0 11
C16  37340221.802   194440331.162       -1442.455          24.000  
C24  24423669.146   127180444.180       -4047.682          21.000  
C25  21804292.502   113540692.205       -1520.112          31.000  
C33  22246063.970   115841075.829       -1606.991          28.000  
G10  20153538.396   105907497.632       -1204.577          30.000  
G25  20791305.479   109259056.789       -1098.902          26.000  
G31  21836737.541   114752762.012         388.993          22.000  
G32  21837776.322   114758320.143        -160.286          32.000  
J01  38064398.665   200029806.872        -234.478          29.000  
J02  37883333.014   199078204.562       -2047.723          18.000  
R12  19079177.260   101917540.319       -1803.614          31.000  
> 2021  9 12 10 31 20.9995697  0 12
C06  36693538.292   191072832.0851      -1466.624          21.000  
C16  37340200.817   194440213.740       -1443.087          23.000  
C24  24424147.914   127182931.367       -4049.784          21.000  
C25  21804285.607   113540651.008       -1520.521          31.000  
C33  22246072.664   115841121.872       -1607.877          29.000  
E21                                                                                                                                  24171584.160    94854487.6721      -1359.514          23.000  
G10  20153468.244   105907126.870       -1205.421          28.000  
G25  20791216.141   109258580.708       -1099.869          28.000  
G32  21837506.809   114756906.880        -161.174          32.000  
J01  38064144.441   200028466.655        -236.087          30.000  
J02  37883426.849   199078675.222       -2045.391          21.000  
R12  19079216.833   101917751.729       -1804.526          31.000  
> 2021  9 12 10 31 21.9995689  0 11
C06  36693579.364   191073048.984       -1464.709          21.000  
C16  37340238.291   194440406.870       -1442.431          24.000  
C25  21804338.071   113540923.030       -1521.097          31.000  
C33  22246141.017   115841481.163       -1608.913          26.000  
E21                                                                                                                                  24171690.587    94854905.900       -1359.350          25.000  
G10  20153456.253   105907072.281       -1205.984          28.000  
G25  20791186.761   109258420.916       -1100.660          27.000  
G32  21837299.652   114755809.003        -160.091          33.000  
J01  38063948.976   200027442.082        -235.750          28.000  
J02  37883575.846   199079460.010       -2044.516          21.000  
R12  19079316.364   101918283.016       -1806.758          32.000  
> 2021  9 12 10 31 22.9995679  0 11
C06  36693561.376   191072952.428       -1464.382          22.000  
C16  37340217.605   194440288.678       -1442.869          24.000  
C24  24425163.012   127188223.3541      -4051.077          21.000  
C25  21804331.775   113540883.299       -1522.145          31.000  
C33  22246150.011   115841528.565       -1608.422          30.000  
E21                                                                                                                                  24171737.654    94855087.896       -1358.695          25.000  
G10  20153389.699   105906702.041       -1205.112          26.000  
G25  20791097.423   109257947.398       -1101.499          27.000  
G32  21837028.640   114754396.106        -162.298          34.000  
J01  38063693.553   200026102.846        -236.194          30.000  
R12  19079356.237   101918495.521       -1807.554          31.000  
> 2021  9 12 10 31 23.9995671  0 12
C06  36693602.448   191073167.939       -1465.282          22.000  
C16  37340251.482   194440482.339       -1442.849          24.000  
C25  21804384.539   113541156.714       -1522.634          31.000  
C33  22246218.363   115841888.441       -1609.642          29.000  
E21                                                                                                                                  24171844.980    94855506.694       -1362.491          24.000  
G10  20153379.805   105906646.018       -1204.130          27.000  
G23  21160351.194   111198382.4981      -3601.969          18.000  
G25  20791065.645   109257788.559       -1102.033          27.000  
G32  21836820.284   114753298.722        -163.501          33.000  
J01  38063500.187   200025079.241        -237.165          29.000  
J02  37883815.380   199080714.8551      -2047.094          21.000  
R12  19079453.669   101919016.838       -1808.083          30.000  
> 2021  9 12 10 31 24.9995663  0 11
C06  36693643.819   191073383.898       -1464.560          24.000  
C16  37340289.256   194440675.987       -1443.280          24.000  
C24  24426241.965   127193827.7981      -4050.438          21.000  
C25  21804438.202   113541430.836       -1522.958          30.000  
C33  22246288.815   115842249.574       -1609.888          28.000  
E21                                                                                                                                  24171951.406    94855927.714       -1361.408          24.000  
G10  20153369.013   105906590.081       -1204.947          22.000  
G25  20791034.766   109257630.417       -1102.199          27.000  
G32  21836608.031   114752201.444        -164.020          34.000  
J01  38063304.423   200024055.642        -236.554          30.000  
R12  19079551.401   101919538.918       -1809.021          30.000  
> 2021  9 12 10 31 25.9995653  0 12
C06  36693625.232   191073285.575       -1461.786          21.000  
C16  37340266.771   194440557.846       -1442.686          21.000  
C24  24426723.431   127196318.636       -4052.112          21.000  
C25  21804430.707   113541392.896       -1523.489          30.000  
C33  22246297.209   115842297.831       -1609.418          28.000  
E21                                                                                                                                  24171999.073    94856112.245       -1359.694          25.000  
G10  20153302.759   105906219.494       -1204.643          21.000  
G23  21161185.216   111202742.7471      -3598.429          18.000  
G32  21836336.119   114750789.005        -162.714          32.000  
J01  38063050.199   200022715.997        -235.543          29.000  
J02  37884055.214   199081974.7321      -2046.543          21.000  
R12  19079589.175   101919739.962       -1808.795          30.000  
> 2021  9 12 10 31 26.9995643  0 11
C16  37340243.687   194440438.838       -1442.333          24.000  
C24  24427203.999   127198808.497       -4050.469          20.000  
C25  21804422.612   113541355.640       -1524.910          32.000  
C33  22246305.603   115842346.804       -1612.320          24.000  
E21                                                                                                                                  24172047.040    94856298.351       -1364.877          24.000  
G10  20153231.708   105905848.269       -1203.972          19.000  
G23  21161573.148   111204768.018       -3604.931          19.000  
G25  20790859.388   109256687.4831      -1105.369          29.000  
G32  21836065.406   114749377.021        -162.019          32.000  
J01  38062798.373   200021376.120        -235.611          28.000  
R12  19079629.647   101919956.098       -1809.987          31.000  
> 2021  9 12 10 31 27.9995638  0 13
C13  36935099.962   192330641.2391      -2867.455          19.000  
C16  37340369.000   194441100.636       -1443.220          25.000  
C24  24427831.164   127202077.670       -4050.386          20.000  
C25  21804565.613   113542100.316       -1525.801          31.000  
C33  22246465.093   115843178.633       -1613.250          25.000  
E21                                                                                                                                  24172244.603    94857074.076       -1362.542          24.000  
G10  20153309.954   105906267.717       -1209.242          21.000  
G25  20790920.845   109257005.230       -1105.708          28.000  
G31  21834066.091   114738783.2411        385.529          16.000  
G32  21835953.284   114748752.827        -162.821          30.000  
J01  38062694.645   200020824.525        -236.446          28.000  
J02  37884383.187   199083705.7721      -2047.897          21.000  
R12  19079823.613   101920992.741       -1812.227          31.000  
> 2021  9 12 10 31 28.9995628  0 11
C06  36693712.771   191073765.8341      -1461.034          19.000  
C23  23962064.608   124776758.0101        976.648          24.000  
C24  24428309.034   127204566.552       -4049.686          20.000  
C25  21804561.116   113542065.099       -1527.460          31.000  
C33  22246474.986   115843231.096       -1613.201          26.000  
E21                                                                                                                                  24172293.769    94857262.177       -1365.855          25.000  
G10  20153238.903   105905903.122       -1212.878          21.000  
G25  20790833.006   109256536.172       -1106.958          29.000  
G32  21835683.471   114747340.018        -162.486          28.000  
J01  38062441.620   200019485.657        -236.505          28.000  
R12  19079868.882   101921233.868       -1813.455          33.000  
> 2021  9 12 10 31 29.9995617  0 13
C13  36935569.737   192333097.8821      -2867.823          20.000  
C16  37340293.153   194440705.2111      -1441.564          23.000  
C23  23961545.367   124774064.125         976.077          25.000  
C25  21804523.343                       -1526.408          31.000  
C33  22246457.298   115843126.941       -1612.620          21.000  
E21                                                                                                                                  24172312.956    94857333.757       -1364.931          26.000  
G10  20153139.672   105905383.604       -1214.286          27.000  
G25  20790713.688   109255910.384       -1107.378          27.000  
G31  21833294.725   114734707.5971        382.911          17.000  
G32  21835383.379   114745770.243        -163.982          29.000  
J01  38062158.316   200017989.685        -235.969          26.000  
J02  37884531.585   199084492.5601      -2047.458          23.000  
R12  19079883.871   101921313.943       -1813.527          32.000  
> 2021  9 12 10 31 30.9995610  0 13
C06  36693737.654   191073882.1681      -1465.260          20.000  
C16  37340359.407   194441055.035       -1442.445          20.000  
C23  23961146.943   124771995.727         974.788          26.000  
C24  24429321.732   127209863.1651      -4054.749          20.000  
C25  21804605.486   113542308.4951      -1526.860          32.000  
C33  22246558.928   115843647.279       -1613.483          25.000  
E21                                                                                                                                  24172450.561    94857874.552       -1364.081          23.000  
G23  21163330.531   111214001.1481      -3608.308          18.000  
G25  20790717.286   109255914.852       -1107.462          25.000  
G32  21835203.203   114744832.157        -164.867          32.000  
J01  38061994.330   200017123.530        -237.454          20.000  
J02  37884711.460   199085437.831       -2048.877          23.000  
R12  19080013.981   101922009.227       -1815.648          31.000  
> 2021  9 12 10 31 31.9995602  0 11
C06  36693780.225   191074098.713       -1466.357          23.000  
C16  37340397.781   194441248.445       -1442.814          23.000  
C23  23960718.840   124769772.122         974.881          24.000  
C25  21804659.448                       -1527.904          30.000  
C33  22246629.079   115844012.074       -1613.286          29.000  
E21                                                                                                                                  24172559.385    94858298.419       -1367.043          24.000  
G10  20153152.263   105905450.7231      -1215.185          24.000  
G25  20790689.705   109255763.304       -1110.677          27.000  
G32  21834993.349   114743736.775        -165.040          32.000  
J01  38061797.666   200016100.635        -237.013          29.000  
R12  19080109.915   101922521.825       -1816.044          30.000  
> 2021  9 12 10 31 32.9995592  0 10
C06  36693762.237   191074002.835       -1464.846          23.000  
C16  37340375.296   194441130.150       -1442.978          22.000  
C25  21804655.551   113542555.5431      -1529.343          29.000  
C33  22246638.972   115844063.862       -1613.613          28.000  
E21                                                                                                                                  24172607.652    94858489.003       -1367.663          25.000  
G10  20153083.910   105905090.449       -1215.250          28.000  
G32  21834727.133   114742326.472        -166.117          35.000  
J01  38061541.343   200014763.295        -238.649          26.000  
J02  37884947.097   199086700.3731      -2049.421          21.000  
R12  19080148.888   101922730.564       -1817.551          25.000  
> 2021  9 12 10 31 33.9995584  0 14
C06  36693804.508   191074218.483       -1465.653          28.000  
C13  36936779.700   192339423.3061      -2869.623          19.000  
C16  37340414.269   194441324.487       -1444.327          23.000  
C23  23959800.875   124765011.7341        974.187          24.000  
C24  24430871.959   127217967.5451      -4053.369          20.000  
C25  21804707.415   113542835.547       -1529.255          27.000  
C33  22246710.323   115844428.427       -1611.354          32.000  
E21                                                                                                                                  24172716.177    94858915.030       -1366.862          26.000  
G10  20153074.317   105905045.448       -1215.421          27.000  
G25  20790573.386   109255148.4921      -1110.543          28.000  
G31  21832011.613   114727973.1651        382.720          18.000  
G32  21834522.674                        -164.742          33.000  
J01  38061346.178   200013741.436        -238.101          28.000  
R12  19080258.612   101923316.732       -1819.595          23.000  
> 2021  9 12 10 31 34.9995574  0 14
C06  36693785.621   191074122.423       -1464.718          23.000  
C16  37340392.684   194441207.781       -1443.719          20.000  
C23  23959313.412   124762476.503         974.516          24.000  
C24  24431351.927   127220461.013       -4054.398          19.000  
C25  21804700.520   113542803.531       -1529.101          28.000  
C33  22246720.516   115844479.090       -1612.692          25.000  
E21                                                                                                                                  24172763.544    94859105.507       -1370.362          25.000  
G10  20153004.166   105904685.619       -1215.843          24.000  
G23  21165000.375   111222771.3611      -3613.728          17.000  
G25  20790484.647   109254683.517       -1110.512          27.000  
G32  21834260.056   114739780.6241       -162.362          29.000  
J01  38061091.055   200012404.244        -238.041          25.000  
J02  37885183.633   199087964.7671      -2051.711          21.000  
R12  19080299.384   101923534.500       -1818.516          28.000  
> 2021  9 12 10 31 35.9995566  0 11
C06  36693827.292   191074338.023       -1464.531          23.000  
C13  36937340.012   192342350.0271      -2868.265          17.000  
C24  24431890.054   127223266.336       -4054.976          19.000  
C25  21804754.183   113543083.741       -1529.608          31.000  
C33  22246792.166   115844843.257       -1614.351          24.000  
E21                                                                                                                                  24172872.369    94859533.532       -1367.417          26.000  
G25  20790457.066   109254534.444       -1111.436          27.000  
G32  21834052.300   114738686.836        -166.567          26.000  
J01  38060895.590   200011382.259        -239.265          26.000  
J02  37885332.930   199088755.303       -2050.074          21.000  
R12  19080398.315   101924062.144       -1819.679          30.000  
> 2021  9 12 10 31 36.9995558  0 12
C16  37340465.534   194441603.2251      -1447.825          11.000  
C23  23958453.008   124758029.3231        975.560          19.000  
C24  24432429.381   127226072.577       -4054.935          19.000  
C25  21804808.145   113543365.105       -1530.184          31.000  
C33  22246862.617   115845209.524       -1616.240          27.000  
E21                                                                                                                                  24172979.095    94859959.724       -1366.988          25.000  
G25  20790427.986   109254385.916       -1112.796          27.000  
G31  21830997.715   114722720.8691        385.367          16.000  
G32  21833843.045   114737592.644        -165.939          22.000  
J01  38060701.924   200010361.333        -238.859          27.000  
J02  37885481.927   199089544.795       -2049.521          22.000  
R12  19080496.347   101924585.885       -1820.863          31.000  
> 2021  9 12 10 31 37.9995548  0 11
C16  37340442.150   194441487.478       -1442.656          10.000  
C23  23957961.648   124755491.956         976.160          21.000  
C24  24432909.049   127228567.206       -4056.050          19.000  
C25  21804800.950   113543334.421       -1531.448          30.000  
C33  22246874.909   115845264.570       -1616.352          28.000  
E21                                                                                                                                  24173028.561    94860151.754       -1369.118          24.000  
G25  20790338.648   109253923.524       -1112.867          27.000  
G32  21833575.031   114736182.130        -164.669          22.000  
J01  38060447.401   200009025.140        -239.575          26.000  
J02  37885571.864   199090017.762       -2047.576          24.000  
R12  19080536.819   101924802.274       -1821.315          30.000  
> 2021  9 12 10 31 38.9995538  0 11
C13  36938145.254   192346589.4711      -2872.360          19.000  
C23  23957473.886   124752956.761         973.203          21.000  
C25  21804795.254   113543305.312       -1532.404          31.000  
C33  22246886.901   115845320.516       -1617.650          28.000  
E21                                                                                                                                  24173078.626    94860344.539       -1369.659          25.000  
G10  20152832.984   105903887.5971      -1219.394          20.000  
G23  21166663.024   111231552.5001      -3615.359          15.000  
G25  20790248.710   109253462.178       -1115.712          27.000  
G32  21833305.517   114734771.737        -165.407          26.000  
J01  38060192.277   200007689.684        -240.649          27.000  
J02  37885660.303   199090490.495       -2047.700          24.000  
> 2021  9 12 10 31 39.9995533  0 13
C06  36693959.800   191075042.1101      -1461.785          19.000  
C23  23957136.619   124751203.026         971.191          23.000  
C24  24434011.686   127234336.5161      -4055.012          19.000  
C25  21804940.054   113544057.569       -1533.603          31.000  
C33  22247049.088   115846158.200       -1618.482          30.000  
E21                                                                                                                                  24173277.688    94861127.075       -1370.857          26.000  
G10  20152916.027   105904319.124       -1219.839          24.000  
G25  20790310.468   109253791.551       -1117.654          27.000  
G31  21830026.987   114717626.8351        386.784          12.000  
G32  21833183.801   114734149.583        -165.689          28.000  
J01  38060086.450   200007142.545        -240.685          25.000  
J02  37885900.137   199091750.546       -2048.393          22.000  
R12  19080762.863   101926010.0081      -1823.430          31.000  
> 2021  9 12 10 31 40.9995523  0  9
C06  36693939.714   191074944.150       -1463.902          22.000  
C16  37340518.597   194441907.4271      -1440.361          16.000  
C23  23956647.958   124748671.551         969.507          22.000  
C25  21804935.857   113544030.917       -1534.872          29.000  
C33  22247061.080   115846216.593       -1619.587          30.000  
G25  20790220.830   109253334.066       -1119.089          27.000  
G32  21832913.988   114732740.505        -166.753          32.000  
J01  38059832.226   200005807.397        -239.916          26.000  
R12  19080802.735   101926223.035       -1824.949          30.000  
> 2021  9 12 10 31 41.9995515  0 10
C06  36693984.083   191075160.098       -1465.969          24.000  
C13  36939104.890   192351622.0691      -2875.182          19.000  
C16  37340553.972   194442097.917       -1440.092          16.000  
C23  23956219.255   124746453.371         969.168          22.000  
C25  21804991.918   113544317.529       -1535.580          27.000  
C33  22247132.730   115846587.846       -1619.752          31.000  
G23  21168036.373   111238769.9511      -3610.604          12.000  
G31  21829337.164   114714027.2171        377.942          14.000  
G32  21832704.733   114731647.523        -167.940          33.000  
J01  38059637.062   200004786.248        -240.135          26.000  
> 2021  9 12 10 31 42.9995505  0 10
C23  23955729.993   124743923.335         969.116          22.000  
C24  24435512.747   127242139.6381      -4057.123          18.000  
C25  21804986.822   113544291.651       -1535.945          24.000  
C33  22247145.622   115846646.779       -1620.447          30.000  
G23  21168422.506   111240806.951       -3612.868          11.000  
G25  20790104.210   109252739.2781      -1120.497          24.000  
G32  21832435.220   114730240.110        -168.027          31.000  
J01  38059384.936   200003450.918        -240.617          25.000  
J02  37886231.408   199093496.5181      -2054.395          20.000  
R12  19080948.434   101927000.6721      -1828.254          25.000  
> 2021  9 12 10 31 43.9995497  0 10
C06  36694010.465   191075288.2321      -1471.363          23.000  
C24  24436051.174   127244948.077       -4057.866          18.000  
C25  21805041.384   113544579.251       -1537.361          27.000  
C33  22247217.572   115847018.766       -1621.027          29.000  
G10  20152784.418   105903535.3371      -1224.561          24.000  
G25  20790077.229   109252599.275       -1120.829          23.000  
G32  21832228.363   114729147.766        -168.204          31.000  
J01  38059193.968   200002432.365        -243.210          25.000  
J02  37886382.803   199094291.612       -2056.098          20.000  
R12  19081052.162   101927555.170       -1828.054          25.000  
> 2021  9 12 10 31 44.9995489  0  9
C06  36694053.036   191075510.967       -1471.989          23.000  
C25  21805096.546   113544867.828       -1537.764          29.000  
C33  22247291.620   115847391.275       -1621.288          28.000  
G10  20152778.122   105903500.277       -1226.288          27.000  
G25  20790050.248   109252460.219       -1122.286          26.000  
G32  21832020.307   114728055.788        -168.757          35.000  
J01  38059003.600   200001413.998        -241.831          24.000  
J02  37886532.100   199095087.000       -2055.625          22.000  
R12  19081152.593   101928091.794       -1830.104          25.000  
> 2021  9 12 10 31 45.9995479  0  8
C06  36694034.449   191075420.130       -1470.271          24.000  
C25  21805092.349   113544845.107       -1538.933          22.000  
C33  22247304.811   115847452.454       -1623.434          26.000  
G10  20152716.065   105903151.492       -1227.243          25.000  
G25  20789963.008   109252006.987       -1122.827          26.000  
J01  38058751.175   200000080.174        -241.407          20.000  
J02  37886620.538   199095566.736       -2054.509          21.000  
R12  19081193.065   101928307.513       -1831.063          26.000  
> 2021  9 12 10 31 46.9995469  0 11
C06  36694015.562   191075328.469       -1468.733          24.000  
C13  36940475.841   192358813.2021      -2876.196          21.000  
C25  21805089.950   113544823.226       -1539.093          25.000  
C33  22247317.103   115847514.893       -1623.911          28.000  
G10  20152651.909   105902803.531       -1227.675          25.000  
G25  20789876.368   109251553.953       -1122.119          24.000  
G31  21827592.372   114704920.0571        372.198          18.000  
G32  21831491.773   114725243.4871       -169.713          34.000  
J01  38058494.253   199998745.993        -240.955          25.000  
J02  37886709.577   199096045.044       -2053.875          22.000  
R12  19081233.837   101928525.277       -1834.503          26.000  
> 2021  9 12 10 31 47.9995464  0 10
C06  36694148.370   191076016.276       -1469.258          24.000  
C25  21805235.050   113545581.121       -1539.258          26.000  
C33  22247481.089   115848357.904       -1623.824          29.000  
G10  20152731.055   105903243.621       -1228.201          29.000  
G25  20789938.725   109251889.157       -1123.481          26.000  
G31  21827374.123   114703761.022         375.965          17.000  
G32  21831373.055                        -171.086          30.000  
J01  38058391.124   199998199.057        -240.997          20.000  
J02  37886949.411   199097310.014       -2051.777          20.000  
R12  19081423.006   101929535.928       -1834.348          28.000  
> 2021  9 12 10 31 48.9995453  0 11
C06  36694101.902   191075768.186       -1469.117          22.000  
C13  36941102.407   192362072.6391      -2882.056          20.000  
C25  21805201.773   113545404.067       -1541.762          27.000  
C33  22247462.502   115848265.754       -1626.023          28.000  
G10  20152633.922   105902739.099       -1228.289          26.000  
G25  20789823.605   109251280.569       -1125.847          24.000  
G31  21826975.999   114701650.627         380.499          14.000  
G32  21831074.462   114723077.0001       -171.004          29.000  
J01  38058108.420   199996708.056        -242.535          22.000  
J02  37887008.770   199097630.173       -2054.820          22.000  
R12  19081440.094   101929627.463       -1837.225          29.000  
> 2021  9 12 10 31 49.9995443  0  9
C06  36694085.113   191075676.730       -1469.416          20.000  
C25  21805198.775   113545384.820       -1542.160          31.000  
C33  22247473.595   115848330.553       -1626.618          29.000  
G10  20152565.569   105902391.517       -1227.854          27.000  
G25  20789735.466   109250831.712       -1127.246          23.000  
G31  21826603.357   114699695.258         378.538          12.000  
G32  21830812.143   114721673.463        -175.616          28.000  
J01  38057854.795   199995376.914        -245.405          24.000  
J02  37887097.808   199098109.588       -2054.487          23.000  
> 2021  9 12 10 31 50.9995436  0  7
C25  21805284.216   113545835.305       -1544.389          31.000  
C33  22247575.824   115848864.713       -1628.278          29.000  
G10  20152588.653   105902518.495       -1230.604          29.000  
G25  20789736.965   109250857.141       -1129.878          22.000  
G32  21830634.666   114720741.789        -170.974          29.000  
J01  38057692.008   199994519.410        -245.011          23.000  
J02  37887273.786   199099061.380       -2056.133          21.000  
> 2021  9 12 10 31 51.9995428  0  6
C13  36942013.176   192366815.9491      -2880.321          19.000  
C25  21805339.977   113546130.678       -1544.351          31.000  
C33  22247648.374   115849244.581       -1629.588          28.000  
G10  20152582.957   105902490.957       -1234.337          32.000  
G32  21830426.610   114719652.654        -171.487          32.000  
R12  19081729.094   101931171.7291      -1840.245          31.000  
> 2021  9 12 10 31 52.9995418  0  8
C06  36694178.349   191076189.8871      -1471.946          20.000  
C25  21805337.579   113546114.292       -1545.006          28.000  
C33  22247661.265   115849313.679       -1630.407          29.000  
G10  20152517.303   105902150.034       -1234.967          30.000  
G32  21830157.097   114718249.086        -172.338          31.000  
J01  38057244.418   199992178.6381       -247.846          19.000  
J02  37887526.211   199100342.3071      -2057.432          22.000  
R12  19081773.163   101931406.779       -1841.341          28.000  
> 2021  9 12 10 31 53.9995410  0  9
C06  36694219.121   191076413.308       -1471.913          22.000  
C25  21805393.640   113546409.660       -1544.096          30.000  
C33  22247734.114   115849695.252       -1630.261          30.000  
G10  20152510.707   105902125.358       -1236.053          28.000  
G25  20789598.460   109250157.1171      -1133.854          23.000  
G32  21829946.942   114717161.314        -173.380          31.000  
J01  38057051.951   199991164.436        -244.984          24.000  
J02  37887679.405   199101139.503       -2058.511          23.000  
R12  19081879.290   101931973.144       -1842.147          31.000  
> 2021  9 12 10 31 54.9995400  0  9
C13  36942834.008   192371087.6171      -2879.551          19.000  
C25  21805391.841   113546393.839       -1546.453          32.000  
C33  22247747.005   115849764.430       -1630.572          30.000  
G10  20152445.352   105901786.439       -1236.491          29.000    20152454.346    79082559.2181       -921.551          27.000  
G25  20789517.517   109249715.815       -1133.431          22.000  
G32  21829678.928   114715758.975        -172.555          32.000  
J01  38056798.627   199989833.696        -244.636          25.000  
J02  37887771.442   199101621.647       -2056.793          23.000  
R12  19081924.559   101932214.966       -1842.351          32.000  
> 2021  9 12 10 31 55.9995392  0  9
C13  36943147.291   192372718.465       -2879.952          19.000  
C25  21805453.898   113546691.980       -1548.147          32.000  
C33  22247820.155   115850146.420       -1630.949          30.000  
G10  20152439.956   105901762.883       -1237.266          26.000    20152450.149    79082540.543        -921.877          27.000  
G25  20789494.133   109249589.147       -1134.230          21.000  
G32  21829471.172   114714671.148        -172.675          30.000  
J01  38056604.661   199988818.432        -245.038          26.000  
J02  37887923.137   199102418.660       -2057.445          22.000  
R12  19082028.287   101932769.187       -1844.346          32.000  
> 2021  9 12 10 31 56.9995384  0  9
C13  36943459.975   192374349.700       -2880.101          18.000  
C25  21805509.060                       -1548.285          31.000  
C33  22247893.004   115850528.638       -1631.578          29.000  
G10  20152436.059   105901739.669       -1237.413          30.000    20152445.952    79082521.837        -923.289          27.000  
G25  20789472.548   109249463.888       -1136.197          23.000  
G32  21829265.514   114713583.617        -172.944          31.000  
J01  38056410.995   199987802.468        -244.456          26.000  
J02  37888074.232   199103215.765       -2057.809          24.000  
R12  19082132.015   101933323.854       -1845.489          31.000  
> 2021  9 12 10 31 57.9995374  0  9
C06  36694268.586   191076671.5671      -1470.089          21.000  
C23  23949035.028   124709034.2891        958.446          20.000  
C25  21805509.360   113546993.8301      -1550.467          32.000  
C33  22247906.495   115850598.667       -1631.569          29.000  
G10  20152373.102   105901402.531       -1238.918          30.000    20152381.796    79082269.719        -925.073          28.000  
G25  20789390.105   109249025.157       -1137.138          25.000  
J01  38056156.171   199986471.143        -244.516          25.000  
J02  37888164.769   199103698.561       -2058.894          23.000  
R12  19082177.284   101933565.261       -1846.245          31.000  
> 2021  9 12 10 31 58.9995366  0  8
C06  36694311.457   191076892.749       -1469.383          22.000  
C25  21805568.119   113547293.053       -1549.043          29.000  
C33  22247978.745   115850981.825       -1632.664          28.000  
G10  20152369.205   105901382.109       -1240.615          25.000    20152378.798    79082254.255        -926.351          26.000  
G25  20789368.220   109248902.116       -1137.596          26.000  
J01  38055963.105   199985454.879        -244.271          24.000  
J02  37888315.265   199104496.425       -2058.283          24.000  
R12  19082284.010   101934135.787       -1847.239          29.000  
> 2021  9 12 10 31 59.9995356  0  8
C06  36694296.467   191076802.180       -1471.109          23.000  
C25  21805566.021   113547280.879       -1549.401          27.000  
C33  22247991.036   115851053.573       -1633.454          30.000  
G10  20152306.249   105901046.170       -1239.776          29.000    20152315.542    79082005.100        -927.370          27.000  
G25  20789283.678   109248463.956       -1137.512          26.000  
G32  21828531.622   114709692.5861       -173.246          32.000  
J02  37888408.501   199104980.607       -2060.751          24.000  
R12  19082329.278   101934377.255       -1849.098          30.000  
> 2021  9 12 10 32  0.9995348  0 10
C06  36694339.038   191077023.176       -1470.481          22.000  
C25  21805622.082   113547581.880       -1550.501          29.000  
C33  22248066.284   115851438.670       -1634.726          30.000  
E21                                                                                                                                  24175099.227    94868277.3801      -1382.566          26.000  
G10  20152303.850   105901025.947       -1240.722          28.000    20152311.045    79081991.191        -929.632          27.000  
G25  20789260.894   109248340.820       -1137.921          26.000  
G32  21828324.166   114708606.427        -174.662          32.000  
J01  38055517.314   199983111.3661       -247.747          21.000  
J02  37888565.292   199105780.512       -2057.952          22.000  
R12  19082435.705   101934945.488       -1849.939          29.000  
> 2021  9 12 10 32  1.9995338  0  9
C06  36694324.048   191076933.040       -1469.641          22.000  
C25  21805617.585   113547571.688       -1550.919          30.000  
C33  22248080.974   115851513.898       -1637.055          26.000  
E21                                                                                                                                  24175151.691    94868483.138       -1384.108          25.000  
G10  20152243.292   105900692.187       -1242.393          26.000    20152248.988    79081744.271        -927.920          19.000  
G25  20789178.451   109247903.989       -1139.604          21.000  
G32  21828055.252   114707205.710        -174.737          36.000  
J01  38055265.788   199981782.902        -247.418          21.000  
R12  19082480.973   101935187.205       -1851.237          31.000  
> 2021  9 12 10 32  2.9995331  0  8
C06  36694398.996   191077310.914       -1472.306          26.000  
C25  21805705.424   113548029.949       -1550.807          27.000  
C33  22248184.103   115852058.123       -1637.434          28.000  
E21                                                                                                                                  24175295.291    94869042.699       -1382.678          23.000  
G10  20152272.972   105900832.132       -1243.225          30.000    20152275.370    79081850.361        -932.858          22.000  
G32  21827879.274                        -177.229          35.000  
J01  38055101.501   199980926.803        -246.856          26.000  
J02  37888836.904   199107215.1091      -2056.081          20.000  
> 2021  9 12 10 32  3.9995323  0  9
C06  36694443.365   191077534.430       -1472.448          28.000  
C25  21805765.982   113548332.216       -1553.541          25.000  
C33  22248258.151   115852446.181       -1636.523          28.000  
E21                                                                                                                                  24175410.412    94869484.404       -1383.550          22.000  
G10  20152269.674   105900815.629       -1244.418          32.000    20152271.473    79081842.467        -937.467          19.000  
G25  20789165.860   109247824.3531      -1146.221          15.000  
G32  21827674.815   114705194.6571       -175.567          33.000  
J02  37888990.098   199108011.349       -2056.055          19.000  
R12  19082724.405   101936488.0721      -1855.910          23.000  
> 2021  9 12 10 32  4.9995313  0 10
C06  36694426.577   191077445.495       -1472.231          30.000  
C25  21805763.584   113548324.520       -1553.957          22.000  
C33  22248272.841   115852521.513       -1636.279          29.000  
E21                                                                                                                                  24175464.674    94869691.397       -1384.483          27.000  
G10  20152206.118   105900484.920       -1245.244          32.000    20152208.816    79081601.426        -932.441          18.000  
G25  20789081.618   109247395.026       -1145.643          15.000  
G32  21827409.499   114703792.882        -176.610          30.000  
J01  38054651.513   199978589.6601       -249.929          20.000  
J02  37889078.237   199108490.390       -2053.922          19.000  
R12  19082772.072   101936742.539       -1852.213          20.000  
> 2021  9 12 10 32  5.9995302  0  9
C06  36694380.109   191077201.113       -1474.285          27.000  
C23  23945406.640   124690139.2481        955.935          18.000  
C25  21805731.206   113548161.588       -1554.270          30.000  
C33  22248257.552   115852440.595       -1636.648          31.000  
E21                                                                                                                                  24175487.758    94869782.170       -1384.982          27.000  
G10  20152111.084   105899997.569       -1245.226          35.000    20152114.681    79081238.609        -930.948          24.000  
G25  20788970.695   109246807.702       -1144.742          19.000  
J01  38054367.310   199977106.823        -249.621          24.000  
R12  19082791.858   101936848.866       -1853.989          27.000  
> 2021  9 12 10 32  6.9995297  0  9
C06  36694512.917   191077893.778       -1472.436          27.000  
C25  21805878.704   113548935.414       -1555.103          33.000  
C33  22248423.337   115853297.085       -1637.384          31.000  
E21                                                                                                                                  24175690.118    94870579.466       -1386.366          25.000  
G10  20152197.124                       -1246.879          37.000    20152201.621    79081581.528        -931.512          27.000  
G25  20789039.348   109247164.097       -1143.730          23.000  
G32  21826992.787   114701624.5291       -176.123          30.000  
J01  38054263.881   199976568.623        -249.616          27.000  
R12  19082987.323   101937892.841       -1856.387          33.000  
> 2021  9 12 10 32  7.9995287  0  9
C06  36694495.230   191077805.231       -1473.198          27.000  
C25  21805877.205   113548929.399       -1554.986          33.000  
C33  22248438.626   115853374.217       -1640.022          29.000  
E21                                                                                                                                  24175741.383    94870788.431       -1385.750          28.000  
G10  20152135.967   105900182.0621      -1248.353          36.000    20152138.964    79081337.044        -932.266          29.000  
G25  20788957.504   109246732.575       -1144.307          24.000  
G32  21826724.173   114700225.322        -176.417          33.000  
J01  38054010.257   199975242.500        -249.391          28.000  
R12  19083032.591   101938134.043       -1858.506          34.000  
> 2021  9 12 10 32  8.9995277  0  9
C06  36694480.840   191077718.594       -1475.209          24.000  
C25  21805874.807                       -1555.931          32.000  
C33  22248453.316   115853452.620       -1639.509          26.000  
E21                                                                                                                                  24175794.146    94870997.400       -1385.992          27.000  
G10  20152076.608   105899855.262       -1248.999          38.000    20152076.907    79081092.495        -931.935          30.000  
G31  21820345.489   114666688.6111        356.653          29.000  
G32  21826456.758   114698826.516        -176.800          32.000  
J01  38053759.930   199973916.671        -249.842          28.000  
R12  19083077.860   101938376.103       -1858.887          32.000  
> 2021  9 12 10 32  9.9995269  0 11
C06  36694525.209   191077944.011       -1474.271          25.000  
C16  37340966.187   194444192.9031      -1451.503          23.000  
C25  21805932.367   113549219.6181      -1556.426          33.000  
C33  22248529.763   115853843.427       -1639.897          27.000  
E21                                                                                                                                  24175907.767    94871444.267       -1389.093          28.000  
G10  20152073.610   105899844.410       -1251.545          37.000    20152075.109    79081083.674        -933.253          30.000  
G25  20788850.178   109246184.6321      -1144.915          20.000  
G31  21820039.101   114665071.956         355.634          27.000  
G32  21826249.602   114697743.582        -177.965          29.000  
J01  38053567.463   199972905.389        -248.138          28.000  
R12  19083183.387   101938939.375       -1860.429          34.000  
> 2021  9 12 10 32 10.9995261  0  8
C06  36694566.580   191078168.893       -1474.447          24.000  
C25  21805993.225   113549528.872       -1558.397          33.000  
C33  22248606.510   115854234.929       -1640.887          28.000  
G10  20152071.211   105899834.715       -1251.807          37.000    20152073.910    79081076.412        -935.130          31.000  
G31  21819731.814   114663456.302         354.771          26.000  
G32  21826042.445   114696661.096        -177.920          29.000  
J01  38053374.997   199971893.826        -249.613          28.000  
R12  19083294.010   101939530.826       -1861.361          34.000  
> 2021  9 12 10 32 11.9995251  0 10
C06  36694549.192   191078081.958       -1474.207          24.000  
C16  37340976.080   194444285.1511      -1449.421          19.000  
C23  23942784.056   124676453.2151        947.506          17.000  
C25  21805995.923   113549525.382       -1556.721          34.000  
C33  22248622.399   115854314.512       -1640.572          29.000  
G10  20152010.054   105899509.757       -1249.383          36.000    20152012.152    79080834.931        -934.334          28.000  
G31  21819363.369   114661526.428         352.873          24.000  
G32  21825775.030   114695263.328        -177.500          33.000  
J01  38053123.171   199970567.562        -248.204          28.000  
R12  19083348.273   101939820.301       -1862.291          35.000  
> 2021  9 12 10 32 12.9995241  0  9
C06  36694532.104   191077993.843       -1471.636          32.000  
C16  37340954.495   194444172.510       -1447.406          24.000  
C25  21805997.422   113549522.417       -1557.412          32.000  
C33  22248639.787   115854394.648       -1641.263          29.000  
G10  20151954.892   105899185.369       -1250.860          34.000    20151950.695    79080592.917        -934.307          22.000  
G31  21818990.727   114659597.567         353.852          21.000  
G32  21825509.414   114693865.021        -176.789          31.000  
J01  38052869.846   199969240.487        -248.401          24.000  
R12  19083398.638   101940089.422       -1862.701          29.000  
> 2021  9 12 10 32 13.9995233  0  9
C06  36694574.075   191078216.864       -1472.953          28.000  
C16  37340992.569   194444371.861       -1449.514          23.000  
C25  21806055.882   113549831.065       -1558.858          27.000  
C33  22248716.234   115854787.473       -1642.801          28.000  
G10  20151955.192   105899178.390       -1255.481          32.000    20151947.697    79080586.822        -935.867          26.000  
G31  21818678.943   114657983.374         353.494          22.000  
G32  21825304.356   114692781.665        -178.035          29.000  
J01  38052677.080   199968228.727        -249.093          25.000  
R12  19083508.662   101940677.317       -1863.966          31.000  
> 2021  9 12 10 32 14.9995226  0  9
C06  36694648.124   191078597.443       -1473.924          31.000  
C16  37341061.821   194444728.645       -1448.896          23.000  
C25  21806143.721   113550297.751       -1560.622          27.000  
C33  22248819.962   115855338.304       -1644.258          28.000  
G10  20151980.374   105899329.942       -1254.026          26.000    20151975.578    79080698.784        -934.321          21.000  
G31  21818404.633   114656527.873         352.557          20.000  
G32  21825129.277   114691856.935        -178.207          31.000  
J01  38052514.293   199967375.207        -250.165          24.000  
R12  19083648.365   101941423.905       -1864.872          27.000  
> 2021  9 12 10 32 15.9995215  0  8
C06  36694601.356   191078354.201       -1473.529          32.000  
C16  37341011.456   194444460.886       -1449.961          22.000  
C25  21806112.243   113550141.811       -1562.249          27.000  
C33  22248802.574   115855265.638       -1644.287          31.000  
G10                                                                  20151883.841    79080341.014        -937.951          22.000  
G31  21818006.508   114654442.504         352.134          23.000  
J01  38052233.987   199965893.072        -251.246          28.000  
R12  19083672.648   101941553.075       -1864.321          27.000  
> 2021  9 12 10 32 16.9995208  0  7
C06  36694673.906   191078733.963       -1472.890          32.000  
C16  37341081.008   194444818.520       -1450.601          23.000  
C25  21806202.480   113550611.150       -1562.309          31.000  
C33  22248909.600   115855817.479       -1645.125          29.000  
G10  20151912.621   105899002.7871      -1254.730          35.000    20151913.820    79080459.180        -945.449          20.000  
J01  38052072.099   199965040.264        -248.907          27.000  
R12  19083812.651   101942301.563       -1866.409          16.000  
> 2021  9 12 10 32 17.9995197  0  9
C06  36694625.939   191078489.848       -1473.676          29.000  
C16  37341029.443   194444550.647       -1448.452          22.000  
C25  21806172.801   113550455.886       -1561.673          29.000  
