     3.03           OBSERVATION DATA    M: Mixed            RINEX VERSION / TYPE
Geo++ RINEX Logger  Geo++               20210912 105942 UTC PGM / RUN BY / DATE
************************************************************COMMENT
This file was generated by the Geo++ RINEX Logger App       COMMENT
for Android devices (Version 2.1.6). If you encounter       COMMENT
any issues, please send an email to android@geopp.de        COMMENT
Filtering Mode: BEST                                        COMMENT
************************************************************COMMENT
Geo++                                                       MARKER NAME
GEODETIC                                                    MARKER TYPE
Geo++               Geo++                                   OBSERVER / AGENCY
unknown             HUAWEI              ELS-AN00            REC # / TYPE / VERS
unknown             ELS-AN00                                ANT # / TYPE
 -2417104.4972  5385897.9800  2406618.2130                  APPROX POSITION XYZ
        0.0000        0.0000        0.0000                  ANTENNA: DELTA H/E/N
G    8 C1C L1C D1C S1C C5Q L5Q D5Q S5Q                      SYS / # / OBS TYPES
R    4 C1C L1C D1C S1C                                      SYS / # / OBS TYPES
E   12 C1B L1B D1B S1B C1C L1C D1C S1C C5Q L5Q D5Q S5Q      SYS / # / OBS TYPES
C    4 C2I L2I D2I S2I                                      SYS / # / OBS TYPES
J    8 C1C L1C D1C S1C C5Q L5Q D5Q S5Q                      SYS / # / OBS TYPES
  2021     9    12    11     0    0.9980846     GPS         TIME OF FIRST OBS
 24 R01  1 R02 -4 R03  5 R04  6 R05  1 R06 -4 R07  5 R08  6 GLONASS SLOT / FRQ #
    R09 -2 R10 -5 R11  0 R12 -1 R13 -2 R14 -7 R15  0 R16 -1 GLONASS SLOT / FRQ #
    R17  4 R18 -3 R19  3 R20  2 R21  4 R22 -3 R23  3 R24  2 GLONASS SLOT / FRQ #
G L1C                                                       SYS / PHASE SHIFT
G L5Q -0.25000                                              SYS / PHASE SHIFT
R L1C                                                       SYS / PHASE SHIFT
E L1B                                                       SYS / PHASE SHIFT
E L1C +0.50000                                              SYS / PHASE SHIFT
E L5Q -0.25000                                              SYS / PHASE SHIFT
C L2I                                                       SYS / PHASE SHIFT
J L1C                                                       SYS / PHASE SHIFT
J L5Q -0.25000                                              SYS / PHASE SHIFT
 C1C    0.000 C1P    0.000 C2C    0.000 C2P    0.000        GLONASS COD/PHS/BIS
                                                            END OF HEADER
> 2021  9 12 11  0  0.9980846  0  5
E01                                                                                                                                  23816256.649    93460156.973          46.786          28.000  
G10  20280439.944   106574445.175       -2295.165          26.000  
G25  20895414.106   109806158.7881      -2254.300          21.000  
J01  37690266.971   198063702.106        -208.717          29.000  
J02  38118723.457   200315267.407       -2109.022          28.000  
> 2021  9 12 11  0  1.9980838  0  6
C09  37723643.465   196436910.8461      -1393.975          20.000  
E01                                                                                                                                  23816003.924    93459215.813          49.166          27.000  
G10  20280636.907   106575480.924       -2296.729          28.000  
G25  20895603.575   109807152.088       -2253.436          21.000  
J01  37690065.810   198062650.201        -207.774          29.000  
J02  38118885.345   200316116.233       -2109.513          27.000  
> 2021  9 12 11  0  2.9980828  0  7
C09  37723609.289   196436742.631       -1390.582          22.000  
E01                                                                                                                                  23815691.840    93458039.363          45.911          27.000  
G10  20280774.812   106576202.418       -2297.212          29.000  
G25  20895730.986   109807831.896       -2256.302          21.000  
G32  21449597.852   112718587.0591       -209.722          22.000  
J01  37689805.291   198061281.976        -207.830          29.000  
J02  38118986.075   200316649.874       -2108.864          28.000  
> 2021  9 12 11  0  3.9980820  0  7
C09  37723635.970   196436883.707       -1389.303          23.000  
E01                                                                                                                                  23815440.314    93457098.203          48.230          27.000  
G10  20280972.675   106577239.677       -2298.428          30.000  
G25  20895918.357   109808828.687       -2258.575          21.000  
G32  21449394.893   112717536.060        -209.364          22.000  
J01  37689606.229   198060230.129        -208.668          29.000  
J02  38119146.464   200317498.300       -2108.577          29.000  
> 2021  9 12 11  0  4.9980813  0  7
C09  37723693.231   196437178.899       -1387.124          20.000  
E01                                                                                                                                  23815218.168    93456030.688          46.812          28.000  
G10  20281201.416   106578435.467       -2299.049          29.000  
G25  20896135.706   109809984.486       -2258.920          22.000  
G32  21449226.410   112716642.149        -208.724          22.000  
J01  37689436.846   198059336.112        -208.984          29.000  
J02  38119338.631   200318503.743       -2107.682          29.000  
> 2021  9 12 11  0  5.9980803  0  7
C09  37723659.654   196437004.838       -1386.965          21.000  
E01                                                                                                                                  23814906.383    93454854.238          47.816          29.000  
G10  20281339.321   106579159.335       -2299.576          27.000  
G25  20896267.615   109810668.587       -2260.140          22.000  
G32  21448968.288   112715275.338        -208.604          23.000  
J01  37689177.226   198057969.013        -207.894          29.000  
J02  38119442.059   200319036.327       -2108.552          28.000  
> 2021  9 12 11  0  6.9980795  0  7
C09  37723688.734   196437144.535       -1389.932          21.000  
E01                                                                                                                                  23814655.157    93453913.078          45.018          27.000  
G10  20281538.983   106580198.679       -2299.988          26.000  
G25  20896458.883   109811668.609       -2260.953          22.000  
G32  21448768.926   112714223.786        -208.985          22.000  
J01  37688977.564   198056916.281        -207.270          29.000  
J02  38119602.748   200319884.410       -2108.492          28.000  
> 2021  9 12 11  0  7.9980785  0  7
C09  37723654.557   196436972.293       -1388.893          22.000  
E01                                                                                                                                  23814343.373    93452736.628          48.108          26.000  
G10  20281676.887   106580923.527       -2300.678          26.000  
G25  20896586.294   109812354.797       -2262.119          22.000  
G32  21448506.908   112712857.733        -209.831          22.000  
J01  37688716.445   198055548.344        -207.600          29.000  
J02  38119703.478   200320417.543       -2110.078          27.000  
> 2021  9 12 11  0  8.9980777  0  6
C09  37723683.038   196437113.853       -1390.664          22.000  
E01                                                                                                                                  23814091.847    93451795.468          47.327          27.000  
G10  20281874.151   106581964.242       -2301.513          27.000  
G32  21448306.346   112711807.107        -209.480          20.000  
J01  37688516.183   198054495.833        -208.266          29.000  
J02  38119865.067   200321267.093       -2110.240          27.000  
> 2021  9 12 11  0  9.9980769  0  7
C09  37723711.518   196437255.254       -1391.413          22.000  
E01                                                                                                                                  23813841.221    93450627.308          44.842          27.000  
G10  20282072.613   106583005.728       -2302.032          27.000  
G25  20896961.934   109814358.3631      -2262.979          21.000  
G32  21448104.886   112710756.337        -209.483          23.000  
J01  37688316.821   198053444.337        -209.847          29.000  
J02  38120026.954   200322116.577       -2109.368          24.000  
> 2021  9 12 11  0 10.9980759  0  6
E01                                                                                                                                  23813530.936    93449450.858          44.032          28.000  
G10  20282211.417   106583732.639       -2302.677          27.000  
G25  20897095.342   109815046.397       -2263.535          21.000  
G32  21447846.465   112709390.363        -209.675          24.000  
J01  37688056.601   198052078.268        -208.399          29.000  
J02  38120127.385   200322651.277       -2110.824          27.000  
> 2021  9 12 11  0 11.9980751  0  5
E01                                                                                                                                  23813279.710    93448509.698          43.520          27.000  
G10  20282410.180   106584775.353       -2303.580          32.000  
G25  20897289.607   109816049.817       -2264.287          20.000  
G32  21447648.302   112708339.801        -209.818          27.000  
J01  37687856.040   198051025.909        -207.702          29.000  
> 2021  9 12 11  0 12.9980744  0  5
E01                                                                                                                                  23813059.362    93447686.183          40.159          25.000  
G25  20897510.854   109817211.486       -2264.420          20.000  
G32  21447481.318   112707446.800        -209.999          25.000  
J01  37687689.655   198050130.819        -208.110          23.000  
J02  38120482.939   200324510.5881      -2110.953          24.000  
> 2021  9 12 11  0 13.9980736  0  7
C09  37723781.070   196437668.2341      -1390.403          23.000  
E01                                                                                                                                  23812808.136    93446745.023          42.223          24.000  
G10  20282838.283   106587019.0241      -2302.674          25.000  
G25  20897703.021   109818215.494       -2264.158          20.000  
G32  21447284.654   112706396.351        -210.204          26.000  
J01  37687489.394   198049079.505        -209.453          27.000  
J02  38120644.527   200325360.143       -2109.671          28.000  
> 2021  9 12 11  0 14.9980726  0  7
C09  37723745.694   196437497.679       -1389.877          22.000  
E01                                                                                                                                  23812496.951    93445352.573          40.594          26.000  
G10  20282977.687   106587747.046       -2304.231          23.000  
G25  20897833.431   109818904.462       -2264.983          21.000  
G32  21447025.933   112705030.970        -210.147          25.000  
J01  37687228.874   198047712.842        -209.439          29.000  
J02  38120746.456   200325894.729       -2109.775          29.000  
> 2021  9 12 11  0 15.9980716  0  5
E01                                                                                                                                  23812185.467    93444176.123          43.289          26.000  
G10  20283115.891   106588476.688       -2305.993          27.000  
G32  21446767.812   112703665.831        -210.567          24.000  
J01  37686967.156   198046346.963        -209.826          26.000  
J02  38120848.686   200326429.096       -2110.031          28.000  
> 2021  9 12 11  0 16.9980710  0  6
E01                                                                                                                                  23811994.199    93443470.253          42.922          26.000  
G10  20283373.713   106589838.080       -2307.220          25.000  
G25  20898216.266   109820917.2361      -2267.670          21.000  
G32  21446629.008   112702931.197        -210.700          23.000  
J01  37686826.853   198045611.621        -209.120          29.000  
J02  38121070.532   200327593.642       -2109.136          28.000  
> 2021  9 12 11  0 17.9980700  0  6
E01                                                                                                                                  23811683.614    93442293.803          41.570          23.000  
G10  20283513.716   106590570.292       -2308.119          24.000  
G25  20898343.978   109821610.186       -2268.995          21.000  
G32  21446369.387   112701566.404        -210.930          24.000  
J01  37686565.733   198044245.090        -209.351          29.000  
J02  38121171.862   200328127.422       -2109.472          25.000  
> 2021  9 12 11  0 18.9980692  0  5
E01                                                                                                                                  23811432.089    93441352.643          41.859          24.000  
G10  20283714.577   106591618.274       -2308.591          24.000  
G32  21446170.925   112700516.765        -210.714          23.000  
J01  37686366.072   198043193.855        -208.900          27.000  
J02  38121335.848   200328976.726       -2110.743          24.000  
> 2021  9 12 11  0 19.9980682  0  6
E01                                                                                                                                  23811121.504    93439954.193          42.689          25.000  
G10  20283852.781   106592351.912       -2309.116          25.000  
G25  20898665.055   109823316.8761      -2270.713          19.000  
G32  21445909.806   112699152.043        -210.859          23.000  
J01  37686104.952   198041826.980        -208.126          27.000  
J02  38121437.478   200329512.266       -2110.952          26.000  
> 2021  9 12 11  0 20.9980675  0  4
G10  20284083.022   106593559.297       -2310.126          24.000  
G32  21445736.526   112698261.032        -212.408          20.000  
J01  37685937.069   198040932.053        -207.834          24.000  
J02  38121631.744   200330520.345       -2109.941          23.000  
> 2021  9 12 11  0 21.9980667  0  4
C09  37723840.129   196438016.2761      -1390.955          22.000  
G10  20284280.885   106594608.689       -2310.022          26.000  
J01  37685737.107   198039878.932        -206.868          23.000  
J02  38121792.132   200331370.864       -2111.755          23.000  
> 2021  9 12 11  0 22.9980657  0  5
C09  37723806.852   196437846.043       -1390.723          22.000  
G10  20284421.487   106595343.382       -2310.907          28.000  
G32  21445283.239   112695850.8451       -212.667          22.000  
J01  37685476.587   198038511.829        -207.618          28.000  
J02  38121893.163   200331906.385       -2110.122          25.000  
> 2021  9 12 11  0 23.9980649  0  3
C09  37723833.234   196437987.722       -1391.052          25.000  
G10  20284621.749   106596393.801       -2311.218          26.000  
J01  37685279.024   198037459.304        -208.444          26.000  
> 2021  9 12 11  0 24.9980641  0  5
C09  37723859.615   196438128.706       -1389.701          25.000  
G10  20284824.408   106597444.882       -2312.185          28.000  
G32  21444886.914   112693755.5211       -212.031          21.000  
J01  37685077.863   198036407.891        -209.451          24.000  
J02  38122214.840   200333605.0251      -2108.276          23.000  
> 2021  9 12 11  0 25.9980631  0  5
C09  37723824.540   196437956.763       -1389.404          24.000  
G10  20284965.311   106598182.643       -2313.846          29.000  
G32  21444626.394   112692392.246        -211.082          20.000  
J01  37684818.543   198035042.047        -209.092          26.000  
J02  38122316.769   200334138.610       -2109.057          22.000  
> 2021  9 12 11  0 26.9980623  0  4
C09  37723850.022   196438096.756       -1389.638          24.000  
G10  20285167.970   106599236.666       -2314.799          29.000  
J01  37684617.982   198033991.427        -210.272          27.000  
J02  38122477.758   200334987.248       -2109.187          25.000  
> 2021  9 12 11  0 27.9980613  0  5
C09  37723817.045   196437925.101       -1389.157          24.000  
G10  20285309.772   106599976.554       -2315.634          27.000  
G32  21444167.112   112689979.0361       -210.001          21.000  
J01  37684356.863   198032624.933        -208.445          27.000  
J02  38122577.589   200335522.144       -2111.798          25.000  
> 2021  9 12 11  0 28.9980608  0  5
C09  37723936.362   196438534.579       -1390.836          25.000  
G10  20285599.971   106601503.889       -2315.347          28.000  
G32  21444053.491   112689401.634        -210.985          24.000  
J01  37684246.539   198032046.160        -209.448          21.000  
J02  38122828.815   200336847.059       -2112.659          19.000  
> 2021  9 12 11  0 29.9980598  0  6
C09  37723903.385   196438363.783       -1389.355          23.000  
G10  20285741.174   106602243.819       -2315.933          30.000  
G25  20900481.798   109832839.0621      -2286.324          16.000  
G32  21443794.770   112688039.199        -213.688          25.000  
J01  37683984.520   198030679.365        -207.603          22.000  
J02  38122928.646   200337383.714       -2112.164          24.000  
> 2021  9 12 11  0 30.9980588  0  4
C09  37723870.108   196438192.508       -1390.148          21.000  
G10  20285881.476   106602984.198       -2316.659          25.000  
G32  21443538.747   112686677.009        -212.747          20.000  
J01  37683721.902   198029311.530        -205.116          22.000  
> 2021  9 12 11  0 31.9980580  0  3
C09  37723897.389   196438333.763       -1388.898          21.000  
G10  20286084.136   106604040.572       -2316.433          20.000  
G25  20900808.871   109834571.7251      -2283.249          14.000  
> 2021  9 12 11  0 32.9980572  0  2
G25  20901002.837   109835593.031       -2283.783          14.000  
G32  21443143.920   112684582.7691       -213.294          22.000  
> 2021  9 12 11  0 33.9980564  0  3
C09  37723944.756   196438610.1301      -1387.170          19.000  
G10  20286484.959   106606154.3171      -2318.932          21.000  
G32  21442945.458   112683535.505        -212.955          22.000  
> 2021  9 12 11  0 34.9980554  0  2
G10  20286623.463   106606897.854       -2319.274          19.000  
G32  21442684.339   112682173.081        -213.127          24.000  
> 2021  9 12 11  0 35.9980544  0  1
G32  21442424.119   112680810.519        -212.929          23.000  
> 2021  9 12 11  0 36.9980539  0  3
C09  37723994.822   196438872.6071      -1390.250          22.000  
G10  20287051.566   106609174.9861      -2320.563          19.000  
G32  21442312.296   112680235.198        -212.345          22.000  
> 2021  9 12 11  0 37.9980529  0  2
C09  37723962.444   196438701.329       -1389.021          21.000  
G32  21442059.871   112678872.120        -212.215          22.000  
> 2021  9 12 11  0 38.9980521  0  4
C09  37723989.725   196438840.475       -1388.061          23.000  
G10  20287389.433   106610984.4771      -2322.119          18.000  
G25  20902079.691   109841249.6021      -2280.477          11.000  
G32  21441862.308   112677824.061        -212.396          23.000  
> 2021  9 12 11  0 39.9980511  0  3
C09  37723957.048   196438667.896       -1388.661          19.000  
G10  20287530.635   106611731.116       -2322.200          27.000  
G25  20902216.097   109841954.228       -2280.445          10.000  
> 2021  9 12 11  0 40.9980506  0  3
G10  20287824.132   106613265.740       -2322.636          30.000  
G25  20902498.501   109843447.286       -2281.372          10.000  
G32  21441493.263   112675887.0331       -213.331          26.000  
> 2021  9 12 11  0 41.9980495  0  4
C09  37724014.908   196438950.9311      -1389.932          24.000  
G10  20287938.353   106613855.583       -2323.003          26.000  
G25  20902601.330   109843996.127       -2282.335          16.000  
G32  21441202.764   112674367.012        -212.620          25.000  
> 2021  9 12 11  0 42.9980485  0  3
C09  37723981.031   196438779.193       -1388.913          24.000  
G10  20288084.651   106614603.445       -2323.703          29.000  
G32  21440941.045   112673004.161        -212.787          26.000  
> 2021  9 12 11  0 43.9980477  0  3
C09  37724007.713   196438919.494       -1388.394          26.000  
G10  20288287.311   106615667.284       -2324.694          31.000  
G32  21440741.084   112671956.632        -213.006          25.000  
> 2021  9 12 11  0 44.9980470  0  4
C09  37724064.374   196439214.822       -1387.588          27.000  
G10  20288521.149   106616889.435       -2325.513          30.000  
G25  20903149.051   109846910.9891      -2286.781          15.000  
G32  21440572.301   112671067.625        -214.072          22.000  
> 2021  9 12 11  0 45.9980462  0  3
C09  37724091.955   196439352.557       -1386.168          27.000  
G10  20288724.708   106617954.833       -2326.325          29.000  
G32  21440373.238   112670021.224        -213.437          23.000  
> 2021  9 12 11  0 46.9980452  0  3
C09  37724058.378   196439178.116       -1387.512          27.000  
G10  20288870.107   106618706.043       -2326.906          29.000  
G32  21440114.518   112668658.593        -212.733          24.000  
> 2021  9 12 11  0 47.9980442  0  3
C09  37724024.501   196439004.312       -1387.001          28.000  
G10  20289013.708   106619457.874       -2327.719          29.000  
G32  21439851.600   112667295.774        -212.784          23.000  
> 2021  9 12 11  0 48.9980436  0  3
C09  37724112.640   196439454.987       -1387.541          28.000  
G10  20289276.626   106620840.748       -2328.704          31.000  
G32  21439710.697   112666563.860        -214.206          25.000  
> 2021  9 12 11  0 49.9980426  0  3
C09  37724079.363   196439281.702       -1388.607          27.000  
G10  20289419.027   106621594.386       -2329.603          29.000  
G32  21439450.477   112665201.490        -210.637          22.000  
> 2021  9 12 11  0 50.9980419  0  4
C09  37724136.024   196439577.120       -1388.279          28.000  
G10  20289651.067   106622821.465       -2329.831          33.000  
G25  20904244.792   109852618.7141      -2294.708          15.000  
G32  21439279.895   112664309.837        -211.438          26.000  
> 2021  9 12 11  0 51.9980408  0  3
C09  37724073.667   196439248.560       -1388.387          28.000  
G10  20289764.988   106623418.390       -2330.455          32.000  
G32  21438990.895   112662789.926        -213.629          26.000  
> 2021  9 12 11  0 52.9980401  0  3
C09  37724130.628   196439544.482       -1388.598          28.000  
G10  20289998.526   106624646.407       -2332.722          31.000  
G32  21438822.712   112661901.079        -213.478          26.000  
> 2021  9 12 11  0 53.9980393  0  3
C09  37724157.609   196439684.280       -1388.208          27.000  
G10  20290199.687   106625718.216       -2331.663          31.000  
G32  21438624.849   112660855.794        -215.143          24.000  
> 2021  9 12 11  0 54.9980383  0  3
C09  37724125.232   196439510.598       -1386.923          27.000  
G10  20290342.988   106626474.422       -2332.168          29.000  
G32  21438368.227   112659495.335        -214.391          26.000  
> 2021  9 12 11  0 55.9980375  0  4
C09  37724150.714   196439648.464       -1386.190          27.000  
G10  20290545.648   106627546.160       -2331.919          30.000  
G25  20905123.184   109857163.6221      -2290.829          14.000  
G32  21438169.464   112658449.643        -214.906          26.000  
> 2021  9 12 11  0 56.9980367  0  3
C09  37724177.096   196439784.809       -1385.230          27.000  
G10  20290749.506   106628618.088       -2332.866          29.000  
G32  21437971.901   112657403.411        -213.884          27.000  
> 2021  9 12 11  0 57.9980357  0  4
C09  37724143.519   196439609.466       -1385.983          26.000  
C23  23271133.529   121178943.1591        378.034          24.000  
G10  20290893.407   106629375.698       -2332.956          29.000  
G32  21437713.480   112656042.153        -213.993          26.000  
> 2021  9 12 11  0 58.9980349  0  5
C09  37724171.400   196439746.748       -1386.319          26.000  
C23  23270822.645   121177315.471         378.024          23.000  
G10  20291097.266   106630449.068       -2334.203          29.000  
G25  20905652.918   109859949.1571      -2299.241          14.000  
G32  21437515.017   112654996.171        -214.887          26.000  
> 2021  9 12 11  0 59.9980339  0  3
C09  37724137.523   196439571.955       -1386.759          26.000  
C23  23270453.300   121175376.589         377.147          26.000  
G32  21437257.495   112653635.686        -214.166          26.000  
> 2021  9 12 11  1  0.9980334  0  3
C09  37724252.044   196440177.424       -1385.444          26.000  
C23  23270233.553   121174218.952         376.901          24.000  
G10  20291537.661   106632754.6631      -2334.171          30.000  
> 2021  9 12 11  1  1.9980324  0  5
C09  37724217.867   196440001.397       -1385.162          27.000  
C23  23269863.009   121172280.311         377.092          24.000  
G10  20291682.461   106633513.489       -2334.459          31.000  
G25  20906215.328   109862906.3361      -2298.205          11.000  
G32  21436885.453   112651696.7011       -211.171          24.000  
> 2021  9 12 11  1  2.9980316  0  4
C09  37724242.750   196440137.242       -1385.359          26.000  
C23  23269552.424   121170653.826         376.936          26.000  
G10  20291888.718   106634588.677       -2336.257          31.000  
G32  21436684.892   112650648.162        -212.494          24.000  
> 2021  9 12 11  1  3.9980306  0  3
C09  37724208.274   196439962.007       -1385.728          27.000  
G10  20292035.316   106635349.781       -2337.090          30.000  
G32  21436422.873   112649285.528        -213.281          23.000  
> 2021  9 12 11  1  4.9980298  0  3
C09  37724234.656   196440098.912       -1385.439          28.000  
C23  23268867.698   121167087.1461        376.889          22.000  
G32  21436225.010   112648238.619        -213.763          22.000  
> 2021  9 12 11  1  5.9980291  0  3
C09  37724290.117   196440391.325       -1385.309          26.000  
G10  20292478.709   106637662.2621      -2338.683          32.000  
G32  21436054.428   112647349.957        -214.741          24.000  
> 2021  9 12 11  1  6.9980280  0  3
C23  23268182.073   121163530.0431        371.676          20.000  
G10  20292595.029   106638267.584       -2337.814          31.000  
G32  21435765.129   112645831.920        -215.379          23.000  
> 2021  9 12 11  1  7.9980273  0  4
C09  37724280.824   196440354.3921      -1386.218          25.000  
C23  23267901.467   121162065.243         371.824          23.000  
G10  20292829.167   106639503.147       -2338.720          31.000  
G32  21435595.146   112644944.338        -215.177          22.000  
> 2021  9 12 11  1  8.9980265  0  4
C09  37724306.606   196440491.360       -1385.583          24.000  
C23  23267590.282   121160444.196         372.965          23.000  
G10  20293034.525   106640581.945       -2339.567          30.000  
G32  21435394.285   112643898.248        -213.904          23.000  
> 2021  9 12 11  1  9.9980255  0  3
C09  37724272.130   196440315.188       -1383.923          25.000  
C23  23267217.041   121158510.130         372.051          22.000  
G10  20293178.125   106641346.817       -2340.760          29.000  
> 2021  9 12 11  1 10.9980247  0  3
C09  37724298.512   196440450.199       -1383.842          26.000  
C23  23266905.257   121156888.535         373.315          25.000  
G10  20293381.384   106642427.451       -2341.629          28.000  
> 2021  9 12 11  1 11.9980237  0  1
C09  37724266.734   196440273.365       -1384.871          27.000  
> 2021  9 12 11  1 12.9980229  0  3
C09  37724292.216   196440408.160       -1382.869          24.000  
C23  23266222.929   121153332.3511        370.795          18.000  
G32  21434468.826   112639072.2261       -211.155          17.000  
> 2021  9 12 11  1 13.9980221  0  4
C09  37724317.099   196440542.854       -1383.753          23.000  
C23  23265909.946   121151713.008         369.169          18.000  
G10  20293936.300   106645362.8261      -2344.777          19.000  
G32  21434261.370   112638025.795        -218.033          16.000  
> 2021  9 12 11  1 14.9980211  0  4
C09  37724283.522   196440364.714       -1383.971          21.000  
C23  23265537.304   121149782.207         369.316          18.000  
G10  20294080.201   106646131.883       -2343.177          19.000  
G32  21434006.846   112636668.332        -213.522          15.000  
> 2021  9 12 11  1 15.9980204  0  2
C09  37724338.684   196440655.919       -1384.564          18.000  
G32  21433837.163   112635778.121        -211.652          15.000  
> 2021  9 12 11  1 16.9980196  0  2
C09  37724363.267   196440790.061       -1382.857          18.000  
G10  20294529.889   106648456.3191      -2344.463          20.000  
> 2021  9 12 11  1 17.9980188  0  2
G10  20294737.046   106649540.696       -2345.102          20.000  
G32  21433440.538   112633676.5621       -211.188          13.000  
> 2021  9 12 11  1 18.9980178  0  2
C09  37724357.870   196440750.1681      -1386.258          19.000  
G32  21433180.318   112632314.059        -216.347          12.000  
> 2021  9 12 11  1 19.9980170  0  2
C09  37724384.252   196440886.174       -1384.910          23.000  
G10  20295082.707   106651392.1611      -2345.230          30.000  
> 2021  9 12 11  1 20.9980160  0  2
C09  37724349.776   196440709.375       -1385.647          21.000  
G10  20295229.605   106652163.061       -2347.896          31.000  
> 2021  9 12 11  1 21.9980152  0  2
C09  37724378.256   196440845.418       -1384.107          27.000  
G10  20295437.961   106653250.962       -2348.657          31.000  
> 2021  9 12 11  1 22.9980145  0  1
G10  20295675.996   106654496.716       -2349.001          29.000  
> 2021  9 12 11  1 23.9980134  0  2
C09  37724369.263   196440803.4681      -1383.351          24.000  
G10  20295794.114   106655113.898       -2350.481          31.000  
> 2021  9 12 11  1 24.9980127  0  3
C09  37724424.724   196441094.165       -1383.738          22.000  
G10  20296032.449   106656361.850       -2351.013          33.000  
G32  21431914.894   112625582.0141       -217.524          24.000  
> 2021  9 12 11  1 25.9980119  0  3
G10  20296241.704   106657452.062       -2349.939          34.000  
G31  21360653.927   112250993.0531       -333.205          25.000  
G32  21431714.633   112624538.473        -215.396          23.000  
> 2021  9 12 11  1 26.9980109  0  3
G10  20296392.200                       -2351.787          36.000  
G31  21360415.292   112249750.186        -331.956          23.000  
G32  21431454.113   112623177.431        -212.095          21.000  
> 2021  9 12 11  1 27.9980101  0  2
G10  20296597.858   106659351.8651      -2350.573          34.000  
G31  21360233.618   112248822.023        -331.307          21.000  
> 2021  9 12 11  1 28.9980091  0  3
G10  20296745.356   106660128.630       -2352.044          31.000  
G31  21359993.784   112247578.399        -332.620          18.000  
G32  21430990.634   112620767.4311       -213.885          19.000  
> 2021  9 12 11  1 29.9980086  0  2
G10  20297046.047   106661693.818       -2353.436          35.000  
G32  21430880.910   112620193.815        -214.661          25.000  
> 2021  9 12 11  1 30.9980076  0  2
G10  20297191.147   106662472.062       -2354.156          30.000  
G32  21430620.990   112618832.290        -213.443          27.000  
> 2021  9 12 11  1 31.9980065  0  1
G10  20297314.961   106663093.481       -2354.994          30.000  
> 2021  9 12 11  1 32.9980058  0  2
G10  20297551.797   106664345.689       -2356.437          31.000  
G32  21430159.609   112616426.9301       -215.678          25.000  
> 2021  9 12 11  1 33.9980050  0  3
C09  37724494.876   196441522.8521      -1380.715          23.000  
G10  20297761.652   106665440.932       -2355.675          31.000  
G32  21429960.847   112615382.456        -215.934          26.000  
> 2021  9 12 11  1 34.9980042  0  3
C09  37724520.658   196441655.533       -1381.704          20.000  
G10  20297973.305   106666537.111       -2355.821          31.000  
G32  21429763.583   112614337.976        -215.918          25.000  
> 2021  9 12 11  1 35.9980032  0  2
G10  20298119.005   106667318.624       -2357.602          31.000  
G32  21429504.563   112612978.519        -216.176          26.000  
> 2021  9 12 11  1 36.9980022  0  2
C09  37724449.307   196441299.2251      -1383.470          19.000  
G10  20298270.700   106668100.649       -2357.434          28.000  
> 2021  9 12 11  1 37.9980017  0  3
C16  37337029.912   194423781.2281      -1236.150          20.000  
G10  20298566.295   106669670.534       -2358.286          30.000  
G32  21429139.116   112611047.8581       -216.175          27.000  
> 2021  9 12 11  1 38.9980006  0  3
C16  37336938.176   194423300.102       -1237.485          23.000  
G10  20298682.315   106670296.061       -2359.285          32.000  
G32  21428851.015   112609530.959        -216.381          28.000  
> 2021  9 12 11  1 39.9979999  0  3
C16  37336966.356   194423443.677       -1236.004          24.000  
G10  20298920.050   106671552.834       -2360.028          32.000  
G32  21428682.532   112608644.733        -216.847          29.000  
> 2021  9 12 11  1 40.9979988  0  3
C16  37336874.320   194422962.452       -1236.320          25.000  
G10  20299039.068   106672180.824       -2360.747          33.000  
G32  21428393.532   112607128.462        -216.796          29.000  
> 2021  9 12 11  1 41.9979983  0  4
C09  37724610.596   196442126.6761      -1378.884          17.000  
C16  37336960.960   194423418.163       -1235.705          25.000  
G10  20299341.258                       -2362.218          32.000  
G32  21428285.307   112606557.581        -216.622          28.000  
> 2021  9 12 11  1 42.9979973  0  4
C09  37724576.119   196441945.763       -1382.843          17.000  
C16  37336898.303   194423092.608       -1235.068          24.000  
G10  20299490.255   106674543.5091      -2361.113          33.000  
G32  21428028.684   112605198.619        -216.601          27.000  
> 2021  9 12 11  1 43.9979963  0  4
C16  37336837.146   194422766.465       -1234.600          24.000  
G10  20299633.256   106675330.434       -2361.232          33.000  
G32  21427769.664   112603839.703        -216.687          27.000  
J01  37667900.955   197946139.9811       -209.574          27.000  
> 2021  9 12 11  1 44.9979955  0  3
C16  37336834.148   194422752.812       -1236.258          25.000  
G32  21427571.801   112602795.916        -216.466          28.000  
J01  37667702.192   197945089.683        -210.397          25.000  
> 2021  9 12 11  1 45.9979948  0  4
C16  37336860.230   194422896.006       -1235.929          24.000  
G10  20300095.536   106677693.2291      -2361.297          31.000  
G32  21427403.317   112601909.684        -216.633          28.000  
J01  37667531.610   197944196.784        -209.384          27.000  
> 2021  9 12 11  1 46.9979937  0  4
C16  37336765.495   194422414.783       -1235.296          25.000  
G10  20300216.053   106678324.186       -2364.666          26.000  
G32  21427113.718   112600393.429        -217.035          26.000  
J01  37667241.411   197942673.216        -208.938          27.000  
> 2021  9 12 11  1 47.9979930  0  4
C16  37336793.076   194422556.673       -1233.753          23.000  
G10  20300451.690   106679586.011       -2364.567          30.000  
G32  21426947.633   112599507.845        -217.258          27.000  
J01  37667071.729   197941779.544        -209.378          27.000  
> 2021  9 12 11  1 48.9979919  0  4
C16  37336702.539   194422074.762       -1236.692          23.000  
G10  20300568.609   106680218.200       -2365.878          33.000  
G32  21426659.532   112597992.257        -217.321          27.000  
J01  37666781.230   197940257.096        -211.270          28.000  
> 2021  9 12 11  1 49.9979914  0  4
G10  20300867.202   106681796.723       -2366.587          33.000  
G32  21426554.305   112597420.392        -215.364          26.000  
J01  37666672.106   197939679.806        -210.360          26.000  
J02  38134579.780   200398725.8821      -2113.329          22.000  
> 2021  9 12 11  1 50.9979904  0  5
C09  37724616.292   196442195.9161      -1377.478          19.000  
E01                                                                                                                                  23787152.197    93345894.3831         13.432          30.000  
G10  20301015.899   106682587.643       -2365.922          29.000  
G32  21426296.184   112596059.346        -213.652          22.000  
J01  37666413.984   197938314.356        -210.012          26.000  
> 2021  9 12 11  1 51.9979894  0  6
C16  37336661.767   194421876.5601      -1234.005          18.000  
E01                                                                                                                                  23786848.507    93344717.933          15.022          29.000  
G10  20301164.296   106683378.160       -2366.449          29.000  
G32  21426038.362   112594698.265        -213.800          24.000  
J01  37666152.265   197936947.978        -208.688          21.000  
J02  38134789.634   200399802.3311      -2112.393          17.000  
> 2021  9 12 11  1 52.9979886  0  4
C16  37336659.069   194421861.248       -1234.750          21.000  
E01                                                                                                                                  23786605.376    93343776.773          12.687          29.000  
G10  20301373.552   106684485.812       -2368.346          30.000  
J02  38134952.122   200400654.864       -2113.897          18.000  
> 2021  9 12 11  1 53.9979878  0  4
E01                                                                                                                                  23786361.944    93342835.613          12.402          29.000  
G10  20301584.006   106685594.163       -2369.553          28.000  
G32  21425641.737   112592608.2131       -216.884          24.000  
J01  37665752.642   197934846.5951       -208.645          21.000  
> 2021  9 12 11  1 54.9979871  0  4
C16  37336681.553   194421987.6741      -1233.958          20.000  
E01                                                                                                                                  23786148.492    93342012.098          14.764          30.000  
G32  21425472.654   112591722.056        -218.022          22.000  
J01  37665581.461   197933952.489        -209.556          22.000  
> 2021  9 12 11  1 55.9979860  0  3
E01                                                                                                                                  23785814.823    93340718.003          12.598          28.000  
G10  20301947.654   106687498.1881      -2370.508          29.000  
G32  21425189.950   112590209.507        -220.480          23.000  
> 2021  9 12 11  1 56.9979850  0  4
C16  37336523.862   194421178.8161      -1234.709          21.000  
E01                                                                                                                                  23785511.733    93339541.553          10.630          26.000  
G10  20302098.749   106688293.214       -2370.263          29.000  
G32  21424933.327   112588853.809        -220.064          27.000  
> 2021  9 12 11  1 57.9979845  0  4
C16  37336612.301   194421633.307       -1235.675          21.000  
E01                                                                                                                                  23785359.139    93338953.328          10.718          27.000  
G10  20302401.840   106689876.285       -2371.133          30.000  
G32  21424826.901   112588286.108        -219.321          26.000  
> 2021  9 12 11  1 58.9979835  0  3
C16  37336551.743   194421307.818       -1235.669          21.000  
G10  20302554.434   106690672.862       -2372.355          34.000  
G32  21424572.677   112586930.605        -219.290          25.000  
> 2021  9 12 11  1 59.9979827  0  2
C16  37336549.944   194421294.672       -1236.052          22.000  
G32  21424378.411   112585889.830        -219.024          24.000  
> 2021  9 12 11  2  0.9979817  0  2
C16  37336487.887   194420970.271       -1236.703          23.000  
G10  20302921.080   106692582.5861      -2372.511          35.000  
> 2021  9 12 11  2  1.9979812  0  4
C16  37336574.228   194421423.621       -1232.645          22.000  
G10  20303225.669                       -2373.290          35.000  
G31  21353779.986   112214762.5841       -345.800          26.000  
G32  21424010.266   112583967.0791       -220.046          24.000  
> 2021  9 12 11  2  2.9979802  0  2
C16  37336512.470   194421094.693       -1232.940          22.000  
G10  20303377.364   106694970.2291      -2376.335          34.000  
> 2021  9 12 11  2  3.9979791  0  4
C16  37336421.933   194420610.109       -1232.762          24.000  
G10  20303500.579   106695612.825       -2375.204          35.000  
G31  21353273.037   112212147.8151       -347.980          25.000  
G32  21423458.948   112581096.6461       -218.332          24.000  
> 2021  9 12 11  2  4.9979784  0  4
C16  37336450.113   194420749.945       -1233.427          26.000  
G10  20303739.813   106696886.391       -2376.914          35.000  
G31  21353126.438   112211393.164        -349.524          25.000  
G32  21423288.066   112580212.044        -218.296          24.000  
> 2021  9 12 11  2  5.9979776  0  4
C16  37336447.415   194420735.061       -1235.623          26.000  
G10  20303954.465   106698002.947       -2378.611          34.000  
G31  21352951.359   112210482.261        -348.894          26.000  
G32  21423090.503   112579170.222        -218.721          24.000  
> 2021  9 12 11  2  6.9979768  0  4
C16  37336447.415   194420721.761       -1235.401          25.000  
G10  20304166.418   106699120.227       -2378.668          34.000  
G31  21352777.180   112209571.756        -350.159          24.000  
G32  21422892.040   112578128.643        -219.149          27.000  
> 2021  9 12 11  2  7.9979758  0  5
C16  37336385.058   194420394.777       -1233.743          25.000  
G10  20304317.513   106699922.868       -2379.663          34.000  
G23  22090312.795   116085377.1951      -4375.220          19.000  
G32  21422630.921   112576772.207        -219.020          27.000  
J01  37662699.855   197918894.0461       -209.946          21.000  
> 2021  9 12 11  2  8.9979748  0  4
C16  37336322.702   194420067.263       -1233.505          25.000  
G10  20304475.804   106700726.176       -2379.084          35.000  
G23  22090844.626   116088178.031       -4379.869          20.000  
G32  21422372.200   112575415.765        -219.130          25.000  
> 2021  9 12 11  2  9.9979743  0  8
C09  37724840.536   196443279.2261      -1380.621          27.000  
C13  37506017.524   195303675.0201      -3043.759          21.000  
C16  37336409.342   194420521.192       -1234.757          24.000  
C23  23247687.361   121056801.7551        350.951          28.000  
G10  20304775.896   106702317.809       -2379.852          33.000  
G23  22091526.055   116091768.382       -4377.547          19.000  
G32  21422264.575   112574847.224        -219.318          26.000  
J01  37662331.411   197916949.8451       -209.781          23.000  
> 2021  9 12 11  2 10.9979732  0  7
C09  37724776.681   196442942.171       -1379.052          28.000  
C16  37336319.404   194420038.612       -1234.531          22.000  
C23  23247290.736   121054733.933         350.507          28.000  
G10  20304896.113   106702964.909       -2379.872          33.000  
G23  22092030.306   116094412.735       -4377.527          20.000  
G32  21421974.975   112573333.247        -219.003          24.000  
J01  37662038.213   197915426.078        -209.998          22.000  
> 2021  9 12 11  2 11.9979725  0  7
C09  37724832.442   196443228.650       -1379.199          27.000  
C16  37336346.085   194420180.369       -1234.583          22.000  
C23  23247013.427   121053290.858         349.276          27.000  
G10  20305141.643   106704242.802       -2379.939          33.000  
G23  22092652.675   116097687.412       -4377.259          20.000  
G32  21421810.389   112572449.537        -219.153          23.000  
J01  37661867.931   197914534.304        -210.511          22.000  
> 2021  9 12 11  2 12.9979715  0  6
C13  37506926.195   195308427.2861      -3037.552          21.000  
C16  37336283.129   194419853.571       -1232.645          21.000  
C23  23246646.182   121051381.083         348.898          28.000  
G10  20305296.935   106705048.616       -2379.460          32.000  
G23  22093183.307   116100489.217       -4377.169          20.000  
G32  21421551.069   112571093.225        -219.544          23.000  
> 2021  9 12 11  2 13.9979707  0  5
C09  37724824.947   196443179.0971      -1380.506          27.000  
C23  23246337.995   121049782.864         348.406          27.000  
G10  20305505.891   106706170.133       -2381.379          31.000  
G32  21421352.606   112570052.821        -220.149          24.000  
J01  37661412.247   197912122.1951       -211.565          21.000  
> 2021  9 12 11  2 14.9979699  0  6
C09  37724850.729   196443309.015       -1377.039          23.000  
C13  37507613.320   195312013.3881      -3044.880          20.000  
C23  23246030.708   121048185.583         348.643          26.000  
G10  20305721.741   106707292.237       -2384.007          32.000  
G31  21351217.360   112201507.1051       -350.623          19.000  
J01  37661212.585   197911072.818        -208.561          22.000  
> 2021  9 12 11  2 15.9979689  0  7
C09  37724813.855   196443126.395       -1378.972          23.000  
C13  37507898.122   195313496.262       -3043.769          20.000  
C16  37336212.378   194419488.6991      -1231.988          22.000  
C23  23245663.462   121046275.777         348.486          29.000  
G10  20305877.034   106708100.025       -2384.761          30.000  
G31  21350983.222   112200282.945        -352.106          19.000  
G32  21420890.626   112567658.7021       -219.821          22.000  
> 2021  9 12 11  2 16.9979681  0  5
C09  37724840.237   196443256.163       -1378.785          25.000  
C13  37508241.085   195315292.418       -3045.769          20.000  
C23  23245356.475   121044678.395         348.285          30.000  
G10  20306092.285   106709223.496       -2384.398          31.000  
G32  21420686.767   112566617.766        -219.416          23.000  
> 2021  9 12 11  2 17.9979674  0  5
C09  37724894.199   196443542.341       -1378.083          25.000  
C16  37336233.363   194419610.1101      -1231.021          22.000  
C23  23245079.766   121043237.536         347.797          29.000  
G10  20306339.314   106710505.059       -2387.446          32.000  
G32  21420517.984   112565734.447        -219.613          26.000  
> 2021  9 12 11  2 18.9979663  0  6
C09  37724831.543   196443202.855       -1376.771          24.000  
C13  37508869.750   195318571.3221      -3043.761          19.000  
C16  37336139.828   194419122.449       -1229.443          23.000  
C23  23244682.541   121041172.377         348.178          30.000  
G10  20306462.229   106711157.173       -2386.424          32.000  
G32  21420229.883   112564220.615        -218.761          25.000  
> 2021  9 12 11  2 19.9979656  0  9
C09  37724886.405   196443487.006       -1376.534          23.000  
C13  37509245.989   195320522.003       -3043.532          19.000  
C16  37336165.910   194419260.054       -1231.392          19.000  
C23  23244404.634   121039731.333         348.128          29.000  
G10  20306701.163   106712440.057       -2386.859          31.000  
G23  22097246.994   116121839.5401      -4380.095          21.000  
G31  21350279.609   112196500.0741       -354.783          24.000  
G32  21420062.599   112563336.325        -218.204          22.000  
J02  38138917.777   200421520.4231      -2114.438          25.000  
> 2021  9 12 11  2 20.9979645  0  5
C09  37724819.551   196443146.886       -1377.112          26.000  
C23  23244007.708   121037666.265         347.715          29.000  
G10  20306823.778   106713093.498       -2387.916          30.000  
G23  22097751.245   116124486.517       -4380.095          22.000  
J02  38138991.825   200421902.344       -2115.398          26.000  
> 2021  9 12 11  2 21.9979640  0  6
C09  37724933.772   196443742.618       -1375.260          25.000  
C23  23243791.258   121036538.518         346.026          29.000  
G10  20307129.567   106714692.878       -2388.143          32.000  
G31  21349942.342   112194690.2971       -356.146          27.000  
G32  21419671.370   112561254.2471       -220.613          23.000  
J02  38139242.452   200423229.980       -2115.338          24.000  
> 2021  9 12 11  2 22.9979630  0  9
C09  37724900.195   196443557.232       -1376.200          26.000  
C13  37510222.114   195325595.4251      -3041.454          19.000  
C16  37336094.859   194418900.0971      -1234.365          20.000  
C23  23243424.612   121034631.185         346.110          27.000  
G10  20307285.159   106715505.194       -2388.763          32.000  
G23  22098973.199   116130886.0021      -4383.227          22.000  
G31  21349710.303   112193470.712        -355.822          25.000  
G32  21419410.850   112559899.742        -221.233          22.000  
J02  38139344.381   200423768.891       -2113.512          23.000  
> 2021  9 12 11  2 23.9979622  0  6
C09  37724925.378   196443684.544       -1376.020          24.000  
C23  23243119.123   121033035.667         346.874          31.000  
G10  20307498.611   106716633.088       -2388.236          35.000  
G23  22099572.185   116134009.000       -4382.597          22.000  
G31  21349541.220   112192565.533        -354.649          26.000  
J02  38139506.569   200424622.596       -2114.633          22.000  
> 2021  9 12 11  2 24.9979612  0  7
C09  37724890.901   196443498.827       -1375.681          24.000  
C23  23242753.377   121031127.875         346.542          29.000  
G10  20307653.604   106717446.319       -2389.087          35.000  
G23  22100105.515   116136816.666       -4383.397          22.000  
G31  21349312.778   112191345.463        -356.423          26.000  
G32  21418951.868   112557504.1561       -220.835          22.000  
J02  38139610.597   200425161.295       -2114.296          22.000  
> 2021  9 12 11  2 25.9979604  0  6
C09  37724915.185   196443625.875       -1376.333          24.000  
C23  23242449.087   121029533.366         344.644          28.000  
G10  20307865.557   106718575.277       -2388.732          34.000  
G31  21349141.597   112190442.352        -357.504          26.000  
G32  21418751.907   112556464.297        -219.754          23.000  
J02  38139773.085   200426015.393       -2116.039          23.000  
> 2021  9 12 11  2 26.9979597  0  7
C09  37724970.946   196443909.981       -1377.744          21.000  
C16  37336056.786   194418678.7541      -1231.163          20.000  
C23  23242174.178   121028096.030         344.895          27.000  
G10  20308108.389   106719862.378       -2390.674          33.000  
G31  21349000.095   112189697.522        -357.902          26.000  
G32  21418581.025   112555581.571        -220.268          23.000  
J02  38139963.453   200427028.931       -2116.387          20.000  
> 2021  9 12 11  2 27.9979587  0  5
C23  23241809.330   121026189.930         345.147          26.000  
G10  20308263.981   106720677.606       -2388.679          33.000  
G31  21348768.355   112188479.387        -356.684          26.000  
G32  21418318.707   112554227.255        -220.497          17.000  
J02  38140067.181   200427569.416       -2115.087          24.000  
> 2021  9 12 11  2 28.9979579  0  5
C09  37724961.053   196443856.4321      -1377.028          23.000  
C23  23241503.242   121024596.206         345.142          29.000  
G10  20308483.729   106721808.636       -2390.045          32.000  
G31  21348593.576   112187576.128        -357.241          25.000  
G32  21418122.942   112553189.826        -224.053          18.000  
> 2021  9 12 11  2 29.9979569  0  4
C09  37724924.778   196443671.837       -1376.618          25.000  
C23  23241136.296   121022690.841         344.201          26.000  
G10  20308640.521   106722625.040       -2391.274          32.000  
J02  38140332.797   200428964.8951      -2116.119          21.000  
> 2021  9 12 11  2 30.9979561  0  6
C09  37724948.162   196443800.185       -1377.458          25.000  
C23  23240829.309   121021097.414         344.379          22.000  
G10  20308853.973   106723756.319       -2392.086          32.000  
G31  21348191.854   112185450.6391       -355.676          17.000  
G32  21417669.956   112550797.1801       -219.628          20.000  
J02  38140495.584   200429821.044       -2117.009          26.000  
> 2021  9 12 11  2 31.9979553  0  6
C09  37724973.344   196443928.098       -1375.911          27.000  
C16  37335925.177   194417966.2861      -1228.808          18.000  
C23  23240527.118   121019505.174         342.710          28.000  
G10  20309066.526   106724888.278       -2392.652          33.000  
G31  21348018.574   112184547.279        -357.442          17.000  
J02  38140657.472   200430677.755       -2115.946          25.000  
> 2021  9 12 11  2 32.9979543  0  6
C09  37724937.669   196443743.763       -1376.870          26.000  
C23  23240164.069   121017600.280         343.239          22.000  
G10  20309226.015   106725706.509       -2394.216          31.000  
G31  21347788.933   112183330.363        -357.819          16.000  
G32  21417220.267   112548395.9741       -219.168          19.000  
J02  38140759.402   200431218.045       -2115.332          28.000  
> 2021  9 12 11  2 33.9979535  0  5
C09  37724960.753   196443871.326       -1375.454          25.000  
C23  23239859.780   121016008.233         343.917          22.000  
G10  20309439.767   106726840.243       -2394.032          31.000  
G32  21417039.792   112547361.840        -228.427          18.000  
J02  38140922.489   200432073.064       -2115.380          28.000  
> 2021  9 12 11  2 34.9979528  0  7
C09  37725014.416   196444153.656       -1375.084          23.000  
C16  37335884.405   194417751.8331      -1230.629          19.000  
C23  23239585.470   121014572.948         339.780          23.000  
G10  20309683.499   106728131.667       -2394.720          32.000  
G31  21347471.453   112181690.9991       -361.950          15.000  
G32  21416871.908   112546485.117        -223.862          18.000  
J02  38141115.255   200433085.297       -2114.969          26.000  
> 2021  9 12 11  2 35.9979520  0  7
C09  37725039.299   196444280.269       -1376.091          25.000  
C16  37335880.508   194417732.838       -1230.980          20.000  
C23  23239280.581   121012983.961         340.288          23.000  
G10  20309898.150   106729265.145       -2393.563          30.000  
G31  21347298.473   112180792.275        -361.752          16.000  
G32  21416673.146   112545446.830        -220.970          18.000  
J02  38141279.242   200433940.412       -2115.696          27.000  
> 2021  9 12 11  2 36.9979510  0  5
C09  37725005.122   196444095.740       -1377.486          25.000  
C23  23238914.534   121011081.379         343.196          29.000  
G10  20310053.443   106730083.902       -2394.931          29.000  
G32  21416416.224   112544091.195        -219.351          19.000  
J02  38141384.469   200434480.173       -2115.018          27.000  
> 2021  9 12 11  2 37.9979500  0  3
C23  23238548.188   121009178.014         341.914          23.000  
G32  21416159.901   112542735.423        -220.922          21.000  
J02  38141487.298   200435020.363       -2116.875          28.000  
> 2021  9 12 11  2 38.9979494  0  6
C16  37335802.862   194417363.9761      -1229.168          22.000  
C23  23238300.559   121007899.269         341.520          25.000  
G10  20310486.942   106732356.3801      -2397.859          29.000  
G31  21346727.068   112177782.5891       -363.226          19.000  
G32  21416032.189   112542009.861        -219.979          21.000  
J02  38141710.044   200436191.417       -2115.979          26.000  
> 2021  9 12 11  2 39.9979484  0  5
C16  37335741.404   194417033.398       -1230.718          22.000  
C23  23237933.014   121005997.100         340.128          27.000  
G10  20310642.535   106733179.330       -2398.887          26.000  
G32  21415777.066   112540654.418        -221.043          20.000  
J02  38141813.772   200436731.769       -2115.867          26.000  
> 2021  9 12 11  2 40.9979476  0  5
C16  37335738.406   194417015.372       -1230.488          22.000  
C23  23237625.427   121004407.125         341.729          26.000  
G10  20310858.086   106734317.839       -2399.101          31.000  
G31  21346331.043   112175671.5411       -361.800          21.000  
J02  38141974.161   200437587.200       -2115.675          24.000  
> 2021  9 12 11  2 41.9979466  0  2
C23  23237260.879   121002501.598         345.661          19.000  
J02  38142075.790   200438126.781       -2114.512          24.000  
> 2021  9 12 11  2 42.9979459  0  4
C16  37335703.630   194416818.8631      -1227.700          22.000  
C23  23236982.372   121001061.523         348.596          18.000  
G10  20311268.801   106736438.8401      -2400.676          36.000  
J02  38142267.058   200439139.149       -2116.109          24.000  
> 2021  9 12 11  2 43.9979451  0  5
C16  37335698.534   194416796.826       -1228.876          21.000  
C23  23236676.883   120999463.486         347.265          17.000  
G10  20311484.952   106737579.238       -2400.807          31.000  
G31  21345792.915   112172809.3001       -362.756          19.000  
J02  38142429.246   200439994.644       -2115.699          25.000  
> 2021  9 12 11  2 44.9979441  0  4
C23  23236310.537   120997556.431         344.729          16.000  
G10  20311639.944   106738404.617       -2401.195          29.000  
G31  21345563.574   112171597.885        -365.073          17.000  
J02  38142530.875   200440534.909       -2115.819          27.000  
> 2021  9 12 11  2 45.9979433  0  4
C23  23236006.547   120995964.174         340.915          15.000  
G10  20311854.895   106739545.920       -2402.092          29.000  
G31  21345392.392   112170704.888        -370.488          14.000  
G32  21414495.453   112533935.7701       -221.584          16.000  
> 2021  9 12 11  2 46.9979425  0  6
C16  37335629.881   194416421.6181      -1226.908          20.000  
C23  23235700.459   120994375.856         338.021          13.000  
G10  20312071.346   106740687.631       -2402.283          27.000  
G31  21345223.909   112169816.876        -374.883          13.000  
G32  21414294.293   112532897.900        -224.035          18.000  
J02  38142859.748   200442238.8381      -2111.254          18.000  
> 2021  9 12 11  2 47.9979415  0  5
C16  37335564.826   194416087.255       -1227.474          21.000  
C23  23235336.811   120992477.707         337.392          10.000  
G10  20312227.238   106741514.811       -2402.987          31.000  
