     3.04           OBSERVATION DATA    M: Mixed            RINEX VERSION / TYPE
Higeo_Hi1105        Huawei CBG          20220209 104449 UTC PGM / RUN BY / DATE 
************************************************************COMMENT             
* If you have any problem,                                 *COMMENT             
*     please contact with LBS Technology Group, thanks.    *COMMENT             
*                                                          *COMMENT             
* Version Higeo2RinexV1.1 2020.07.21                       *COMMENT             
* Fuction:  Convert Higeo Log to Rinex file                *COMMENT             
*                                                          *COMMENT             
* Note that the verision support B1C B2A signal            *COMMENT             
*     BDS: C1D L1D D1D S1D indicate BDS B1C                *COMMENT             
*     BDS: C5D L5D D5D S5D indicate BDS B2A                *COMMENT             
*     Reference: RINEX V3.04                               *COMMENT             
*                                                          *COMMENT             
* Copyright(C) Huawei Technologies Co., Ltd. 2019 - 2020   *COMMENT             
*     All rights reserved.                                 *COMMENT             
************************************************************COMMENT             
                                                            MARKER NAME         
                                                            MARKER NUMBER       
                                                            MARKER TYPE         
                                                            OBSERVER / AGENCY   
                                                            REC # / TYPE / VERS 
                                                            ANT # / TYPE        
        0.0000        0.0000        0.0000                  APPROX POSITION XYZ 
        0.0000        0.0000        0.0000                  ANTENNA: DELTA H/E/N
G    8 C1C L1C D1C S1C C5I L5I D5I S5I                      SYS / # / OBS TYPES 
R    4 C1C L1C D1C S1C                                      SYS / # / OBS TYPES 
E    8 C1C L1C D1C S1C C5I L5I D5I S5I                      SYS / # / OBS TYPES 
J    8 C1C L1C D1C S1C C5I L5I D5I S5I                      SYS / # / OBS TYPES 
C   12 C2I L2I D2I S2I C1D L1D D1D S1D C5D L5D D5D S5D      SYS / # / OBS TYPES 
  2022     1    20     8    44   49.0000000     GPS         TIME OF FIRST OBS   
  2022     1    20     9     7   58.0000000     GPS         TIME OF LAST OBS    
G                                                           SYS / PHASE SHIFT   
R                                                           SYS / PHASE SHIFT   
E                                                           SYS / PHASE SHIFT   
J                                                           SYS / PHASE SHIFT   
C                                                           SYS / PHASE SHIFT   
  0                                                         GLONASS SLOT / FRQ #
 C1C    0.000 C1P    0.000 C2C    0.000 C2P    0.000        GLONASS COD/PHS/BIS 
                                                            END OF HEADER       
> 2022  1 20  8 44 49.0000000  0  2                     
G 4  23017984.374       15277.378        2614.378          26.000                                                                  
G 8  20228367.215       -1111.070        -153.379          33.000                                                                  
> 2022  1 20  8 44 50.0000000  0  5                     
G 4  23018477.046       29017.094        2616.161          28.000                                                                  
G 8  20228336.275       -1912.650        -151.107          34.000                                                                  
G 9  22862386.445        2692.928        1224.779          27.000                                                                  
G21  22001337.056      -41074.498       -3044.765          31.000                                                                  
R 9  19889455.165                                          20.000  
> 2022  1 20  8 44 51.0000000  0  5                     
G 4  23018974.290       42768.193        2617.506          28.000                                                                  
G 8  20228309.419       -2701.003        -149.012          30.000                                                                  
G 9  22862617.888        9133.103        1225.804          28.000                                                                  
G21  22000756.623      -57070.193       -3041.214          29.000                                                                  
R 9  19878721.475                                          19.000  
> 2022  1 20  8 44 52.0000000  0  8                     
G 4  23019472.058       56526.980        2619.120          28.000    23019474.589       19629.624        1955.743          27.000  
G 7  22944574.538      -31358.750       -3228.198          16.000                                                                  
G 8  20228282.735       -3478.513        -146.152          31.000                                                                  
G 9  22862851.878       15590.844        1231.737          27.000                                                                  
G21  22000176.508      -73051.077       -3041.851          29.000                                                                  
R 9  19878500.940                                          19.000  
R20  20328302.561                                          25.000  
C 6  37019158.951        7929.410        1284.065          34.000                                                                                                                                  
> 2022  1 20  8 44 53.0000000  0  9                     
G 4  23019970.418       70298.630        2622.231          29.000    23019973.317       27306.666        1956.872          27.000  
G 7  23034975.761      -48322.220       -3228.234          17.000                                                                  
G 8  20228249.107       -4244.722        -146.171          32.000                                                                  
G 9  22863083.267       22066.100        1233.339          28.000                                                                  
G21  21999596.672      -89030.949       -3040.166          30.000                                                                  
R 8  23909813.928                                          20.000  
R 9  19888795.497                                          20.000  
R20  20327735.045                                          26.000  
C 6  37019406.081       14625.412        1287.208          33.000                                                                                                                                  
> 2022  1 20  8 44 54.0000000  0  9                     
G 4  23020469.285       84069.927        2619.207          24.000    23020472.166       34985.633        1956.957          25.000  
G 7  23034361.182      -65295.804       -3229.952          18.000                                                                  
G 8  20228219.791       -5015.090        -144.086          20.000                                                                  
G 9  22863316.350       28537.706        1232.220          27.000                                                                  
G21  21999019.153     -105004.006       -3037.516          31.000                                                                  
R 8  23891136.466                                          19.000  
R 9  19888578.016                                          21.000  
R20  20327138.492                                          27.000  
C 6  37019652.253       21320.454        1284.388          34.000                                                                                                                                  
> 2022  1 20  8 44 55.0000000  0 10                     
G 4  23020966.233       97836.384        2619.398          25.000    23020971.068       42666.984        1958.552          24.000  
G 7  23033741.462      -82278.455       -3229.324          17.000                                                                  
G 8  20228193.632       -5774.973        -144.114          33.000                                                                  
G 9  22863550.776       35015.676        1233.951          20.000                                                                  
G21  21998444.535     -120967.897       -3037.529          37.000                                                                  
G27  20789087.703       47837.443        1902.337          33.000                                                                  
R 8  23891378.815                                          20.000  
R 9  19888360.394                                          32.000  
R20  20326539.391                                          30.000  
C 6  37019899.890       28024.465        1289.928          30.000                                                                                                                                  
> 2022  1 20  8 44 56.0000000  0 10                     
G 4  23021464.078      111614.860        2624.324          27.000    23021470.361       50352.344        1960.010          21.000  
G 7  23033119.118      -99243.652       -3228.800          17.000                                                                  
G 8  20228170.719       -6524.823        -140.604          37.000                                                                  
G 9  22863786.337       41498.329           0.001          19.000                                                                  
G21  21997871.348     -136922.734       -3035.201          37.000                                                                  
G27  20789446.448       57833.243        1902.275          33.000                                                                  
R 8  23891629.016                                          20.000  
R 9  19888145.444                                          29.000  
R20  20325938.650                                          29.000  
C 6  37020146.934       34732.510        1288.822          34.000                                                                                                                                  
> 2022  1 20  8 44 57.0000000  0 10                     
G 4  23021962.857      125402.655        2623.098          26.000    23021969.577       58043.600        1959.195          24.000  
G 7  23032505.167     -116205.307       -3227.914          21.000                                                                  
G 8  20228146.008       -7265.941        -141.516          35.000                                                                  
G 9  22864021.147       47980.865           0.001          18.000                                                                  
G21  21997297.315     -152876.318       -3035.351          36.000                                                                  
G27  20789805.700       67830.593        1903.758          32.000                                                                  
R 8  23891881.992                                          18.000  
R 9  19887929.533                                          28.000  
R20  20325340.838                                          29.000  
C 6  37020394.169       41441.979        1288.347          34.000                                                                                                                                  
> 2022  1 20  8 44 58.0000000  0 12                     
G 4  23022460.869      139194.283        2625.219          27.000    23022468.845       65732.996        1959.329          24.000  
G 7  23031876.889     -133155.746       -3223.460          18.000                                                                  
G 8  20228118.489       -8007.188        -140.093          36.000                                                                  
G 9  22864256.184       54470.687           0.001          25.000                                                                  
G21  21996716.816     -168823.878       -3034.371          32.000                                                                  
G27  20790165.896       77830.619        1903.734          29.000                                                                  
R 8  23892135.666                                          19.000  
R 9  19887714.320                                          25.000  
R20  20324742.662                                          28.000  
C 3  37112264.928        -576.522        -178.094          32.000                                                                                                                                  
C 6  37020641.755       48155.478        1289.359          34.000                                                                                                                                  
C35  21610200.625        -661.466        -190.665          28.000                                                                                                                                  
> 2022  1 20  8 44 59.0000000  0 13                     
G 4  23022960.451      153003.803        2628.886          28.000    23022968.654       73427.604        1961.266          28.000  
G 7  23031263.287     -150101.695       -3223.681          17.000                                                                  
G 8  20228092.748       -8734.520        -137.291          37.000                                                                  
G 9  22864485.096       60970.901        1237.076          25.000                                                                  
G21  21996142.529     -184769.180       -3033.150          35.000                                                                  
G27  20790528.098       87845.608        1902.602          20.000                                                                  
R 8  23892392.234                                          18.000  
R 9  19887500.311                                          29.000  
R20  20324142.933                                          23.000  
C 2  38233281.117        -796.087        -154.863          30.000                                                                                                                                  
C 3  37112232.468       -1425.171        -166.324          31.000                                                                                                                                  
C 6  37020889.531       54878.334        1295.028          34.000                                                                                                                                  
C35  21610165.030       -1611.557        -189.748          31.000                                                                                                                                  
> 2022  1 20  8 45  0.0000000  0 12                     
G 4  23023459.370      166809.768        2627.756          30.000    23023468.586       81125.022        1961.483          28.000  
G 7  23030649.728     -167045.898       -3223.149          17.000                                                                  
G 8  20228067.078       -9453.649        -137.088          37.000                                                                  
G 9  22864722.000       67469.397        1236.953          25.000                                                                  
G21  21995569.094     -200697.912       -3029.996          34.000                                                                  
G27  20790890.650       97855.826        1905.214          20.000                                                                  
R 9  19887290.769                                          25.000  
R20  20323543.187                                          23.000  
C 2  38233248.522       -1543.255        -135.546          31.000                                                                                                                                  
C 3  37112202.154       -2260.431        -158.330          32.000                                                                                                                                  
C 6  37021137.919       61606.936        1291.763          34.000                                                                                                                                  
C35  21610131.721       -2579.425        -188.341          30.000                                                                                                                                  
> 2022  1 20  8 45  1.0000000  0 13                     
G 4  23023959.773      180618.163        2627.464          28.000    23023968.726       88824.062        1962.495          26.000  
G 7  23030026.912     -183982.676       -3222.954          14.000                                                                  
G 8  20228040.937      -10167.304        -134.563          37.000                                                                  
G 9  22864962.970       73976.311        1239.885          26.000                                                                  
G21  21994992.853     -216627.609       -3031.385          33.000                                                                  
G27  20791251.594      107874.415        1907.714          26.000                                                                  
R 9  19887074.701                                          26.000  
R20  20322941.870                                          24.000  
J 3  37740740.238       20835.052         444.555          32.000                                                                  
C 2  38233220.132       -2320.183        -136.773          29.000                                                                                                                                  
C 3  37112170.864       -3088.553        -160.667          32.000                                                                                                                                  
C 6  37021385.435       68339.000        1295.113          34.000                                                                                                                                  
C35  21610094.264       -3568.118        -189.986          29.000                                                                                                                                  
> 2022  1 20  8 45  3.0000000  0 16                     
G 4  23024657.398      199946.042        2629.506          24.000    23024669.091       99607.145        1963.043          26.000  
G 7  23029168.606     -207685.678       -3222.596          16.000                                                                  
G 8  20228004.115      -11160.369        -133.217          37.000                                                                  
G 9  22865296.374       83115.004        1245.343          29.000                                                                  
G21  21994181.641     -238912.497       -3027.098          31.000                                                                  
G27  20791758.044      121914.580        1908.913          23.000                                                                  
R 9  19886770.858                                          28.000  
R20  20322106.336                                          25.000  
E 9  26789414.482       22026.238        2316.129          27.000                                                                  
J 3  37740858.463       24124.831         447.608          32.000                                                                  
C 2  38233185.441       -3251.498        -128.222          31.000                                                                                                                                  
C 3  37112130.550       -4242.230        -158.412          34.000                                                                                                                                  
C 6  37021733.280       77766.330        1292.423          34.000                                                                                                                                  
C 9  36484804.865        3863.237         845.907          31.000                                                                                                                                  
C10  37355757.950        -808.942        -183.386          29.000                                                                                                                                  
C35  21610043.315       -4947.856        -188.306          29.000                                                                                                                                  
> 2022  1 20  8 45  4.0000000  0 17                     
G 4                                                                  23083352.631      107311.203        1963.844          25.000  
G 7  23028555.326     -224622.902           0.011          15.000                                                                  
G 8  20227977.014      -11861.522        -133.397          34.000                                                                  
G 9  22865532.161       89646.635        1244.535          25.000                                                                  
G21  21993605.609     -254827.504       -3030.060          33.000                                                                  
G27  20792119.564      131946.597        1909.240          24.000                                                                  
R 9  19886556.222                                          31.000  
R20  20321509.362                                          28.000  
E 9  26789854.612       34198.623        2316.406          24.000                                                                  
E12  24374451.701      -22007.653       -2078.728          24.000                                                                  
J 3  37740942.067       26471.534         446.216          32.000                                                                  
C 2  38233162.131       -3913.287        -123.077          30.000                                                                                                                                  
C 3  37112098.785       -5064.812        -158.641          34.000                                                                                                                                  
C 6  37021981.250       84502.977        1292.466          34.000                                                                                                                                  
C 9  36484967.399        8259.888         844.083          30.000                                                                                                                                  
C10  37355722.962       -1768.571        -184.180          27.000                                                                                                                                  
C35  21610007.216       -5925.380        -185.700          29.000                                                                                                                                  
> 2022  1 20  8 45  5.0000000  0 20                     
G 4                                                                  23083853.069      115015.581        1964.111          24.000  
G 7  23027942.003     -241561.173           0.011          13.000                                                                  
G 8  20227951.693      -12558.474        -132.439          29.000                                                                  
G 9  22865769.153       96181.020        1245.221          27.000                                                                  
G21  21993026.244     -270748.595       -3026.495          32.000                                                                  
G27  20792482.063      141983.491        1909.884          28.000                                                                  
R 9  19886342.369                                          26.000  
R20  20320910.244                                          26.000  
E 9  26790294.863       46371.991        2316.748          24.000                                                                  
E12  24374050.887      -32934.012       -2079.118          23.000                                                                  
E24  24538025.196      -26300.022       -1245.197          29.000                                                                  
J 3  37741027.660       28814.915         445.893          31.000                                                                  
C 2  38233138.610       -4576.098        -129.140          28.000                                                                                                                                  
C 3  37112065.680       -5887.039        -159.511          32.000                                                                                                                                  
C 6  37022229.514       91245.466        1295.499          33.000                                                                                                                                  
C 9  36485129.598       12651.547         845.441          31.000                                                                                                                                  
C10  37355688.550       -2720.892        -180.715          28.000                                                                                                                                  
C26  22137191.593       -7845.003       -1497.511          29.000                                                                                                                                  
C29  23958708.355       25357.662        2426.864          17.000                                                                                                                                  
C35  21609970.592       -6895.495        -187.003          28.000                                                                                                                                  
> 2022  1 20  8 45  6.0000000  0 19                     
G 4  23026161.851      241399.378        2628.390          24.000    23026170.595      122721.497        1963.764          23.000  
G 7  23027329.430     -258495.225           0.011          17.000                                                                  
G 8  20227926.703      -13257.238        -132.628          25.000                                                                  
G 9  22866005.970      102732.347        1247.671          28.000                                                                  
G27  20792848.210      152024.357        1912.734          28.000                                                                  
R 9  19886126.808                                          27.000  
R20  20320310.864                                          27.000  
E 9  26790735.621       58547.042        2317.021          24.000                                                                  
E12  24373654.069      -43859.305       -2079.119          19.000                                                                  
E24  24537790.455      -32839.773       -1244.430          24.000                                                                  
J 3  37741113.637       31164.621         448.259          31.000                                                                  
C 2  38233114.145       -5243.535        -116.150          28.000                                                                                                                                  
C 3  37112037.163       -6707.183        -156.910          30.000                                                                                                                                  
C 6  37022478.496       97988.479        1295.325          30.000                                                                                                                                  
C 9  36485292.585       17061.023         848.186          31.000                                                                                                                                  
C10  37355654.575       -3666.418        -183.117          25.000                                                                                                                                  
C26  22136906.212      -15620.897       -1491.500          30.000                                                                                                                                  
C29  23959176.369       37997.123        2428.184          17.000                                                                                                                                  
C35  21609934.651       -7862.521        -185.868          30.000                                                                                                                                  
> 2022  1 20  8 45  7.0000000  0 19                     
G 4  23026660.404      255207.297        2629.195          25.000    23026671.154      130429.214        1964.148          24.000  
G 7  23026722.547     -275423.673       -3220.698          17.000                                                                  
G 8  20227900.701      -13948.877        -132.139          22.000                                                                  
G 9  22866244.357      109277.522        1243.950          28.000    22866239.560        3156.924         927.761          22.000  
G27  20793212.698      162073.332        1910.085          33.000                                                                  
R 9  19885911.681                                          28.000  
R20  20319712.269                                          26.000  
E 9  26791176.117       70724.581        2316.870          22.000                                                                  
E12  24373258.926      -54768.395       -2074.693          19.000                                                                  
E24  24537555.090      -39379.004       -1244.242          23.000                                                                  
J 3  37741197.712       33519.803         445.856          33.000    37741195.864        1240.252         334.206          24.000  
C 2  38233092.823       -5836.004        -126.384          29.000                                                                                                                                  
C 3  37112008.141       -7526.400        -157.939          30.000                                                                                                                                  
C 6  37022727.426      104732.041        1295.691          32.000                                                                                                                                  
C 9  36485455.241       21467.275         844.695          32.000                                                                                                                                  
C10  37355619.605       -4622.635        -182.606          23.000                                                                                                                                  
C26  22136620.552      -23389.816       -1494.061          30.000                                                                                                                                  
C29  23959636.322       50639.418        2430.589          18.000                                                                                                                                  
C35  21609898.011       -8828.383        -185.179          29.000                                                                                                                                  
> 2022  1 20  8 45  8.0000000  0 19                     
G 4  23027160.199      269027.814        2630.478          26.000    23027171.892      138138.514        1963.815          25.000  
G 7  23026109.695     -292348.605       -3221.240          17.000                                                                  
G 8  20227870.145      -14639.017        -128.900          28.000                                                                  
G 9  22866480.389      115821.447        1246.569          28.000    22866477.075        6807.150         930.631          23.000  
G21  21991296.990     -318474.693       -3026.927          31.000                                                                  
G27  20793577.028      172123.827        1910.591          32.000                                                                  
R 9  19885696.137                                          28.000  
R20  20319115.140                                          24.000  
E12  24372865.127      -65680.432       -2077.519          20.000                                                                  
E24  24537319.582      -45917.059       -1244.181          23.000                                                                  
J 3  37741283.934       35875.293         448.492          31.000    37741280.725        2553.904         334.884          24.000  
C 2  38233067.487       -6496.093        -127.378          28.000                                                                                                                                  
C 3  37111976.518       -8371.662        -160.541          28.000                                                                                                                                  
C 6  37022976.301      111475.560        1296.048          30.000                                                                                                                                  
C 9  36485617.964       25870.689         845.506          32.000                                                                                                                                  
C10  37355584.708       -5578.170        -183.957          20.000                                                                                                                                  
C26  22136334.386      -31170.943       -1493.386          30.000                                                                                                                                  
C29  23960105.122       63307.796        2427.921          17.000                                                                                                                                  
C35  21609862.207       -9789.905        -184.306          29.000                                                                                                                                  
> 2022  1 20  8 45  9.0000000  0 21                     
G 4  23027660.497      282853.445        2630.263          27.000    23027672.696      145849.828        1965.439          26.000  
G 7  23025496.712     -309277.072       -3221.929          16.000                                                                  
G 8  20227847.057      -15321.333        -129.533          26.000                                                                  
G 9  22866716.856      122372.927        1245.183          27.000    22866714.153       10458.868         931.098          23.000  
G21  21990722.947     -334386.205       -3029.282          31.000                                                                  
G27  20793942.146      182176.699        1914.178          30.000                                                                  
R 9  19885481.761                                          25.000  
R20  20318518.150                                          25.000  
E12  24372472.009      -76580.956       -2074.723          20.000                                                                  
E24  24537084.510      -52449.807       -1243.240          24.000                                                                  
J 3  37741368.725       38230.785         447.776          30.000    37741366.545        3868.736         335.621          24.000  
C 2  38233042.673       -7146.089        -128.718          28.000                                                                                                                                  
C 3  37111947.165       -9163.749        -156.901          28.000                                                                                                                                  
C 5  40237333.925       -1162.476        -100.008          26.000                                                                                                                                  
C 6  37023225.352      118220.785        1295.364          29.000                                                                                                                                  
C 9  36485781.806       30285.663         846.253          31.000                                                                                                                                  
C10  37355549.912       -6525.111        -180.669          21.000                                                                                                                                  
C24  25364487.244      -88639.700       -2849.166          15.000                                                                                                                                  
C26  22136048.534      -38944.474       -1491.956          30.000                                                                                                                                  
C29  23960571.602       75955.597        2429.655          17.000                                                                                                                                  
C35  21609826.353      -10751.544        -183.153          29.000                                                                                                                                  
> 2022  1 20  8 45 10.0000000  0 21                     
G 4  23028159.695      296682.499        2631.333          27.000    23028173.517      153560.598        1964.593          23.000  
G 7  23024874.873     -326210.944       -3220.926          17.000                                                                  
G 8  20227823.603      -15996.066        -128.090          29.000                                                                  
G 9  22866955.244      128922.228        1248.318          26.000    22866951.651       14111.387         930.926          21.000  
G21  21990150.563     -350277.250       -3022.990          32.000                                                                  
G27  20794305.359      192235.325        1912.771          28.000                                                                  
R 9  19885267.631                                          30.000  
R20  20317920.585                                          27.000  
E12  24372078.506      -87489.047       -2075.820          23.000                                                                  
E24  24536850.154      -58984.624       -1243.787          28.000    24536848.864      -13473.627        -896.975          27.000  
J 3  37741454.353       40582.293         448.004          30.000    37741451.964        5183.559         335.404          24.000  
C 2  38233018.052       -7816.564        -124.505          29.000                                                                                                                                  
C 3  37111917.635       -9964.735        -149.961          27.000                                                                                                                                  
C 5  40237310.594       -1687.346         -98.841          25.000                                                                                                                                  
C 6  37023472.153      124965.069        1295.883          29.000                                                                                                                                  
C 9  36485944.740       34699.859         847.397          32.000                                                                                                                                  
C10  37355515.780       -7470.599        -181.500          20.000                                                                                                                                  
C24  25363940.074     -103477.587       -2850.795          16.000                                                                                                                                  
C26  22135762.089      -46714.428       -1491.318          32.000                                                                                                                                  
C29  23961037.538       88609.794        2429.236          17.000                                                                                                                                  
C35  21609791.109      -11709.908        -184.745          29.000                                                                                                                                  
> 2022  1 20  8 45 11.0000000  0 21                     
G 4  23028662.401      310519.150        2633.828          28.000    23028674.461      161273.333        1965.658          23.000  
G 7  23024261.899     -343138.554       -3220.197          17.000                                                                  
G 8  20227799.258      -16676.551        -129.033          24.000                                                                  
G 9  22867190.777      135485.710        1249.061          26.000    22867188.964       17767.383         931.192          20.000  
G21  21989577.720     -366176.245       -3024.069          33.000                                                                  
G27  20794671.364      202290.067        1915.800          30.000                                                                  
R 9  19885051.266                                          30.000  
R20  20317322.774                                          26.000  
E12  24371686.382      -98396.219       -2075.266          25.000                                                                  
E24  24536614.820      -65518.246       -1243.234          27.000    24536613.897      -17099.208        -903.127          26.000  
J 3  37741539.998       42946.466         450.948          30.000    37741537.452        6499.141         335.705          25.000  
C 2  38232996.082       -8413.536        -113.234          29.000                                                                                                                                  
C 3  37111889.013      -10740.358        -155.029          28.000                                                                                                                                  
C 5  40237289.060       -2270.082        -125.346          25.000                                                                                                                                  
C 6  37023721.778      131718.580        1298.042          30.000                                                                                                                                  
C 9  36486107.359       39104.180         847.696          31.000                                                                                                                                  
C10  37355482.380       -8415.736        -181.672          22.000                                                                                                                                  
C24  25363391.928     -118318.051       -2849.770          17.000                                                                                                                                  
C26  22135475.401      -54484.819       -1491.184          33.000                                                                                                                                  
C29  23961504.349      101266.416        2429.741          18.000                                                                                                                                  
C35  21609756.806      -12660.935        -181.350          27.000                                                                                                                                  
> 2022  1 20  8 45 12.0000000  0 22                     
G 4  23029165.159      324360.674        2634.131          26.000    23029175.666      168988.358        1965.839          24.000  
G 7  23023646.099     -360057.646       -3220.199          15.000                                                                  
G 8  20227777.270      -17346.437        -126.905          38.000                                                                  
G 9  22867427.420      142044.964        1249.346          27.000    22867426.688       21426.566         933.324          26.000  
G21  21989002.596     -382063.592       -3025.252          32.000                                                                  
G27  20795035.207      212354.855        1916.093          26.000                                                                  
R 9  19884835.338                                          31.000  
R20  20316726.430                                          23.000  
E12  24371292.321     -109298.350       -2074.801          23.000                                                                  
E24  24536378.042      -72048.799       -1242.621          30.000    24536375.129      -20780.926        -967.761          24.000  
E31  24406353.295       10974.174         297.383           8.000                                                                  
J 3  37741624.475       45304.642         447.534          30.000    37741623.080        7816.524         335.959          23.000  
C 2  38232973.381       -9014.077        -126.494          29.000                                                                                                                                  
C 3  37111858.526      -11562.851        -154.958          27.000                                                                                                                                  
C 5  40237265.396       -2880.178        -106.216          25.000                                                                                                                                  
C 6  37023970.638      138476.288        1298.186          29.000                                                                                                                                  
C 9  36486269.648       43532.619         848.695          31.000                                                                                                                                  
C10  37355447.043       -9363.266        -181.378          24.000                                                                                                                                  
C24  25362845.178     -133144.324       -2843.113          17.000                                                                                                                                  
C26  22135188.781      -62252.633       -1492.575          33.000                                                                                                                                  
C29  23961971.160      113918.006        2430.407          17.000                                                                                                                                  
C35  21609723.185      -13601.550        -182.111          32.000                                                                                                                                  
> 2022  1 20  8 45 13.0000000  0 23                     
G 4  23029665.038      338192.581        2631.362          23.000    23029676.923      176705.002        1966.088          24.000  
G 7  23023033.325     -376980.473       -3221.239          16.000                                                                  
G 8  20227752.822      -18015.019        -126.997          39.000    20227748.182        -212.359        -104.100          19.000  
G 9  22867664.586      148613.668        1251.158          29.000    22867664.919       25087.488         933.494          26.000  
G21  21988426.128     -397955.741       -3024.175          29.000                                                                  
G27  20795398.962      222423.685        1915.315          27.000                                                                  
R 9  19884620.752                                          25.000  
R20  20316129.231                                          21.000  
E 9  26793810.733      143829.907        2320.878          12.000                                                                  
E12  24370898.505     -120194.844       -2072.078          19.000                                                                  
E24  24536140.771      -78578.204       -1242.386          34.000                                                                  
E31  24259209.958       12538.970         297.673          10.000                                                                  
J 3  37741708.986       47669.063         452.051          28.000    37741708.639        9134.915         336.309          20.000  
C 2  38232947.644       -9713.939        -123.958          27.000                                                                                                                                  
C 3  37111829.293      -12323.476        -140.202          28.000                                                                                                                                  
C 5  40237244.647       -3442.070        -100.372          26.000                                                                                                                                  
C 6  37024219.149      145239.216        1298.071          31.000                                                                                                                                  
C 9  36486432.127       47950.741         848.398          34.000                                                                                                                                  
C10  37355411.829      -10301.268        -179.614          29.000                                                                                                                                  
C24  25362298.934     -147957.712       -2845.507          17.000                                                                                                                                  
C26  22134903.086      -70011.357       -1490.414          33.000                                                                    22134897.691       -3916.632       -1122.169          26.000  
C29  23962437.517      126576.111        2431.227          16.000                                                                                                                                  
C35  21609688.186      -14549.428        -181.148          32.000                                                                                                                                  
> 2022  1 20  8 45 14.0000000  0 23                     
G 1  24827535.770      -42525.554       -3994.058          16.000                                                                  
G 4  23030166.086      352022.129        2633.613          26.000    23030178.111      184421.478        1966.239          22.000  
G 7  23022420.386     -393907.682       -3220.959          16.000                                                                  
G 8  20227730.223      -18680.650        -127.107          34.000    20227727.590        -583.045         -92.496          23.000  
G 9  22867903.270      155174.179        1246.614          25.000    22867903.044       28750.054         935.456          23.000  
G27  20795765.929      232489.212        1915.409          31.000                                                                  
R 9  19884406.500                                          23.000  
R20  20315532.800                                          19.000  
E 9  26794252.363      156025.373        2320.578          19.000                                                                  
E12  24370504.462     -131078.521       -2068.719          16.000                                                                  
E24  24535905.054      -85107.165       -1242.376          30.000                                                                  
E31  24259266.636       14103.605         297.620           9.000                                                                  
J 3  37741793.376       50031.006         451.910          25.000    37741794.878       10455.824         336.960          21.000  
C 2  38232922.935      -10338.112        -117.913          30.000                                                                                                                                  
C 3  37111800.202      -13124.529        -157.429          30.000                                                                                                                                  
C 5  40237223.777       -4013.027         -97.508          28.000                                                                                                                                  
C 6  37024468.600      151991.518        1294.246          30.000                                                                                                                                  
C 9  36486595.271       52373.357         849.082          32.000                                                                                                                                  
C10  37355376.352      -11242.026        -182.806          30.000                                                                                                                                  
C24  25361751.765     -162766.230       -2841.736          14.000                                                                                                                                  
C26  22134617.007      -77771.754       -1491.736          31.000                                                                    22134611.717       -8321.989       -1121.965          24.000  
C29  23962904.589      139240.567        2432.332          17.000                                                                                                                                  
C35  21609653.551      -15482.011        -179.089          33.000                                                                    21609650.425        -211.690        -135.341          22.000  
> 2022  1 20  8 45 15.0000000  0 23                     
G 4  23030667.361      365864.196        2633.246          21.000    23030679.124      192138.364        1968.243          21.000  
G 7  23021805.039     -410829.678       -3218.905          17.000                                                                  
G 8  20227706.455      -19341.223        -124.539          36.000    20227703.472        -950.924         -92.536          22.000  
G 9  22868138.499      161730.895        1250.885          28.000    22868141.397       32414.759         935.022          23.000  
G21  21987606.104      -10120.487       -3022.870          33.000                                                                  
G27  20796131.550      242562.494        1916.661          32.000                                                                  
R 9  19884189.421                                          25.000  
R20  20314935.514                                          18.000  
E 9  26794693.906      168218.791        2319.973          24.000                                                                  
E12  24370110.174     -141967.494       -2070.524          14.000                                                                  
E24  24535669.807      -91633.695       -1241.846          32.000                                                                  
E31  24259323.332       15669.066         298.162          10.000                                                                  
J 3  37741878.602       52396.447         449.335          29.000    37741880.454       11776.246         338.715          20.000  
C 2  38232898.314      -10992.830        -124.824          26.000                                                                                                                                  
C 3  37111768.317      -13987.339        -162.952          28.000                                                                                                                                  
C 5  40237201.929       -4606.013        -113.467          27.000                                                                                                                                  
C 6  37024718.279      158748.670        1300.118          30.000                                                                                                                                  
C 9  36486759.566       56800.899         851.198          33.000                                                                                                                                  
C10  37355342.102      -12178.286        -179.589          30.000                                                                                                                                  
