     3.04           OBSERVATION DATA    M: Mixed            RINEX VERSION / TYPE
Higeo_Hi1105        Huawei CBG          20220123 112148 UTC PGM / RUN BY / DATE 
************************************************************COMMENT             
* If you have any problem,                                 *COMMENT             
*     please contact with LBS Technology Group, thanks.    *COMMENT             
*                                                          *COMMENT             
* Version Higeo2RinexV1.1 2020.07.21                       *COMMENT             
* Fuction:  Convert Higeo Log to Rinex file                *COMMENT             
*                                                          *COMMENT             
* Note that the verision support B1C B2A signal            *COMMENT             
*     BDS: C1D L1D D1D S1D indicate BDS B1C                *COMMENT             
*     BDS: C5D L5D D5D S5D indicate BDS B2A                *COMMENT             
*     Reference: RINEX V3.04                               *COMMENT             
*                                                          *COMMENT             
* Copyright(C) Huawei Technologies Co., Ltd. 2019 - 2020   *COMMENT             
*     All rights reserved.                                 *COMMENT             
************************************************************COMMENT             
                                                            MARKER NAME         
                                                            MARKER NUMBER       
                                                            MARKER TYPE         
                                                            OBSERVER / AGENCY   
                                                            REC # / TYPE / VERS 
                                                            ANT # / TYPE        
        0.0000        0.0000        0.0000                  APPROX POSITION XYZ 
        0.0000        0.0000        0.0000                  ANTENNA: DELTA H/E/N
G    8 C1C L1C D1C S1C C5I L5I D5I S5I                      SYS / # / OBS TYPES 
R    4 C1C L1C D1C S1C                                      SYS / # / OBS TYPES 
E    8 C1C L1C D1C S1C C5I L5I D5I S5I                      SYS / # / OBS TYPES 
J    8 C1C L1C D1C S1C C5I L5I D5I S5I                      SYS / # / OBS TYPES 
C   12 C2I L2I D2I S2I C1D L1D D1D S1D C5D L5D D5D S5D      SYS / # / OBS TYPES 
  2021    12     7     4    25   56.0000000     GPS         TIME OF FIRST OBS   
  2021    12     7     4    45   43.0000000     GPS         TIME OF LAST OBS    
G                                                           SYS / PHASE SHIFT   
R                                                           SYS / PHASE SHIFT   
E                                                           SYS / PHASE SHIFT   
J                                                           SYS / PHASE SHIFT   
C                                                           SYS / PHASE SHIFT   
  0                                                         GLONASS SLOT / FRQ #
 C1C    0.000 C1P    0.000 C2C    0.000 C2P    0.000        GLONASS COD/PHS/BIS 
                                                            END OF HEADER       
> 2021 12  7  4 25 56.0000000  0  7                     
G10                     18008.900         521.964          29.000                        4953.588         388.869          23.000  
G21                    -16880.545        -687.290          18.000                                                                  
G25                    -46573.444       -1848.626          30.000                                                                  
G31                   -107377.036       -2766.574          24.000                                                                  
G32                    -16061.603       -1027.138          21.000                                                                  
R 7                                                        22.000  
R 8                                                        23.000  
> 2021 12  7  4 25 57.0000000  0  7                     
G10                     20745.774         521.723          29.000                        6481.281         388.919          24.000  
G21                    -20493.259        -690.324          17.000                                                                  
G25                    -56288.682       -1848.479          34.000                                                                  
G31                   -121929.596       -2770.021          24.000                                                                  
G32                    -21459.103       -1025.698          32.000                                                                  
R 7                                                        21.000  
R 8                                                        29.000  
> 2021 12  7  4 25 58.0000000  0  7                     
G10                     23485.509         520.888          20.000                        8009.285         389.462          26.000  
G21                    -24120.821        -688.858          18.000                                                                  
G25                    -65997.411       -1846.967          30.000                                                                  
G31                   -136475.683       -2767.703          27.000                                                                  
G32                    -26849.529       -1026.465          24.000                                                                  
R 7                                                        20.000  
R 8                                                        17.000  
> 2021 12  7  4 25 59.0000000  0  7                     
G10                     26224.297         522.015          30.000                        9537.849         389.271          25.000  
G21                    -27741.394        -686.648          20.000                                                                  
G25                    -75710.722       -1846.923          32.000                                                                  
G31                   -151021.400       -2767.292          28.000                                                                  
G32                    -32247.290       -1027.137          30.000                                                                  
R 7                                                        19.000  
R 8                                                        18.000  
> 2021 12  7  4 26  0.0000000  0  7                     
G10                     28963.392         520.506          34.000                       11066.384         389.350          26.000  
G21                    -31363.206        -692.012          22.000                                                                  
G25                    -85415.629       -1846.228          18.000                                                                  
G31                   -165565.846       -2768.367          29.000                                                                  
G32                    -37627.782       -1025.642          21.000                                                                  
R 7                                                        18.000  
R 8                                                        25.000  
> 2021 12  7  4 26  1.0000000  0  7                     
G10                     31691.563         519.777          24.000                       12594.596         388.585          23.000  
G21                    -34990.441        -688.935          18.000                                                                  
G25                    -95128.094       -1849.647          29.000                                                                  
G31                   -180115.126       -2770.176          27.000                                                                  
G32                    -43028.481       -1029.471          28.000                                                                  
R 7                                                        17.000  
R 8                                                        23.000  
> 2021 12  7  4 26  3.0000000  0  7                     
G10                     35629.116         521.807          28.000                       14797.194         390.617          16.000  
G21                    -40194.477        -685.815          17.000                                                                  
G25                   -109117.200       -1848.679          23.000                                                                  
G31                   -201078.234       -2769.854          25.000                                                                  
G32                    -50821.704       -1025.590          28.000                                                                  
R 7                                                        18.000  
R 8                                                        24.000  
> 2021 12  7  4 26  4.0000000  0  9                     
G10                     38375.077         522.429          28.000                       16331.712         392.294          17.000  
G21                    -43812.995        -690.972          17.000                                                                  
G25                   -118825.106       -1847.541          24.000                                                                  
G31                   -215634.365       -2769.397          22.000                                                                  
G32                    -56223.717       -1028.703          34.000                                                                  
R 7                                                        19.000  
R 8                                                        22.000  
E 9                     -3810.924        -877.290          30.000                                                                  
E11                     19388.963        2859.901          18.000                                                                  
> 2021 12  7  4 26  5.0000000  0 10                     
G10                     41110.339         519.014          36.000                       17871.088         392.956          19.000  
G21                    -47443.516        -690.774          17.000                                                                  
G25                   -128543.709       -1850.377          24.000                                                                  
G31                   -230191.743       -2771.701          31.000                                                                  
G32                    -61630.474       -1028.402          30.000                                                                  
R 7                                                        22.000  
R 8                                                        23.000  
E 9                     -8426.134        -878.641          25.000                                                                  
E11                     34412.769        2856.841          27.000                                                                  
E36                      7649.155        1665.403          20.000                                                                  
> 2021 12  7  4 26  6.0000000  0  8                     
G10                     43846.285         520.181          30.000                       19401.367         390.000          20.000  
G21                    -51064.281        -687.124          17.000                                                                  
G25                   -138269.999       -1849.264          30.000                                                                  
G31                   -244750.898       -2770.566          22.000                                                                  
G32                    -67032.428       -1029.034          25.000                                                                  
R 7                                                        21.000  
R 8                                                        20.000  
E36                     16394.630        1663.273          23.000                                                                  
> 2021 12  7  4 26  7.0000000  0 13                     
G10                     46580.869         520.388          29.000                       20931.798         392.867          21.000  
G21                    -54671.957        -687.074          17.000                                                                  
G23                     89405.105        2748.921          17.000                                                                  
G25                   -147973.954       -1846.392          30.000                                                                  
G31                   -259308.557       -2770.638          20.000                                                                  
G32                    -72444.504       -1029.628          22.000                                                                  
R 7                                                        22.000  
R 8                                                        27.000  
R 9                                                        23.000  
E 9                     -4453.021        -876.566          19.000                                                                  
E11                                                                                     12637.081        2137.109          17.000  
E36                     25145.528        1667.045          17.000                                                                  
C 8                     10134.163        1862.129          27.000                                                                                                                                  
> 2021 12  7  4 26  8.0000000  0 17                     
G10                     49326.706         524.654          32.000                       22464.923         390.808          19.000  
G21                    -58280.277        -687.260          17.000                                                                  
G23                    103852.363        2748.158          15.000                                                                  
G25                   -157683.492       -1847.998          37.000                                                                  
G31                   -273865.063       -2768.178          35.000                                                                  
G32                    -77858.168       -1029.856          37.000                                                                  
R 7                                                        20.000  
R 8                                                        19.000  
R 9                                                        27.000  
E 9                     -9067.931        -878.632          30.000                                                                  
E11                     30559.401        2857.763          18.000                       21017.616        2134.164          17.000  
E36                     33888.414        1664.425          22.000                       10658.622        1244.567          21.000  
J 1                    -61694.017        -756.634          27.000                                                                  
J 2                     28607.411         304.440          25.000                       12339.765         230.157          19.000  
C 8                     19828.177        1861.929          28.000                                                                                                                                  
C21                       332.806         114.689          33.000                                                                                                                                  
C26                     -7790.982       -1960.092          33.000                                                                                                                                  
> 2021 12  7  4 26  9.0000000  0 20                     
G10                     52071.912         519.117          29.000                       23993.997         390.715          20.000  
G21                    -61891.274        -686.543          18.000                                                                  
G23                    118306.084        2749.713          17.000                                                                  
G25                   -167410.858       -1851.840          34.000                                                                  
G31                   -288412.230       -2768.610          30.000                                                                  
G32                    -83275.225       -1027.812          28.000                                                                  
R 7                                                        21.000  
R 8                                                        20.000  
R 9                                                        22.000  
E 9                    -13691.826        -879.310          22.000                                                                  
E11                     45576.327        2854.847          22.000                       29390.123        2134.198          16.000  
E24                    -15562.127       -3040.904          28.000                                                                  
E36                     42647.202        1666.943          23.000                       15542.257        1246.744          19.000  
J 1                    -65678.153        -759.937          31.000                                                                  
J 2                     30205.430         304.984          31.000                       13237.727         227.176          20.000  
C 3                       580.937         122.846          27.000                                                                                                                                  
C 8                     29509.078        1859.692          26.000                                                                                                                                  
C13                     11381.367        1700.582          29.000                                                                                                                                  
C21                       933.893         114.389          21.000                                                                                                                                  
C26                    -18004.336       -1964.108          30.000                                                                                                                                  
> 2021 12  7  4 26 10.0000000  0 20                     
G10                     54803.451         520.536          29.000                       25520.140         390.053          21.000  
G21                    -65503.859        -687.105          19.000                                                                  
G23                    132754.037        2749.315          17.000                                                                  
G25                   -177140.618       -1852.641          25.000                                                                  
G31                   -302963.143       -2771.884          30.000                                                                  
G32                    -88691.482       -1031.077          25.000                                                                  
R 7                                                        19.000  
R 8                                                        21.000  
R 9                                                        20.000  
E 9                    -18315.824        -879.732          20.000                                                                  
E11                     60573.213        2854.140          23.000                       37761.363        2133.920          20.000  
E24                    -31552.120       -3042.936          26.000                                                                  
E36                     51407.417        1666.515          24.000                       20427.024        1244.823          20.000  
J 1                    -69664.909        -760.785          20.000                                                                  
J 2                     31804.605         305.095          24.000                       14114.111         223.200          19.000  
C 3                      1226.563         116.364          26.000                                                                                                                                  
C 8                     39191.356        1858.040          24.000                                                                                                                                  
C13                     20230.368        1698.594          25.000                                                                                                                                  
C21                      1523.830         110.468          20.000                                                                                                                                  
C26                    -28223.158       -1961.190          34.000                                                                                                                                  
> 2021 12  7  4 26 11.0000000  0 19                     
G10                     57534.385         518.543          27.000                       27049.566         391.211          21.000  
G21                    -69110.554        -684.747          18.000                                                                  
G23                    147199.377        2749.245          17.000                                                                  
G25                   -186873.608       -1850.778          28.000                                                                  
G31                   -317522.261       -2768.238          32.000                                                                  
G32                    -94107.921       -1031.787          22.000                                                                  
R 7                                                        20.000  
R 8                                                        20.000  
R 9                                                        20.000  
E 9                    -22937.858        -880.057          19.000                                                                  
E11                     75573.615        2854.264          21.000                       46129.095        2132.819          22.000  
E36                     60171.250        1665.874          20.000                       25306.036        1242.873          19.000  
J 1                    -73656.484        -760.909          18.000                                                                  
J 2                     33397.824         302.322          20.000                       14987.788         222.314          19.000  
C 3                      1915.893         135.769          28.000                                                                                                                                  
C 8                     48868.939        1859.246          26.000                                                                                                                                  
C13                     29075.049        1700.377          28.000                                                                                                                                  
C21                      2104.952         113.804          21.000                                                                                                                                  
C26                    -38443.157       -1964.862          30.000                                                                                       -7593.060       -1479.816          26.000  
> 2021 12  7  4 26 12.0000000  0 20                     
G10                     60283.507         528.175          27.000                       28583.848         390.265          18.000  
G21                    -72711.879        -686.057          19.000                                                                  
G23                    161645.314        2748.395          18.000                                                                  
G25                   -196602.525       -1852.553          27.000                                                                  
G31                   -332080.135       -2767.051          30.000                                                                  
G32                    -99520.711       -1031.624          22.000                                                                  
R 7                                                        21.000  
R 8                                                        17.000  
R 9                                                        18.000  
E 9                    -27559.561        -878.117          18.000                                                                  
E11                     90568.273        2852.649          18.000                       54502.628        2134.303          18.000  
E36                     68916.465        1664.991          19.000                       30188.604        1243.766          17.000  
J 1                    -77661.304        -760.296          20.000                                                                  
J 2                     34981.258         300.945          23.000                       15844.273         218.091          17.000  
C 3                      2631.619         133.374          24.000                                                                                                                                  
C 6                      1203.553         166.663          14.000                                                                                                                                  
C 8                     58552.930        1859.305          26.000                                                                                                                                  
C13                     37931.973        1702.339          25.000                                                                                                                                  
C21                      2689.678         113.064          21.000                                                                                                                                  
C26                    -48647.758       -1956.848          28.000                                                                                      -13404.262       -1479.660          21.000  
> 2021 12  7  4 26 13.0000000  0 24                     
G10                     63028.130         518.013          28.000                       30112.352         390.705          21.000  
G21                    -76325.553        -688.326          17.000                                                                  
G23                    176079.449        2745.834          18.000                                                                  
G25                   -206341.509       -1856.006          27.000                                                                  
G31                   -346625.673       -2768.022          29.000                                                                  
G32                   -104951.026       -1034.019          23.000                                                                  
R 7                                                        27.000  
R 8                                                        24.000  
R 9                                                        26.000  
E 4                     24872.365         983.185          25.000                                                                  
E 9                    -32192.367        -881.914          18.000                                                                  
E11                    105575.229        2854.047          22.000                       62871.384        2132.155          19.000  
E24                     -4379.820       -3041.701          26.000                                                                  
E36                     77659.604        1662.382          19.000                       35073.821        1244.568          17.000  
J 1                    -81663.681        -763.519          23.000                                                                  
J 2                     36559.540         299.046          30.000                                                                  
C 3                      3249.772         118.564          28.000                                                                                                                                  
C 6                      2070.950         167.114          20.000                                                                                                                                  
C 8                     68238.516        1859.583          24.000                                                                                                                                  
C 9                      1952.833         131.686          17.000                                                                                                                                  
C10                     -6423.031       -1183.085          23.000                                                                                                                                  
C13                     46793.062        1700.017          21.000                                                                                                                                  
C21                      3282.614         112.966          23.000                                                                                                                                  
C26                    -58853.244       -1962.490          27.000                                                                                      -19206.515       -1478.012          17.000  
> 2021 12  7  4 26 14.0000000  0 25                     
G10                     65752.853         518.410          29.000                       31636.832         388.958          20.000  
G21                    -79936.817        -688.695          19.000                                                                  
G23                    190506.260        2745.417          19.000                                                                  
G25                   -216075.667       -1849.486          28.000                       -4380.019       -1381.290          24.000  
G31                   -361181.997       -2768.997          27.000                                                                  
G32                   -110383.980       -1031.767          30.000                                                                  
R 7                                                        22.000  
R 8                                                        24.000  
R 9                                                        28.000  
E 4                     30046.838         983.891          21.000                                                                  
E 9                    -36831.151        -881.855          26.000                                                                  
E11                    120570.101        2854.355          20.000                       71239.836        2134.087          19.000  
E24                    -20366.410       -3043.229          22.000                                                                  
E31                    -22212.091       -1833.037          15.000                                                                  
E36                     86404.823        1664.177          22.000                       39953.203        1245.005          17.000  
J 1                    -85673.247        -763.385          23.000                                                                  
J 2                     38137.869         302.319          31.000                                                                  
C 3                      3831.733         114.231          27.000                                                                                                                                  
C 6                      2937.447         164.054          19.000                                                                                                                                  
C 8                     77921.869        1859.833          28.000                                                                                                                                  
C 9                      2632.343         128.510          19.000                                                                                                                                  
C10                    -12586.231       -1184.951          19.000                                                                                                                                  
C13                     55640.413        1699.865          25.000                                                                                                                                  
C21                      3872.822         113.155          20.000                                                                                                                                  
C26                    -69084.415       -1965.425          29.000                                                                                      -25005.687       -1476.682          20.000  
> 2021 12  7  4 26 15.0000000  0 26                     
G10                     68503.456         526.448          21.000                       33156.009         387.115          18.000  
G21                    -83556.575        -689.350          19.000                                                                  
G23                    204934.495        2745.726          19.000                                                                  
G25                   -225799.501       -1851.873          23.000                       -9795.590       -1379.993          24.000  
G31                   -375728.150       -2770.785          30.000                                                                  
G32                   -115819.764       -1034.047          25.000                                                                  
R 7                                                        22.000  
R 8                                                        27.000  
R 9                                                        24.000  
E 1                     35174.199         955.230          12.000                                                                  
E 4                     35229.954         989.538          18.000                                                                  
E 9                    -41470.489        -884.431          18.000                       -8739.506        -659.156          14.000  
E11                    135579.315        2854.681          22.000                       79615.120        2134.228          17.000  
E24                    -36349.569       -3041.467          25.000                                                                  
E31                    -31839.920       -1831.455          16.000                                                                  
E36                     95152.025        1664.665          22.000                       44839.467        1245.313          15.000  
J 1                    -89682.229        -762.195          22.000                                                                  
J 2                     39725.264         299.823          23.000                       18444.553         225.466          19.000  
C 3                      4432.329         108.608          29.000                                                                                                                                  
C 6                      3774.160         162.957          17.000                                                                                                                                  
C 8                     87609.642        1859.106          22.000                                                                                                                                  
C 9                      3308.059         129.041          20.000                                                                                                                                  
C10                    -18756.831       -1184.277          19.000                                                                                                                                  
C13                     64489.997        1700.084          25.000                                                                                                                                  
C21                      4465.960         114.826          23.000                                                                                                                                  
C26                    -79307.885       -1962.311          24.000                                                                                      -30806.913       -1477.430          18.000  
> 2021 12  7  4 26 16.0000000  0 25                     
G10                     71257.454         523.255          35.000                       34680.631         389.209          21.000  
G21                    -87182.496        -690.711          17.000                                                                  
G23                    219372.066        2749.789          17.000                                                                  
G25                   -235529.317       -1850.214          20.000                      -15209.167       -1380.225          19.000  
G31                   -390281.767       -2768.234          26.000                                                                  
G32                   -121251.792       -1033.610          23.000                                                                  
R 7                                                        23.000  
R 8                                                        28.000  
R 9                                                        26.000  
E 1                     40192.416         954.283          11.000                                                                  
E 9                    -46104.670        -881.608          30.000                                                                  
E11                    150573.719        2852.963          22.000                       87990.767        2132.793          20.000  
E24                    -52332.992       -3041.840          31.000                                                                  
E36                    103902.171        1667.053          18.000                       49721.012        1243.315          17.000  
J 1                    -93684.933        -760.676          17.000                                                                  
J 2                     41318.140         301.890          20.000                       19332.210         228.053          20.000  
C 3                      5030.594         109.918          29.000                                                                                                                                  
C 6                      4618.100         160.396          17.000                                                                                                                                  
C 8                     97292.533        1858.899          26.000                                                                                                                                  
C 9                      3986.185         129.251          17.000                                                                                                                                  
C10                    -24930.647       -1188.066          16.000                                                                                                                                  
C13                     73342.543        1699.010          19.000                                                                                                                                  
C14                    -73809.990       -2674.737          17.000                                                                                                                                  
C21                      5060.222         113.650          30.000                                                                                                                                  
C26                    -89517.081       -1960.257          32.000                                                                                      -36605.832       -1479.785          20.000  
> 2021 12  7  4 26 17.0000000  0 26                     
G10                     74013.375         525.291          34.000                       36216.414         391.415          23.000  
G21                    -90814.211        -688.713          15.000                                                                  
G23                    233835.482        2750.957          20.000                                                                  
G25                   -245237.892       -1846.562          19.000                      -20637.586       -1381.131          17.000  
G31                   -404829.584       -2768.825          29.000                                                                  
G32                   -126682.149       -1033.270          30.000                                                                  
R 7                                                        18.000  
R 8                                                        27.000  
R 9                                                        25.000  
E 1                     45209.225         954.088           9.000                                                                  
E 4                     45656.055         996.052          19.000                                                                  
E 9                    -50739.277        -882.021          26.000                      -13920.615        -657.427          18.000  
E11                    165564.112        2852.107          24.000                       96349.349        2130.325          20.000  
E24                    -68320.706       -3042.396          31.000                                                                  
E36                    112646.906        1664.962          22.000                       54592.086        1242.568          17.000  
J 1                    -97676.447        -758.496          17.000                                                                  
J 2                     42895.407         302.688          16.000                       20213.500         223.883          18.000  
C 3                      5618.923         110.606          30.000                                                                                                                                  
C 6                      5459.191         162.608          16.000                                                                                                                                  
C 8                    106976.253        1859.190          25.000                                                                                                                                  
C 9                      4657.728         128.995          19.000                                                                                                                                  
C13                     82191.362           0.017          17.000                                                                                                                                  
C14                    -87742.776       -2676.826          17.000                                                                                                                                  
C21                      5652.983         114.942          24.000                                                                                                                                  
C22                     67679.836        2349.648          18.000                                                                                                                                  
C26                    -99724.556       -1960.319          24.000                                                                                      -42409.639       -1480.454          20.000  
> 2021 12  7  4 26 18.0000000  0 28                     
G10                     76767.591         523.562          31.000                       37753.029         391.784          24.000  
G21                    -94429.698        -687.804          17.000                                                                  
G23                    248291.911        2750.571          24.000                                                                  
G25                   -254936.176       -1844.693          24.000                      -26049.223       -1378.748          18.000  
G31                   -419385.337       -2770.094          26.000                                                                  
G32                   -132110.583       -1033.055          29.000                                                                  
R 7                                                        15.000  
R 8                                                        30.000  
R 9                                                        22.000  
R24                                                        17.000  
E 1                     50222.172         953.961           9.000                                                                  
E 4                     50873.517         991.197          21.000                                                                  
E 9                    -55368.509        -879.482          18.000                      -16505.780        -659.723          16.000  
E11                    180552.493        2851.788          24.000                      104702.911        2129.527          19.000  
E24                    -84310.088       -3043.023          27.000                                                                  
E36                    121394.431        1663.991          15.000                       59476.778        1246.634          19.000  
J 1                   -101669.250        -761.779          19.000                                                                  
J 2                     44479.566         299.334          17.000                       21090.424         224.149          18.000  
C 3                      6223.814         105.957          29.000                                                                                                                                  
C 6                      6303.859         161.831          17.000                                                                                                                                  
C 8                    116659.775        1861.377          18.000                                                                                                                                  
C 9                      5327.809         130.216          18.000                                                                                                                                  
C13                     91039.187           0.017          20.000                                                                                                                                  
C14                   -101683.570       -2675.695          16.000                                                                                                                                  
C21                      6230.687         107.677          18.000                                                                                                                                  
C22                     79908.851        2348.565          17.000                                                                                                                                  
C24                   -106120.964       -3237.867          15.000                                                                                                                                  
C26                   -109942.250       -1962.803          23.000                                                                                      -48211.806       -1477.566          19.000  
> 2021 12  7  4 26 19.0000000  0 28                     
G10                     79524.986         526.029          34.000                       39289.771         392.157          22.000  
G21                    -98039.067        -686.501          17.000                                                                  
G23                    262745.254        2750.758          24.000                                                                  
G25                   -264636.683       -1847.015          25.000                      -31471.075       -1381.650          16.000  
G31                   -433950.272       -2772.828          26.000                                                                  
G32                   -137548.419       -1033.350          29.000                                                                  
R 7                                                        19.000  
R 8                                                        28.000  
R 9                                                        24.000  
R24                                                        18.000  
E 1                     55234.223         953.361           8.000                                                                  
E 4                     56072.851         987.337          20.000                                                                  
E 9                    -59989.834        -880.732          27.000                      -19092.597        -658.105          17.000  
E11                    195542.313        2852.506          24.000                      113061.547        2132.021          19.000  
E24                   -100297.544       -3042.164          29.000                                                                  
E36                    130133.947        1663.134          20.000                       64367.348        1246.946          17.000  
J 1                   -105673.666        -763.506          19.000                                                                  
J 2                     46058.208         301.135          21.000                       21975.187         227.280          18.000  
C 3                      6893.560         152.661          30.000                                                                                                                                  
C 6                      7152.867         163.535          17.000                                                                                                                                  
C 8                    126358.311        1861.545          20.000                                                                                                                                  
C 9                      6002.282         129.883          17.000                                                                                                                                  
C13                     99878.006        1696.294          22.000                                                                                                                                  
C14                   -115621.175       -2675.708          16.000                                                                                                                                  
C21                      6806.449         112.874          23.000                                                                                                                                  
C22                     92139.598        2349.433          17.000                                                                                                                                  
C24                   -122980.866       -3236.677          15.000                                                                                                                                  
C26                   -120159.350       -1960.706          23.000                                                                                      -54008.170       -1476.211          17.000  
> 2021 12  7  4 26 20.0000000  0 30                     
G10                     82278.733          -0.015          19.000                       40830.571         392.988          18.000  
G21                   -101641.876        -686.140          15.000                                                                  
G23                    277201.166        2751.368          22.000                                                                  
G25                   -274345.991       -1846.766          23.000                      -36882.635       -1379.541          16.000  
G31                   -448514.445       -2769.666          33.000                                                                  
G32                   -142975.968       -1032.637          28.000                                                                  
R 7                                                        30.000  
R 8                                                        30.000  
R 9                                                        22.000  
R10                                                        29.000  
R24                                                        16.000  
E 1                     60241.824         952.804           7.000                                                                  
E 4                     61255.661         986.156          25.000                                                                  
E 9                    -64627.570        -882.953          27.000                      -21671.982        -657.318          14.000  
E11                    210529.703        2851.747          23.000                      121424.472        2131.620          18.000  
E24                   -116287.291       -3043.070          28.000                                                                  
E31                    -79881.952       -1825.452          19.000                                                                  
E36                    138877.567        1664.237          22.000                       69257.366        1246.723          18.000  
J 1                   -109674.959        -761.185          18.000                                                                  
J 2                     47643.599         302.947          20.000                       22863.922         225.710          20.000  
C 3                      7644.490         152.313          30.000                                                                                                                                  
C 6                      8004.640         163.864          22.000                                                                                                                                  
C 8                    136046.381        1860.193          31.000                                                                                                                                  
C 9                      6673.514         128.040          23.000                                                                                                                                  
C13                    108712.116        1696.319          17.000                                                                                                                                  
C14                   -129553.892       -2675.282          15.000                                                                                                                                  
C21                      7397.683         114.736          25.000                                                                                                                                  
C22                    104392.608        2355.091          16.000                                                                                                                                  
C24                   -139839.059       -3237.669          13.000                                                                                                                                  
C26                   -130371.358       -1962.664          33.000                                                                                                                                  
> 2021 12  7  4 26 21.0000000  0 30                     
G10                     85038.377         526.412          33.000                       42373.546         393.259          18.000  
G21                   -105251.540        -686.808          17.000                                                                  
G23                    291660.307        2751.277          21.000                                                                  
