     3.03           OBSERVATION DATA    M: Mixed            RINEX VERSION / TYPE
Geo++ RINEX Logger  Geo++               20210912 102606 UTC PGM / RUN BY / DATE
************************************************************COMMENT
This file was generated by the Geo++ RINEX Logger App       COMMENT
for Android devices (Version 2.1.6). If you encounter       COMMENT
any issues, please send an email to android@geopp.de        COMMENT
Filtering Mode: MORE                                        COMMENT
************************************************************COMMENT
Geo++                                                       MARKER NAME
GEODETIC                                                    MARKER TYPE
Geo++               Geo++                                   OBSERVER / AGENCY
unknown             HUAWEI              ELS-AN00            REC # / TYPE / VERS
unknown             ELS-AN00                                ANT # / TYPE
 -2418278.9907  5385838.5050  2405634.6872                  APPROX POSITION XYZ
        0.0000        0.0000        0.0000                  ANTENNA: DELTA H/E/N
G    8 C1C L1C D1C S1C C5Q L5Q D5Q S5Q                      SYS / # / OBS TYPES
R    4 C1C L1C D1C S1C                                      SYS / # / OBS TYPES
E   12 C1B L1B D1B S1B C1C L1C D1C S1C C5Q L5Q D5Q S5Q      SYS / # / OBS TYPES
C    4 C2I L2I D2I S2I                                      SYS / # / OBS TYPES
J    8 C1C L1C D1C S1C C5Q L5Q D5Q S5Q                      SYS / # / OBS TYPES
  2021     9    12    10    26   24.1965701     GPS         TIME OF FIRST OBS
 24 R01  1 R02 -4 R03  5 R04  6 R05  1 R06 -4 R07  5 R08  6 GLONASS SLOT / FRQ #
    R09 -2 R10 -5 R11  0 R12 -1 R13 -2 R14 -7 R15  0 R16 -1 GLONASS SLOT / FRQ #
    R17  4 R18 -3 R19  3 R20  2 R21  4 R22 -3 R23  3 R24  2 GLONASS SLOT / FRQ #
G L1C                                                       SYS / PHASE SHIFT
G L5Q -0.25000                                              SYS / PHASE SHIFT
R L1C                                                       SYS / PHASE SHIFT
E L1B                                                       SYS / PHASE SHIFT
E L1C +0.50000                                              SYS / PHASE SHIFT
E L5Q -0.25000                                              SYS / PHASE SHIFT
C L2I                                                       SYS / PHASE SHIFT
J L1C                                                       SYS / PHASE SHIFT
J L5Q -0.25000                                              SYS / PHASE SHIFT
 C1C    0.000 C1P    0.000 C2C    0.000 C2P    0.000        GLONASS COD/PHS/BIS
                                                            END OF HEADER
> 2021  9 12 10 26 24.1965701  3  1
Geo++                                                       MARKER NAME
> 2021  9 12 10 26 24.1965701  0  0
> 2021  9 12 10 26 32.0433597  0  3
G10  20167688.300                        -232.706          40.000  
G25  20811562.455                        -115.580          29.000  
G32  21904121.592                         629.888          38.000  
> 2021  9 12 10 26 33.0433592  0  5
G10  20167576.477                        -234.836          37.000  
G12  22326607.711                       -1862.899          24.000  
G25  20811432.945                        -117.469          30.000  
G32  21903854.477                         628.936          42.000  
J02  37846960.095                       -1238.569          30.000  
> 2021  9 12 10 26 34.0433590  0  7
C06  36687139.222   191039561.8181       -707.926          36.000  
C25  21799064.722   113513451.1861       -607.132          39.000  
C335393955870.254                        -605.115          35.000  
G10  20167564.186   105981050.3121       -238.413          38.000  
G25  20811393.372   109364513.9151       -118.034          28.000  
G32  21903676.101   115104588.5101        628.561          42.000  
J02  37847134.874   198888042.3501      -1238.797          30.000  
> 2021  9 12 10 26 35.9999990  0  8
C06  36687185.990   191039805.813        -706.918          32.000  
C24  24278229.032   126423110.0321      -3221.293          28.000  
C25  21799071.617   113513486.711        -608.371          37.000  
C33  22235487.592                        -720.166          36.000  
G10  20167438.273   105980604.199        -238.800          41.000  
G25  20811216.195   109363679.337        -121.653          29.000  
G32  21903224.613   115102223.190         628.166          41.000  
J02  37847376.506   198889306.599       -1240.498          31.000  
> 2021  9 12 10 26 36.9999985  0  9
C06  36687162.906   191039733.597        -707.717          29.000  
C24  24278699.706   126425551.260       -3222.807          28.000  
C25  21799041.338   113513315.656        -609.259          39.000  
C33  22235479.498   115785958.9591       -721.118          38.000  
G10  20167333.046   105980055.191        -241.240          39.000    20167335.444    79140956.7841       -179.026          30.000  
G12  22327575.741   117332203.3721      -1864.811          24.000  
G25  20811091.781   109363013.415        -122.104          31.000  
G32  21902952.701   115100807.991         626.533          39.000  
J02  37847463.446   198889759.485       -1241.374          31.000  
> 2021  9 12 10 26 37.9999982  0  6
C06  36687212.971   191039974.375        -708.465          31.000  
C24  24279228.540   126428307.479       -3225.171          22.000  
C25  21799068.319   113513457.682        -610.676          38.000  
C33  22235527.764   115786211.798        -721.618          37.000  
G10  20167283.280                        -240.872          35.000    20167291.674    79140783.742        -181.475          23.000  
G32  21902740.448                         626.674          40.000  
> 2021  9 12 10 26 38.9999980  0  8
C06  36687286.120   191040371.474        -709.383          32.000  
C24  24279782.856   126431219.239       -3224.456          28.000  
C25  21799126.479   113513756.840        -610.506          41.000  
C33  22235599.115                        -722.565          34.000  
G10  20167269.490   105979748.8321       -240.795          37.000    20167278.484    79140728.768        -179.882          25.000  
G25  20810998.546   109362470.9931       -123.160          27.000  
G31  21934198.271   115264990.8011       1295.261          21.000  
G32  21902561.472   115098766.9821        627.670          41.000  
> 2021  9 12 10 26 39.9999974  0  7
C06  36687245.349   191040144.109        -710.327          35.000  
C24  24280217.855   126433506.233       -3223.060          24.000  
C25  21799063.522   113513432.061        -612.448          41.000  
C33  22235562.540   115786407.3831       -723.461          39.000  
G10  20167141.179   105979045.410        -243.250          39.000    20167144.476    79140202.265        -178.692          24.000  
G25  20810841.454   109361648.870        -123.436          31.000  
G32  21902261.980   115097195.368         627.027          46.000  
> 2021  9 12 10 26 40.9999972  0 10
C06  36687327.192   191040541.637        -709.942          37.000  
C08  37749671.446   196572445.9221      -2295.223          26.000  
C24  24280773.670   126436417.501       -3224.300          23.000  
C25  21799119.883   113513732.583        -613.353          41.000  
C33  22235642.585   115786818.440        -722.803          43.000  
G10  20167129.187   105978973.185        -243.205          40.000    20167130.686    79140146.436        -180.376          24.000  
G25  20810805.179   109361458.646        -125.636          31.000  
G31  21933463.479   115261143.0581       1293.071          25.000  
G32  21902083.903   115096254.388         625.512          46.000  
J02  37848033.052   198892681.3791      -1243.390          32.000  
> 2021  9 12 10 26 41.9999967  0  9
C06  36687316.699   191040471.123        -709.549          37.000  
C08  37749960.746   196573960.793       -2294.646          25.000  
C24  24281240.447   126438861.665       -3227.051          23.000  
C25  21799086.906   113513565.806        -613.692          40.000  
C33  22235633.291   115786762.039        -724.625          43.000  
G10  20167024.559   105978429.452        -244.167          39.000    20167027.557    79139740.417        -183.452          26.000  
G31  21933065.355   115259061.954        1293.588          25.000  
G32  21901813.790   115094841.224         624.876          45.000  
J02  37848122.090   198893137.227       -1243.530          31.000  
> 2021  9 12 10 26 42.9999964  0 11
C06  36687363.767   191040713.068        -710.940          37.000  
C08  37750310.604   196575787.328       -2296.375          28.000  
C24  24281770.480   126441620.956       -3228.152          19.000  
C25  21799115.386   113513712.021        -615.860          40.000  
C33  22235678.260   115787018.394        -726.441          43.000  
G10  20166984.387   105978201.721        -245.508          42.000  
G12  22329025.537                       -1872.573          35.000  
G25  20810611.513   109360452.1351       -127.595          31.000  
G31  21932725.690   115257295.975        1294.080          26.000  
G32  21901606.633   115093743.465         625.310          44.000    21901608.132    85946614.7101        467.675          35.000  
J02  37848266.890   198893908.641       -1244.648          30.000  
> 2021  9 12 10 26 43.9999959  0 11
C06  36687348.177   191040643.517        -711.313          36.000  
C08  37750601.702   196577303.898       -2297.721          26.000  
C24  24282240.255   126444069.010       -3228.188          21.000  
C25  21799083.608   113513547.176        -616.224          39.000  
C33  22235668.967   115786963.863        -726.450          38.000  
G10  20166875.862   105977660.183        -247.696          36.000  
G23  21045173.330   110593132.6581      -2677.821          29.000  
G25  20810484.102   109359792.212        -128.488          29.000  
G31  21932329.364   115255214.563        1292.598          25.000  
G32  21901337.120   115092331.405         623.586          42.000    21901340.118    85945560.256         467.715          34.000  
J02  37848352.031   198894365.623       -1245.820          28.000  
> 2021  9 12 10 26 44.9999956  0  8
C06  36687395.245   191040886.338        -711.271          37.000  
C25  21799110.890   113513695.250        -615.994          41.000  
C33  22235719.632   115787222.028        -726.172          44.000  
G10  20166825.197   105977435.366        -248.110          32.000  
G23  21045591.240   110595338.331       -2678.506          34.000  
G25  20810417.248   109359447.933        -129.435          32.000  
G32  21901123.068   115091234.651         624.090          43.000    21901131.462    85944740.980         465.834          33.000  
J02  37848496.831   198895139.245       -1246.413          29.000  
> 2021  9 12 10 26 45.9999951  0 13
C06  36687377.857   191040817.246        -712.255          36.000  
C08  37751245.357   196580651.5801      -2298.108          22.000  
C09  37668178.563   196148091.0351       -810.347          27.000  
C14  22992384.703   119727380.8431      -2004.579          27.000  
C24  24283240.662   126449277.4491      -3228.188          20.000  
C25  21799079.711   113513532.076        -619.782          37.000  
C33  22235707.940   115787168.587        -734.239          41.000  
G10  20166721.769   105976895.443        -247.597          32.000  
G23  21045948.593   110597229.750       -2679.727          33.000  
G25  20810291.335   109358790.762        -131.236          31.000  
G31  21931596.971   115251373.5481       1287.984          21.000  
G32  21900859.251   115089823.326         622.891          41.000    21900862.249    85943687.300         465.716          33.000  
J02  37848581.972   198895597.595       -1245.322          30.000  
> 2021  9 12 10 26 46.9999949  0 10
C06  36687451.306   191041217.838        -710.663          30.000  
C08  37751627.592   196582637.709       -2298.489          22.000  
C14  22992710.877   119729073.152       -2005.107          24.000  
C25  21799139.070   113513839.234        -618.120          34.000  
C33  22235787.385   115787583.463        -725.210          33.000  
G10  20166709.178   105976829.321        -249.345          31.000  
G23  21046396.783   110599595.049       -2680.730          30.000  
G25  20810255.660   109358607.650        -132.370          28.000  
G32  21900677.576   115088884.653         621.424          35.000    21900683.272    85942986.783         465.887          34.000  
J02  37848755.852   198896528.075       -1245.766          24.000  
> 2021  9 12 10 26 47.9999946  0 10
C06  36687498.973   191041460.859        -712.335          32.000  
C08  37751981.647   196584468.117       -2299.328          25.000  
C09  37668343.448   196148933.8001       -814.588          22.000  
C24  24284331.607   126454951.4881      -3227.703          20.000  
C25  21799166.951   113513989.546        -619.937          33.000  
C33  22235835.951                        -725.637          33.000  
G23  21046814.693   110601803.900       -2682.017          31.000  
G25  20810191.504   109358268.474        -134.876          31.000  
G32  21900471.019   115087789.539         624.377          41.000    21900475.816    85942168.837         463.447          33.000  
J02  37848899.752   198897301.365       -1246.944          27.000  
> 2021  9 12 10 26 48.9999941  0  8
C06  36687486.981   191041392.214        -712.084          34.000  
C08  37752273.645   196585985.927       -2297.206          26.000  
C09  37668349.744   196148968.483        -814.856          24.000  
C14  22993241.210   119731842.4621      -2010.374          20.000  
C25  21799134.573   113513828.457        -619.563          35.000  
C33  22235825.758   115787783.1191       -733.133          33.000  
G25  20810067.390   109357616.194        -136.555          29.000  
G32  21900205.703   115086379.368         621.685          43.000    21900207.502    85941115.871         465.757          33.000  
> 2021  9 12 10 26 49.9999939  0  8
C06  36687564.328                        -713.623          35.000  
C08  37752654.081   196587972.510       -2297.718          23.000  
C25  21799196.031   113514136.842        -623.068          38.000  
C33  22235902.205   115788199.922        -730.422          25.000  
G25  20810032.914   109357438.005        -137.675          27.000  
G32  21900029.425                         622.289          45.000    21900028.826    85940416.368         466.584          34.000  
J018012323338.697                       -2337.403          32.000  
J02  37849160.871   198898692.5431      -1247.821          24.000  
> 2021  9 12 10 26 50.9999933  0 13
C06  36687523.856   191041552.4981       -714.456          35.000  
C08  37752916.700   196589333.239       -2299.271          23.000  
C09  37668424.992   196149347.5281       -813.529          25.000  
C14  22993770.344   119734616.8441      -2010.915          21.000  
C24  24285802.689   126462604.3011      -3230.194          20.000  
C25  21799139.670                        -624.550          39.000  
C33  22235862.333   115787994.199        -731.789          32.000  
G10  20166430.671                        -256.543          40.000  
G25  20809880.320   109356629.178        -135.020          23.000  
G31  21929840.188   115242103.0271       1285.945          30.000  
G32  21899728.134   115083876.5981        622.027          40.000    21899730.832    85939246.140         463.435          34.000  
J01  38122431.290                         540.178          31.000  
R12  19064225.112   101837668.8351       -782.314          34.000  
> 2021  9 12 10 26 51.9999931  0 13
C06  36687597.005   191041954.129        -713.721          31.000  
C09  37668524.223   196149849.424        -814.458          26.000  
C14  22994094.719   119736313.879       -2008.292          21.000  
C25  21799199.928   113514152.1191       -623.331          34.000  
C33  22235944.476   115788414.383        -733.254          35.000  
G10  20166421.077   105975248.6651       -255.243          35.000  
G12  22331261.090   117351569.6961      -1879.828          25.000  
G23  21048408.990   110610174.1201      -2685.909          22.000  
G25  20809845.244   109356449.154        -138.078          23.000  
G32  21899545.860   115082940.465         620.875          39.000    21899551.856    85938547.566         463.061          30.000  
J02  37849398.906   198899929.8411      -1249.767          31.000  
R01  20391191.072   109002603.3771       -935.199          20.000  
R12  19064311.752   101838131.952        -783.660          33.000  
> 2021  9 12 10 26 52.9999926  0  9
C06  36687586.812   191041887.721        -716.294          32.000  
C08  37753586.136   196592842.3401      -2302.410          26.000  
C09  37668530.519   196149882.195        -812.632          21.000  
C25  21799171.148   113513995.332        -625.090          38.000  
C33  22235947.474   115788367.160        -734.340          36.000  
G10  20166320.947   105974716.733        -256.909          42.000  
G12  22331467.647   117352663.237       -1882.622          25.000  
G32  21899281.143   115081532.398         620.050          45.000    21899283.541    85937496.048         463.395          36.000  
R12  19064311.752   101838132.195        -784.765          36.000  
> 2021  9 12 10 26 53.9999921  0 14
C06  36687575.720   191041821.666        -715.226          33.000  
C08  37753878.134   196594363.772       -2302.436          31.000  
C09  37668537.114   196149914.792        -813.462          21.000  
C14  22994560.597   119738771.0721      -2009.808          20.000  
C25  21799142.368   113513839.513        -625.399          39.000  
C33  22235940.878                        -733.484          36.000  
G10  20166220.516   105974185.899        -256.784          42.000  
G12  22331674.803   117353758.734       -1884.872          27.000  
G23  21049135.087   110613972.3631      -2687.730          26.000  
G25  20809599.414   109355152.0641       -140.916          23.000  
G32  21899014.028   115080124.846         620.035          45.000    21899016.127    85936444.721         462.612          39.000  
J01  38121759.155   200331196.9371        540.015          31.000  
J02  37849579.681   198900855.3811      -1251.095          28.000  
R12  19064315.049   101838150.005        -786.455          40.000  
> 2021  9 12 10 26 54.9999918  0 12
C06  36687621.888   191042068.386        -716.912          33.000  
C08  37754230.090   196596198.903       -2305.040          30.000  
C09  37668603.069   196150260.239        -813.546          23.000  
C14  22994854.394   119740314.013       -2012.125          20.000  
C25  21799172.047   113513997.134        -627.249          38.000  
C33  22235991.543   115788646.0211       -736.003          37.000  
G10  20166179.145   105973971.485        -258.516          42.000  
G12  22331943.717   117355171.398       -1885.923          27.000  
G25  20809536.458   109354821.186        -142.864          26.000  
G31  21928428.765   115234601.0481       1284.253          26.000  
G32  21898808.370   115079033.023         619.151          45.000    21898809.570    85935628.851         462.721          39.000  
R12  19064379.505   101838493.500        -787.527          40.000  
> 2021  9 12 10 26 55.9999913  0 14
C06  36687611.395   191042003.543        -716.162          35.000  
C08  37754522.388   196597723.541       -2304.927          31.000  
C09  37668609.364   196150292.657        -813.955          23.000  
C14  22995088.531   119741546.264       -2013.826          20.000  
C25  21799142.668   113513843.699        -628.559          37.000  
C33  22235981.950   115788601.690        -737.241          38.000  
G10  20166077.215                        -260.808          42.000  
G12  22332150.574   117356271.006       -1887.784          25.000  
G23  21049922.942   110618089.2811      -2689.094          24.000  
G25  20809415.941   109354176.474        -142.989          23.000  
G31  21928038.135   115232529.636        1282.567          25.000  
G32  21898540.356   115077626.887         617.772          44.000    21898541.555                         460.618          38.000  
J02  37849819.815   198902097.7811      -1252.392          27.000  
R12  19064378.605   101838489.391        -789.661          41.000  
> 2021  9 12 10 26 56.9999913  0 13
C06  36687748.100   191042718.420        -714.555          30.000  
C08  37754963.982   196600028.475       -2305.155          32.000  
C09  37668767.655   196151107.644        -816.369          23.000  
C14  22995471.966   119743559.799       -2014.713          20.000  
C25  21799263.484   113514471.491        -629.323          34.000  
C33  22236121.354   115789338.524        -738.225          38.000  
G10  20166125.482   105973704.5981       -260.373          36.000  
G23  21050435.287   110620778.719       -2689.902          23.000  
G25  20809442.922   109354319.042        -143.212          23.000  
G31  21927798.901   115231247.920        1280.838          27.000  
G32  21898421.338   115077008.903         616.974          41.000    21898424.936    85934119.3311        461.025          36.000  
J01  38121203.340   200328320.1711        534.442          33.000  
R12  19064524.604   101839269.033        -789.917          39.000  
> 2021  9 12 10 26 57.9999908  0 11
C08  37755255.081   196601554.189       -2306.137          28.000  
C09  37668776.649   196151146.159        -822.960          20.000  
C23  24086001.808   125422132.8781       1834.128          27.000  
C25  21799231.106   113514320.622        -629.195          30.000  
C33  22236113.559   115789296.619        -738.270          35.000  
G10  20166030.448   105973179.358        -264.296          32.000  
G23  21050797.736   110622682.400       -2692.309          21.000  
G25  20809319.408   109353674.680        -143.726          21.000  
G32  21898153.624   115075604.271         616.179          43.000    21898157.221    85933070.487         459.270          36.000  
J01  38120950.615   200326997.103         535.250          28.000  
R12  19064521.007   101839249.465        -792.415          33.000  
> 2021  9 12 10 27 22.1559444  0  0
> 2021  9 12 10 27 23.1559442  0  0
> 2021  9 12 10 27 24.1559437  0  0
> 2021  9 12 10 27 25.9999990  0  1
G32  21891636.735   115041327.9611        599.234          40.000  
> 2021  9 12 10 27 26.9999987  0  1
G32  21891434.375                         604.115          43.000  
> 2021  9 12 10 27 27.9999982  0  3
C06  36688383.661   191046041.4591       -728.162          35.000  
C25  21799425.372   113515328.9381       -658.525          32.000  
G32  21891167.560   115038872.1641        607.203          41.000  
> 2021  9 12 10 27 28.9999982  0  3
C06  36688523.664   191046770.607        -728.773          33.000  
C25  21799550.086   113515987.734        -658.581          36.000  
G32  21891050.341   115038267.922         603.105          41.000  
> 2021  9 12 10 27 29.9999977  0  3
C06  36688512.271   191046717.489        -727.042          28.000  
C25  21799528.800   113515864.877        -657.695          35.000  
G32  21890791.321   115036877.143         602.777          41.000  
> 2021  9 12 10 27 30.9999974  0  3
C06  36688560.538   191046975.976        -727.247          32.000  
C25  21799568.673                        -659.233          41.000  
G32  21890586.862   115035801.917         602.223          43.000  
> 2021  9 12 10 27 31.9999969  0  4
C06  36688549.746   191046922.591        -727.420          32.000  
C25  21799544.389   113515954.4401       -660.333          40.000  
G10  20163952.886   105962288.0981       -298.539          45.000  
G32  21890320.646                         601.972          41.000  
> 2021  9 12 10 27 32.9999964  0  7
C06  36688546.748                        -726.307          34.000  
C25  21799521.905                        -659.920          39.000  
G10  20163858.451   105961798.723        -297.984          44.000  
G25  20806376.945   109338249.4851       -183.358          28.000  
G31  21914957.591   115163880.0231       1250.501          23.000  
G32  21890058.028   115033020.8801        602.344          44.000  
J02  37854512.466   198926805.8201      -1270.047          32.000  
> 2021  9 12 10 27 33.9999962  0  8
C06  36688624.694   191047307.1201       -728.393          31.000  
C09  37670359.853   196159449.3421       -831.283          28.000  
C24  24307737.903   126576770.7331      -3254.200          20.000  
C25  21799586.660   113516181.7521       -660.784          40.000  
G10  20163853.954   105961782.935        -300.199          42.000  
G25  20806351.163   109338118.484        -184.383          30.000  
G32  21889884.149   115032103.671         602.264          44.000  
J02  37854683.648                       -1269.519          31.000  
> 2021  9 12 10 27 34.9999956  0  8
C06  36688583.322   191047098.814        -728.920          33.000  
C09  37670341.565   196159343.361        -830.847          28.000  
C24  24308185.493   126579089.137       -3255.802          21.000  
C25  21799535.096   113515906.364        -662.734          38.000  
G10  20163730.140   105961137.688        -300.548          42.000  
G25  20806205.464   109337357.990        -185.366          31.000  
G32  21889589.752   115030556.413         601.210          44.000  
J02  37854752.900   198928030.1251      -1270.635          31.000  
> 2021  9 12 10 27 35.9999951  0  8
C06  36688573.729   191047046.854        -728.738          33.000  
C09  37670352.358   196159393.942        -831.117          29.000  
C24  24308662.463   126581564.526       -3256.140          22.000  
C25  21799510.513   113515787.886        -661.672          37.000  
G10  20163639.303   105960650.992        -301.262          42.000  
G25  20806090.343   109336755.435        -185.336          31.000  
G32  21889324.436   115029167.034         601.014          44.000  
J02  37854849.733   198928512.581       -1269.996          30.000  
> 2021  9 12 10 27 36.9999949  0  8
C06  36688655.872   191047463.246        -729.300          35.000  
C09  37670452.189   196159912.083        -829.503          29.000  
C24  24309228.771   126584508.392       -3256.231          22.000  
C25  21799574.668   113516138.310        -663.438          32.000  
G10  20163637.504   105960637.669        -302.872          40.000    20163636.605    79126441.4411       -223.675          29.000  
G25  20806064.561   109336625.941        -185.997          30.000  
G32  21889150.556   115028250.413         600.605          44.000    21889152.655    85897737.0451        448.614          29.000  
J02  37855024.812   198929467.813       -1271.279          28.000  
> 2021  9 12 10 27 37.9999946  0  7
C06  36688705.937   191047723.543        -730.173          35.000  
C09  37670522.040   196160273.584        -829.810          30.000  
C25  21799618.738   113516333.224        -663.285          33.000  
G10  20163605.426   105960467.505        -303.622          41.000    20163604.527    79126313.813        -225.685          27.000  
G25  20806009.999   109336340.288        -188.589          30.000  
G32  21888946.098   115027176.388         601.124          44.000    21888948.496    85896935.792         448.670          31.000  
J02  37855183.702   198930265.668       -1269.769          30.000  
> 2021  9 12 10 27 38.9999941  0  9
C06  36688693.946   191047671.598        -728.259          35.000  
C09  37670531.933   196160322.669        -829.577          31.000  
C24  24310242.070   126589773.5611      -3258.920          21.000  
C25  21799595.954   113516216.485        -664.040          35.000  
G10  20163514.290   105959983.028        -303.352          41.000    20163513.090    79125952.270        -226.032          28.000  
G25  20805894.279   109335741.532        -189.933          30.000  
G31  21912883.027   115152769.7801       1244.278          29.000  
G32  21888681.081   115025787.367         600.627          45.000    21888684.079    85895899.167         447.896          29.000  
J02  37855273.340   198930748.689       -1272.352          30.000  
> 2021  9 12 10 27 39.9999939  0 10
C06  36688774.590   191048088.457        -729.961          34.000  
C09  37670631.465   196160839.898        -828.922          30.000  
C24  24310808.078   126592721.250       -3260.711          21.000  
C25  21799655.912   113516569.068        -664.744          34.000  
C33  58208597.626                       -2368.858          36.000  
G10  20163513.390   105959972.243        -304.879          41.000    20163510.992    79125944.135        -227.381          26.000  
G23  21067698.536   110711503.1861      -2731.025          27.000  
G31  21912588.930   115151210.782        1244.264          26.000  
G32  21888506.003   115024871.439         601.172          44.000    21888509.600    85895215.847         448.897          29.000  
J02  37855455.314   198931704.653       -1270.457          29.000  
> 2021  9 12 10 27 40.9999933  0 11
C06  36688732.619   191047880.743        -728.294          33.000  
C09  37670609.879   196160732.449        -829.207          29.000  
C24  24311255.668   126595045.315       -3261.649          21.000  
C25  21799606.446   113516297.610        -665.905          31.000  
C33  22237369.390                        -769.841          37.000  
G10  20163388.976   105959331.950        -305.481          40.000    20163388.976    79125465.848        -227.933          27.000  
G23  21068036.402   110713288.445       -2730.398          26.000  
G25  20805725.496   109334862.7971       -191.664          28.000  
G31  21912173.418   115149021.635        1243.358          29.000  
G32  21888212.506   115023325.323         599.981          43.000    21888215.804    85894062.540         446.761          28.000  
J02  37855518.570   198932030.769       -1270.691          29.000  
> 2021  9 12 10 27 41.9999928  0 12
C06  36688722.126   191047829.377        -730.250          31.000  
C09  37670618.873   196160781.701        -829.058          29.000  
C24  24311732.338   126597526.700       -3262.006          21.000  
C25  21799585.761   113516183.075        -667.132          36.000  
C33  22237365.192                        -772.613          38.000  
G10  20163297.540   105958850.148        -307.716          42.000    20163297.839    79125106.076        -228.455          29.000  
G23  21068405.746   110715231.932       -2732.680          26.000  
G25  20805610.376   109334266.657        -191.442          29.000  
G31  21911785.786   115146990.662        1243.861          27.000  
G32  21887948.688   115021937.187         599.563          43.000    21887951.686    85893027.648         446.124          27.000  
J01  38111408.521                         520.200          33.000  
J02  37855609.107   198932514.673       -1270.688          31.000  
> 2021  9 12 10 27 42.9999926  0 10
C06  36688800.372   191048246.846        -730.187          32.000  
C09  37670717.505   196161299.079        -830.313          29.000  
C25  21799654.113   113516537.978        -667.481          36.000  
C33  22237453.631   115796256.0451       -774.106          37.000  
G10  20163296.041   105958842.248        -308.152          42.000    20163296.041    79125099.301        -227.869          27.000  
G25  20805587.591   109334143.753        -192.792          28.000  
G31  21911488.992   115145431.816        1243.300          29.000  
G32  21887774.209   115021022.238         599.686          44.000    21887776.907    85892344.927         447.906          28.000  
J01  38111250.530   200275967.8691        521.737          33.000  
J02  37855791.081   198933471.873       -1272.880          28.000  
> 2021  9 12 10 27 43.9999921  0 10
C06  36688795.276   191048196.037        -728.696          31.000  
C09  37670727.098   196161349.161        -830.656          29.000  
C24  24312776.215   126602959.4821      -3262.762          21.000  
C25  21799630.130   113516424.976        -669.391          35.000  
C33  22237454.830   115796247.669        -773.280          36.000  
E21  24155061.399                        -962.362          36.000  
G10  20163205.203   105958362.303        -307.230          41.000    20163204.004    79124740.088        -229.703          27.000  
G25  20805474.869   109333549.650        -194.820          27.000  
G32  21887510.392   115019634.728         599.477          44.000    21887512.191    85891308.394         447.792          27.000  
J01  38111004.401                         520.956          33.000  
> 2021  9 12 10 27 44.9999918  0 10
C06  36688847.140   191048456.502        -729.270          30.000  
C09  37670793.952   196161711.369        -829.872          29.000  
C25  21799669.703   113516625.403        -669.845          31.000  
C33  22237506.994                        -773.675          36.000  
E21  24155156.433                        -963.708          36.000  
G10  20163175.224   105958197.941        -310.025          39.000    20163172.826    79124616.469        -230.011          26.000  
G12  22344409.387   117420663.9961      -1934.850          31.000  
G23  21069663.675   110721852.1581      -2733.098          25.000  
G32  21887306.833   115018564.973         598.931          41.000    21887308.332    85890508.860         446.499          29.000  
J01  38110816.131   200273666.4241        519.249          35.000  
> 2021  9 12 10 27 45.9999913  0 11
C06  36688839.045   191048405.326        -729.919          27.000  
C23  24063677.463   125305883.5211       1801.433          24.000  
C24  24313790.713   126608236.6161      -3262.557          27.000  
C25  21799652.914   113516513.961        -670.050          35.000  
C33  22237507.594   115796546.5601       -773.788          35.000  
E21  24155192.108   126936380.7851       -965.439          35.000  
G10  20163077.492                        -310.648          34.000    20163082.888    79124259.227        -232.300          28.000  
G23  21070035.418   110723799.352       -2736.529          26.000  
G32  21887045.114   115017177.824         599.390          29.000    21887044.215    85889473.032         447.794          30.000  
J01  38110561.008   200272358.463         520.212          36.000  
J02  37856132.845   198935240.4351      -1272.111          28.000  
> 2021  9 12 10 27 46.9999910  0 13
C06  36688887.911   191048666.856        -730.319          32.000  
C09  37670866.802   196162123.0371       -830.915          25.000  
C23  24063240.365   125303614.169        1800.496          28.000  
C24  24314327.042   126611030.539       -3262.388          27.000  
C25  21799686.491   113516715.810        -670.153          34.000  
C33  22237567.852   115796852.008        -773.622          30.000  
E21  24155285.344   126936873.031        -963.904          26.000  
G10  20163049.311   105957558.3881       -311.468          35.000    20163053.509    79124139.159        -232.697          26.000  
G23  21070467.119   110726064.151       -2737.503          22.000  
G25  20805256.321   109332405.0631       -197.041          25.000  
G32  21886841.555   115016104.706         600.798          30.000    21886840.656    85888673.431         445.290          29.000  
J01  38110373.038   200271366.606         519.011          29.000  
J02  37856281.542   198936039.978       -1272.883          28.000  
> 2021  9 12 10 27 47.9999908  0 11
C06  36688967.356   191049085.352        -730.723          34.000  
C09  37670968.431   196162641.590        -830.707          29.000  
C23  24062834.446   125301501.508        1800.113          29.000  
C24  24314895.448   126613980.429       -3262.044          24.000  
C25  21799755.443   113517074.437        -670.767          36.000  
C33  22237657.790   115797313.776        -774.855          35.000  
G10  20163050.511   105957554.984        -311.643          40.000    20163053.209    79124137.236        -234.764          22.000  
G23  21070928.800   110728485.216       -2736.454          23.000  
G25  20805236.534   109332286.870        -196.768          29.000  
G32  21886667.975   115015189.523         599.643          31.000    21886668.874    85887992.319         446.096          25.000  
J02  37856462.017   198936998.274       -1273.487          32.000  
> 2021  9 12 10 27 48.9999903  0 10
C06  36688957.463                        -731.847          35.000  
C09  37670979.224   196162692.025        -831.862          28.000  
C23  24062340.388   125298920.762        1799.816          30.000  
C24  24315374.516   126616462.682       -3262.492          25.000  
C25  21799735.357   113516965.503        -671.427          37.000  
C33  22237658.389   115797307.904        -775.421          35.000  
G10  20162961.472   105957079.955        -313.274          43.000    20162962.372    79123785.142        -237.977          21.000  
G25  20805127.110   109331696.244        -197.859          29.000  
G32                                                                  21886407.755    85886958.817         444.654          25.000  
J02  37856552.254   198937484.511       -1274.999          33.000  
> 2021  9 12 10 27 49.9999898  0 11
C06  36688949.669   191048981.0911       -731.487          34.000  
C09  37670989.117   196162744.248        -832.899          27.000  
C23  24061847.829   125296341.104        1798.311          28.000  
C24  24315852.685   126618944.717       -3262.432          26.000  
C25  21799714.971   113516857.536        -672.856          35.000  
C33  22237665.884   115797303.888        -777.159          34.000  
G10  20162872.134                        -313.787          43.000    20162872.134    79123433.447        -235.930          23.000  
G23  21071665.989   110732383.0721      -2736.787          20.000  
G25  20805014.688   109331107.867        -200.574          25.000  
G32                                                                  21886146.036    85885925.207         447.614          23.000  
J02  37856645.789                       -1275.750          32.000  
> 2021  9 12 10 27 50.9999895  0 14
C06  36688999.734   191049244.288        -731.807          35.000  
C09  37671061.367   196163109.071        -833.752          28.000  
C23  24061414.030   125294074.353        1798.259          29.000  
C24  24316392.612   126621738.879       -3262.213          25.000  
C25  21799754.544   113517062.469        -673.688          35.000  
C33  22237724.644                        -777.947          34.000  
G10  20162840.356   105956447.5391       -315.279          43.000    20162842.155    79123315.944        -236.052          24.000  
G23  21072095.292   110734647.286       -2737.664          16.000  
G25  20804962.524   109330836.097        -201.569          24.000  
G32  21885924.790                         596.241          34.000    21885942.477    85885124.272         447.555          27.000  
J01  38109536.617   200266928.5541        518.379          30.000  
J02  37856799.583   198938819.4931      -1275.534          33.000  
R01  20395040.108   109023178.2601       -986.974          30.000  
R12  19066605.464   101850384.3971       -857.632          35.000  
> 2021  9 12 10 27 51.9999890  0 14
C06  36688990.740   191049195.643        -730.060          36.000  
C09  37671072.759   196163162.352        -834.855          29.000  
C23  24060920.571   125291496.110        1797.340          30.000  
C24  24316870.781   126624220.748       -3263.753          22.000  
C25  21799738.655   113516956.158        -672.937          38.000  
C33  22237720.746   115797666.0111       -777.653          38.000  
G10  20162753.116   105955975.665        -317.247          44.000    20162751.618    79122963.022        -235.157          27.000  
G12  22346181.460   117429829.1321      -1942.654          29.000  
G23  21072467.634   110736598.389       -2739.864          19.000  
G25  20804852.201   109330250.690        -203.488          27.000  
G31  21908244.638   115128609.7741       1236.839          26.000  
G32                                                                  21885678.660    85884088.545         447.730          22.000  
J01  38109288.089   200265623.217         517.196          33.000  
R12  19066618.954   101850456.675        -858.962          36.000  
> 2021  9 12 10 27 52.9999885  0 16
C06  36688980.547   191049147.550        -732.528          35.000  
C09  37671083.552   196163216.631        -835.257          25.000  
C23  24060425.914   125288918.026        1796.701          23.000  
C24  24317346.251   126626705.105       -3266.214          23.000  
C25  21799714.672   113516851.014        -675.550          34.000  
C33  22237718.948   115797664.667        -779.587          37.000  
G10  20162663.179   105955502.719        -315.480          35.000    20162659.581    79122611.102        -237.011          24.000  
G12  22346403.906   117430985.361       -1945.062          28.000  
G23  21072840.876   110738551.383       -2741.491          25.000  
G25  20804740.978   109329666.377        -203.282          25.000  
G31  21907860.004   115126586.067        1235.297          23.000  
G32  21885411.545   115008543.0641        594.872          41.000    21885411.545    85883053.099         446.582          27.000  
J01  38109040.160   200264318.452         516.003          31.000  
J02  37856983.056   198939795.2191      -1277.341          29.000  
R01  20395123.150   109023622.7431       -992.147          21.000  
R12  19066632.145   101850527.377        -860.400          31.000  
> 2021  9 12 10 27 53.9999882  0 13
C06  36689029.114   191049412.093        -733.354          36.000  
C09  37671153.103   196163582.851        -834.175          30.000  
C23  24059991.215   125286652.926        1795.712          28.000  
C25  21799759.041   113517058.879        -677.659          37.000  
C33  22237776.208   115797976.267        -779.844          38.000  
G10  20162632.900   105955346.844        -318.589          41.000    20162630.202    79122497.584        -239.913          26.000  
G12  22346684.512   117432457.726       -1946.452          28.000  
G23  21073271.378   110740821.179       -2742.840          24.000  
G25  20804691.512   109329397.630        -205.307          26.000  
G31  21907531.731   115124878.731        1234.088          26.000  
G32  21885210.684   115007474.693         595.727          38.000    21885206.187    85882254.155         444.965          27.000  
J02  37857135.650   198940598.603       -1276.866          26.000  
R12  19066707.093   101850927.771        -861.705          33.000  
> 2021  9 12 10 27 54.9999880  0 14
C06  36689108.259   191049832.184        -731.126          35.000  
C09  37671252.035   196164104.813        -834.369          25.000  
C23  24059587.094   125284545.641        1794.128          26.000  
C24  24318449.488   126632461.5031      -3268.331          20.000  
C25  21799823.796   113517423.599        -677.280          37.000  
C33  22237865.246   115798444.472        -782.778          38.000  
G10  20162631.701                        -318.761          41.000    20162631.701    79122504.060        -239.993          23.000  
G23  21073732.459   110743249.338       -2742.938          29.000  
G25  20804671.426   109329287.716        -205.402          24.000  
G31  21907228.641   115123329.629        1233.666          22.000  
G32  21885032.607   115006563.946         596.828          42.000    21885029.609    85881573.912         443.816          30.000  
J02  37857318.824   198941560.365       -1276.988          27.000  
R01  20395357.888   109024876.6871       -992.159          25.000  
R12  19066814.119   101851499.406        -862.450          33.000  
> 2021  9 12 10 27 55.9999875  0 10
C06  36689098.066   191049783.218        -732.465          27.000  
C23  24059089.439   125281971.159        1794.071          31.000  
C25  21799801.312   113517321.257        -677.561          35.000  
C33  22237866.445   115798445.678        -782.167          32.000  
G10  20162540.264                        -319.918          37.000    20162542.662    79122155.592        -240.229          25.000  
G32  21884772.687   115005181.725         596.347          36.000    21884765.792    85880541.736         443.309          32.000  
J01  38108445.372   200261194.4751        516.187          27.000  
J02  37857412.059   198942049.881       -1277.884          31.000  
R01  20395390.865   109025053.560        -991.112          27.000  
R12  19066824.312   101851553.179        -863.166          33.000  
> 2021  9 12 10 27 56.9999872  0 11
C06  36689148.731   191050048.034        -733.935          26.000  
C25  21799848.379   113517531.776        -679.421          36.000  
C33  22237926.404   115798759.617        -782.546          33.000  
G10                                                                  20162513.283    79122043.362        -241.814          26.000  
G23  21074533.804   110747479.0781      -2747.203          21.000  
G25  20804517.632   109328441.9291       -208.136          25.000  
G31  21906518.733   115119603.4671       1231.502          23.000  
G32  21884569.128   115004114.639         594.100          36.000    21884561.933    85879744.586         444.230          32.000  
J02  37857564.953   198942855.226       -1278.247          32.000  
R01  20395484.100   109025551.887        -993.091          26.000  
R12  19066897.462   101851944.778        -865.155          30.000  
> 2021  9 12 10 27 57.9999867  0 10
C06  36689139.737   191050001.659        -734.139          29.000  
C25  21799831.291   113517430.892        -679.030          38.000  
C33  22237928.502   115798762.012        -783.117          38.000  
E21  24156023.133   126940762.6481       -974.843          35.000  
G10  20162426.343   105954261.9631       -321.086          36.000    20162423.944    79121695.401        -239.059          26.000  
G25  20804410.007   109327862.598        -210.193          23.000  
G32  21884301.713   115002732.859         593.916          37.000    21884298.715    85878712.376         442.797          30.000  
J02  37857658.189   198943346.165       -1278.894          30.000  
R01  20395520.075   109025743.739        -994.546          26.000  
R12  19066907.954   101852000.269        -866.802          27.000  
> 2021  9 12 10 27 58.9999864  0 14
C06  36689191.301   191050267.694        -734.358          31.000  
C08  37775407.729   196706461.9491      -2336.014          24.000  
C23  24057709.494   125274873.8051       1793.278          27.000  
C25  21799872.662   113517643.170        -681.961          39.000  
C33  22237988.461   115799077.570        -784.009          39.000  
E21  24156121.465                        -976.149          36.000  
G10  20162392.166   105954112.675        -320.661          37.000    20162393.965    79121582.888        -243.145          25.000  
G23  21075345.042   110751710.7941      -2746.313          23.000  
G25  20804362.639   109327600.956        -211.302          22.000  
G31  21905795.933   115115880.1341       1230.132          26.000  
G32  21884099.353   115001666.594         593.559          37.000    21884096.955    85877916.371         443.276          31.000  
J02  37857811.982   198944152.665       -1279.339          31.000  
R01  20395607.615   109026212.204        -995.319          25.000  
R12  19066981.104   101852391.567        -868.511          27.000  
> 2021  9 12 10 27 59.9999859  0 15
C06  36689182.308   191050221.556        -734.671          27.000  
C08  37775709.920   196708016.896       -2335.370          23.000  
C23  24057215.436   125272300.234        1792.478          27.000  
C25  21799852.876   113517543.931        -680.878          40.000  
C33  22237987.262   115799081.250        -784.717          38.000  
E21  24156155.941   126941463.4661       -975.638          34.000  
G10                                                                  20162304.927    79121238.745        -242.842          23.000  
G12  22348236.838   117440534.8581      -1952.512          20.000  
G23  21075720.083   110753670.858       -2748.592          24.000  
G25  20804255.913   109327024.624        -211.284          20.000  
G31  21905406.203   115113862.842        1229.360          24.000  
G32  21883833.138   115000285.468         591.781          32.000    21883834.037    85876884.496         444.459          30.000  
J01  38107562.184                         514.976          33.000  
J02  37857905.817   198944644.521       -1279.628          30.000  
R12  19066993.095   101852455.225        -869.305          27.000  
> 2021  9 12 10 28  0.9999854  0 15
C06  36689173.014   191050175.788        -734.764          33.000  
C08  37776008.513   196709571.302       -2334.902          25.000  
C09  37671424.416   196165029.3841       -836.427          23.000  
C25  21799833.389   113517445.370        -683.102          40.000  
C33  22237986.962   115799085.810        -783.664          37.000  
E21  24156193.715   126941652.596        -977.354          33.000  
G10  20162220.985   105953186.3621       -325.400          37.000  
G23  21076091.825   110755631.424       -2748.635          23.000  
G25  20804147.388   109326447.980        -212.853          22.000  
G31  21905021.569   115111846.581        1228.562          26.000  
G32  21883571.719   114998904.768         592.773          38.000    21883571.719    85875852.658         442.559          31.000  
J01  38107314.555   200255289.5121        515.814          33.000  
J02  37857999.952   198945137.022       -1281.057          30.000  
R01  20395666.974   109026529.6701       -994.997          25.000  
R12  19067003.288   101852510.063        -870.789          29.000  
> 2021  9 12 10 28  1.9999852  0 14
C06  36689254.558   191050598.743        -735.130          33.000  
C08  37776394.346   196711594.330       -2335.942          26.000  
C25  21799903.241   113517816.052        -684.132          37.000  
C33  22238078.399   115799559.328        -786.400          36.000  
E12  25115764.918  -1443635242.340       -2380.021          27.000  
E21  24156316.930   126942314.975        -977.315          32.000  
G10  20162226.081   105953197.373        -326.684          40.000  
G12  22348765.072   117443341.2041      -1956.034          19.000  
G31  21904726.573   115110302.663        1228.363          26.000  
G32  21883401.137   114997997.010         593.691          37.000    21883399.038    85875175.010         441.302          30.000  
J01  38107153.866   200254460.308         513.525          30.000  
J02  37858184.025   198946102.680       -1280.924          28.000  
R01  20395791.387   109027193.954        -996.550          26.000  
R12  19067108.815   101853073.605        -870.731          32.000  
> 2021  9 12 10 28  2.9999846  0 17
C06  36689215.585   191050397.485        -735.228          31.000  
C08  37776660.262   196712995.425       -2339.131          25.000  
C09  37671503.261   196165455.6121       -838.255          17.000  
C23  24055798.617   125264901.1361       1789.039          25.000  
C25  21799852.876   113517563.456        -684.559          36.000  
C33  22238050.218   115799409.558        -787.556          38.000  
E12  25116041.626  -1441946320.536       -2381.996          25.000  
E21  24156320.227   126942348.482        -980.210          31.000  
G10  20162110.961   105952579.540        -328.398          36.000  
G12  22348953.641   117444351.000       -1954.858          20.000  
G23  21076893.170   110759868.8921      -2749.855          24.000  
G25  20803983.702   109325613.5111       -214.596          20.000  
G32  21883108.239   114996459.817         592.913          35.000    21883106.141    85874027.424         441.010          29.000  
J01  38106881.355   200253001.687         512.718          33.000  
J02  37858246.681   198946438.290       -1281.411          27.000  
R01  20395785.392   109027162.081        -998.383          22.000  
R12  19067089.629   101852970.770        -873.300          27.000  
> 2021  9 12 10 28  3.9999844  0 14
C06  36689299.227   191050821.077        -735.891          33.000  
C08  37777047.294   196715022.325       -2339.676          24.000  
C09  37671605.490   196165982.061        -839.122          19.000  
C25  21799923.627   113517936.473        -685.971          39.000  
C33  22238143.154   115799885.314        -789.264          39.000  
E21  24156448.239   126943013.450        -981.284          32.000  
G10  20162111.261   105952593.130        -329.423          40.000  
G12  22349263.027   117445990.463       -1954.822          20.000  
G25  20803964.215   109325513.554        -215.405          20.000  
G32  21882931.662   114995553.426         589.831          36.000    21882934.060    85873350.092         442.164          29.000  
J01  38106724.863   200252173.991         511.964          35.000  
J02  37858430.154   198947404.421       -1281.422          28.000  
R01  20395911.304   109027835.152        -998.828          23.000  
R12  19067190.059   101853507.792        -875.062          30.000  
> 2021  9 12 10 28  4.9999841  0 13
C06  36689353.789                        -737.416          37.000  
C08  37777405.846   196716893.628       -2339.755          25.000  
C23  24054972.989   125260542.8921       1787.864          24.000  
C25  21799965.298   113518154.196        -686.312          41.000  
C33  22238204.611   115800205.691        -788.842          41.000  
E21  24156544.472   126943521.621        -981.904          33.000  
G10  20162083.680   105952450.244        -329.712          44.000  
G23  21077787.451   110764584.7721      -2751.831          24.000  
G25  20803915.049   109325257.128        -217.423          25.000  
G32  21882730.501   114994489.989         590.657          38.000    21882731.400    85872555.333         441.367          29.000  
J01  38106539.592   200251189.049         512.479          35.000  
J02  37858585.147   198948213.666       -1282.304          28.000  
R12  19067260.210   101853881.826        -875.977          35.000  
> 2021  9 12 10 28  5.9999836  0 14
C06  36689343.296   191051050.5121       -738.413          36.000  
C08  37777703.540   196718452.979       -2340.312          24.000  
C09  37671690.331   196166412.7571       -839.282          24.000  
C23  24054481.929   125257974.246        1787.682          26.000  
C25  21799947.610   113518060.681        -686.821          40.000  
C33  22238205.511   115800214.754        -789.763          39.000  
E21  24156583.145   126943715.677        -982.078          31.000  
G10  20161995.541   105951993.396        -330.888          42.000  
G12  22349765.180   117448642.7171      -1957.257          25.000  
G23  21078162.192   110766549.404       -2751.927          23.000  
G32  21882469.382   114993111.936         589.512          39.000    21882468.782    85871527.077         440.013          26.000  
J01  38106295.261   200249889.537         511.315          33.000  
J02  37858681.380   198948709.094       -1284.400          28.000  
R12  19067273.701   101853954.339        -876.941          33.000  
> 2021  9 12 10 28  6.9999831  0 15
C06  36689336.101   191051007.437        -736.165          36.000  
C08  37778003.632   196720013.082       -2341.663          23.000  
C09  37671700.824   196166471.265        -839.152          25.000  
C23  24053990.869   125255407.429        1785.409          24.000  
C25  21799931.422   113517968.173        -687.912          40.000  
C33  22238207.609   115800224.722        -791.483          40.000  
E21  24156616.123   126943910.718        -983.362          31.000  
G10  20161911.599   105951537.732        -332.289          42.000    20161907.402    79119663.1251       -250.938          27.000  
G12  22349984.927   117449812.458       -1958.429          25.000  
G23  21078535.434   110768514.771       -2754.364          25.000  
G25  20803699.798   109324119.6301       -220.761          23.000  
G32  21882207.663   114991734.539         591.130          39.000    21882204.665    85870497.509         441.255          25.000  
J01                                                                  38106048.532                         382.485          27.000  
J02  37858776.115   198949205.438       -1283.493          26.000  
R12  19067283.894   101854008.832        -877.760          34.000  
> 2021  9 12 10 28  7.9999828  0 16
C06  36689390.663   191051276.770        -738.812          34.000  
C08  37778362.484   196721886.389       -2341.322          20.000  
C09  37671773.674   196166844.590        -843.355          18.000  
C23  24053560.067   125253154.486        1784.309          25.000  
C25  21799971.893   113518188.646        -689.271          37.000  
C33  22238270.566   115800547.705        -791.700          40.000  
E12  25117776.825  -1433499824.509       -2385.555          27.000  
E21  24156719.251   126944421.688        -985.043          34.000  
G10  20161883.419   105951398.042        -333.354          41.000    20161881.320    79119560.538        -249.204          26.000  
G12  22350267.332   117451299.549       -1960.541          24.000  
G23  21078971.332   110770797.105       -2756.057          25.000  
G25  20803652.131   109323868.037        -221.749          23.000  
G32  21882003.804   114990672.392         588.513          39.000    21882002.605    85869703.222         440.502          29.000  
J01  38105849.469   200247607.0571        509.991          34.000    38105861.461                         380.862          26.000  
J02  37858930.508   198950016.790       -1284.006          26.000  
R12  19067354.345   101854384.528        -879.097          33.000  
> 2021  9 12 10 28  8.9999823  0 15
C06  36689380.770   191051234.198        -736.994          33.000  
C08  37778661.677   196723446.248       -2339.955          23.000  
C23  24053072.604   125250591.275        1781.030          24.000  
C25  21799954.506   113518097.893        -689.773          35.000  
C33  22238273.863   115800558.968        -791.303          37.000  
E12  25118081.414  -1431810739.759       -2386.292          27.000  
E21  24156760.323   126944618.413        -985.776          35.000  
G10  20161795.879   105950944.414        -334.648          39.000    20161795.579    79119222.084        -250.589          20.000  
G12  22350490.377   117452473.510       -1961.391          16.000  
G23  21079344.573   110772766.560       -2757.835          20.000  
G25  20803541.208   109323301.213        -219.993          24.000  
G32  21881742.085   114989295.803         588.697          37.000    21881742.085    85868674.803         439.263          30.000  
J01  38105602.440   200246309.618         507.313          32.000    38105615.331   149534616.2191        380.919          26.000  
J02  37859022.544   198950513.191       -1284.537          25.000  
R12  19067366.637   101854450.410        -880.501          31.000  
> 2021  9 12 10 28  9.9999818  0 16
C06  36689373.575   191051191.938        -738.866          35.000  
C08  37778960.270   196725004.714       -2339.770          24.000  
C09  37671802.454   196166969.8721       -842.707          23.000  
C25  21799938.017   113518007.822        -692.032          35.000  
C33  22238276.262   115800571.189        -793.171          37.000  
E12  25118385.404  -1430121635.566       -2385.040          26.000  
E21  24156800.795   126944815.364        -984.529          30.000  
G10  20161708.340   105950491.721        -335.471          39.000    20161707.440    79118883.905        -250.765          23.000  
G12  22350729.012   117453647.072       -1961.683          18.000  
G23  21079719.014   110774736.952       -2758.580          22.000  
G25  20803432.383   109322733.652        -220.798          26.000  
G32  21881482.465   114987919.461         587.826          39.000    21881482.465    85867647.596         436.532          22.000  
