     3.03           OBSERVATION DATA    M: Mixed            RINEX VERSION / TYPE
rinex ON            NSL                 20210712 215759 UTC PGM / RUN BY / DATE
                                                            MARKER NAME
                                                            MARKER TYPE
rinex ON User                                               OBSERVER / AGENCY
 -2418065.5918  5386092.5649  2405147.8523                  APPROX POSITION XYZ
XXXXXXXX            Xiaomi              MI 8                REC # / TYPE / VERS
XXXXXXXX            MI 8                                    ANT # / TYPE
        0.0000        0.0000        0.0000                  APPROX POSITION XYZ
        0.0000        0.0000        0.0000                  ANTENNA: DELTA H/E/N
G    8 C1C L1C D1C S1C C5X L5X D5X S5X                      SYS / # / OBS TYPES
R    4 C1C L1C D1C S1C                                      SYS / # / OBS TYPES
E    8 C1C L1C D1C S1C C5X L5X D5X S5X                      SYS / # / OBS TYPES
C    4 C2I L2I D2I S2I                                      SYS / # / OBS TYPES
J    8 C1C L1C D1C S1C C5X L5X D5X S5X                      SYS / # / OBS TYPES
  2021    07    12    13    58   11.9996076     GPS         TIME OF FIRST OBS
                                                            END OF HEADER
> 2021 07 12 14 58 44.9996076  0 27
G10  20110779.897    -3482493.338        -299.298          40.332    20110775.700    -2840726.026        -223.391          29.993
G12  22653881.244     2753640.361       -1912.278          18.671                                                            
G18  25148004.299    11576372.095       -2627.314           7.000                                                            
G23  21471424.242     5988347.570       -2524.432          31.884                                                            
G24  25576445.195    12206252.603       -2891.704           7.000    25576514.148     9465800.608       -2146.349           7.000
G25  20675611.672    -4798662.690         -29.700          38.801    20675609.274    -3867170.545         -22.100          33.007
G31  21703744.510    -9342376.625        1620.582          18.012                                                            
G32  21564398.278    -4951203.771        1236.887          27.989    21564404.873    -3822894.839         927.146          17.165
R14  19211464.580    -2527048.723        -987.168          37.163                                                            
R02  23444644.111     7319710.659       -2619.333          12.018                                                            
R13  22542308.085    12363757.331       -3870.844           8.190                                                            
R15  20527759.128   -13351470.084        2851.277          31.181                                                            
R03  20239976.956    -1948500.733        -347.277          31.863                                                            
J01  37951344.531    -4727050.472        1238.845          34.127    37951343.332    -3737718.513         925.146          29.810
J02  38039126.161     2109048.976        -652.379          34.258    38039128.259     1629537.414        -487.219          28.863
J04  37043866.765      859147.363        -110.837          18.875    37043878.756      650294.750         -68.226           7.000
C01  37326011.640     -251186.732          68.713          28.202                                                            
C03  36515640.548     -147642.363          44.280          24.218                                                            
C06  37061437.900     1307557.919         198.544          25.312                                                            
C09  37458501.319     1966375.364         -11.832          26.181                                                            
C13  37395452.567     5814330.486       -1605.643          27.884                                                            
C14  21578966.992     2161568.249        1111.491          28.663                                                            
C16  37309177.694     1509135.656         131.928          31.093                                                            
C21  25182379.102     7819444.925       -2278.789          29.004                                                            
C24  21803385.630     1891718.214        -279.250          33.129                                                            
C26  23381349.229     8820812.729       -2469.890          34.475                                                            
C33  23302630.325    -4986725.885        2304.782          27.743                                                            
> 2021 07 12 14 58 45.9996076  0 27
G10  20110835.059    -3482193.734        -299.604          41.217    20110833.260    -2840502.187        -223.839          33.373
G12  22654210.416     2755556.485       -1911.847          19.390                                                            
G18  25148504.653    11578996.870       -2627.314           7.919                                                            
G23  21471907.208     5990872.900       -2525.329          30.671                                                            
G24  25576994.715    12209144.307       -2891.704           7.000    25577063.667     9467954.342       -2144.596          10.650
G25  20675614.370    -4798632.743         -29.947          35.602    20675614.370    -3867148.151         -22.394          31.708
G31  21703475.297    -9343997.715        1619.538          17.789                                                            
G32  21564157.544    -4952436.844        1236.456          25.467    21564167.438    -3823818.046         924.754          20.109
R14  19211635.761    -2526061.084        -987.639          36.075                                                            
R02  23444938.507     7322327.481       -2618.626          21.216                                                            
R13  22543032.383    12367630.594       -3871.331           9.563                                                            
R15  20527216.804   -13354320.849        2850.765          36.962                                                            
R03  20240045.008    -1948153.739        -348.321          29.560                                                            
J01  37951108.594    -4728289.552        1239.081          32.365    37951106.496    -3738643.735         925.332          28.353
J02  38039255.971     2109701.077        -652.100          32.913    38039255.971     1630024.592        -487.177          27.722
J04  37043898.543      859254.435        -111.389          18.364    37043909.035      650379.284         -58.489           7.000
C01  37325995.151     -251257.526          69.651          27.296                                                            
C03  36515628.856     -147687.017          44.205          29.894                                                            
C06  37061402.525     1307361.472         196.447          24.335                                                            
C09  37458504.317     1966385.702         -12.704          22.841                                                            
C13  37395759.854     5815937.150       -1606.663          31.340                                                            
C14  21578749.642     2160456.923        1111.327          29.909                                                            
C16  37309150.413     1509003.799         131.856          28.533                                                            
C21  25182797.612     7821722.769       -2274.922          26.673                                                            
C24  21803427.002     1891997.609        -279.395          34.764                                                            
C26  23381819.303     8823283.060       -2470.331          32.853                                                            
C33  23302186.332    -4989028.437        2307.340          24.416    