     3.03           OBSERVATION DATA    M: Mixed            RINEX VERSION / TYPE
rinex ON            NSL                 20191210 173850 UTC PGM / RUN BY / DATE
                                                            MARKER NAME
                                                            MARKER TYPE
rinex ON User                                               OBSERVER / AGENCY
 -2417191.0542  5385863.2519  2406532.5715                  APPROX POSITION XYZ
XXXXXXXX            Xiaomi              MI 8                REC # / TYPE / VERS
XXXXXXXX            MI 8                                    ANT # / TYPE
        0.0000        0.0000        0.0000                  APPROX POSITION XYZ
        0.0000        0.0000        0.0000                  ANTENNA: DELTA H/E/N
G    8 C1C L1C D1C S1C C5X L5X D5X S5X                      SYS / # / OBS TYPES
R    4 C1C L1C D1C S1C                                      SYS / # / OBS TYPES
E    8 C1C L1C D1C S1C C5X L5X D5X S5X                      SYS / # / OBS TYPES
C    4 C2I L2I D2I S2I                                      SYS / # / OBS TYPES
J    8 C1C L1C D1C S1C C5X L5X D5X S5X                      SYS / # / OBS TYPES
S    4 C1C L1C D1C S1C                                      SYS / # / OBS TYPES
  2019    12    10    09    39    4.0002309     GPS         TIME OF FIRST OBS
                                                            END OF HEADER
> 2019 12 10 09 39  4.0002309  0 32
G03  23405304.445      -11564.221         792.111          20.151    23405248.983      245974.705         596.579           8.017
G10  25652010.283          91.980       -3285.850          16.863                                                            
G14  20522564.924       17150.768        -367.397          27.741                                                            
G16  20645850.675      -70158.523        1329.163          26.613                                                            
G22  23152291.002       12335.371        -244.829          31.557                                                            
G23  25769704.905         -90.625        3260.485           7.000                                                            
G26  20248755.778       31767.493        -620.223          33.825    20248759.376       75061.420        -463.141          31.736
G27  23957154.907       -2175.909        3495.607           7.000                                                            
G29  23746095.920       81336.553       -1570.547          37.299                                                            
G31  21741946.164       42732.027        -798.203          35.535                                                            
G32  21717282.238      120015.290       -2307.925          40.619    21717270.247      286698.847       -1723.409          33.552
R09  21306965.295       96326.718       -1954.255          32.862                                                            
R07  19391116.110       70193.461       -1334.732          34.767                                                            
J01  36118169.112        7708.413        -159.037          25.918    36118167.913       10825.385        -118.525          24.244
J02  39872069.241       18477.855        -350.638          41.121    39872070.440       44174.495        -261.718          26.650
J04  37048648.454       11505.127        -217.418          27.473    37048645.157       26589.236        -162.814          33.297
C01  36964085.396        3515.813         -63.885          24.056                                                            
C02  37073532.727           0.213        -107.317           7.000                                                            
C03  36356552.083        3701.306         -70.751          27.490                                                            
C04  38523499.936           0.069         -70.244          18.781                                                            
C05  39293524.059        4963.854        -101.470          17.186                                                            
C06  35778199.668       -4843.953          95.929          23.094                                                            
C07  36190173.264       20548.360        -419.088          27.780                                                            
C09  36090258.434     4068004.863         541.367          36.359                                                            
C10  37015692.869        6686.184        -137.174          24.813                                                            
C13  41493690.416        2166.005        -538.977           7.000                                                            
C16  36085469.849       -3091.463          62.652          27.185                                                            
C20  24820693.891         -64.070        1886.827           7.000                                                            
C23  23224506.808       86392.440       -1051.150          24.586                                                            
C25  26004778.466       87268.039       -1811.163          25.433                                                            
C28  24618944.959     -187427.090        2299.894          31.931                                                            
E05  23607399.937      -23773.594         517.098          30.697    23607400.836      -34948.525         385.583          23.715
> 2019 12 10 09 39  5.0002309  0 31
G03  23405165.041      -12346.396         786.341          17.081    23405119.773      245407.322         570.397           7.000
G10  25652636.249          91.824       -3283.899          13.116                                                            
G14  20522628.480       17512.429        -363.533          25.223                                                            
G16  20645575.765      -71486.415        1327.892          28.795                                                            
G22  23152342.567       12576.907        -241.024          36.346                                                            
G23  25769084.034         -90.524        3262.436           7.000                                                            
G26  20248879.892       32388.290        -620.797          39.623    20248875.695       75525.247        -463.827          32.064
G27  23956489.667       -2175.792        3496.582          19.163                                                            
G29  23746391.215       82909.535       -1571.697          40.469                                                            
G31  21742095.161       43530.434        -798.407          32.847                                                            
G32  21717712.141      122324.747       -2309.457          39.015    21717711.841      288423.057       -1724.211          34.927
R09  21307332.541       98281.255       -1954.537          33.789                                                            
R07  19391353.245       71528.976       -1335.515          35.039                                                            
J01  36118218.278        7867.850        -159.437          27.858    36118198.491       10944.208        -118.391          24.328
J02  39872136.394       18828.881        -351.026          37.573    39872139.092       44437.243        -262.748          26.773
J04  37048675.735       11722.936        -217.810          29.965    37048688.327       26751.943        -162.707          33.199
C02  37073553.413           0.205        -105.366           7.000                                                            
C03  36356564.974        3773.754         -70.782          26.607                                                            
C04  38523513.726           0.066         -70.244          22.717                                                            
C05  39293539.649        5063.455        -101.470          18.902                                                            
C06  35778184.079       -4936.448          92.936          24.767                                                            
C07  36190249.711       20967.375        -419.015          30.087                                                            
C09  36090154.706     4067463.738         541.125          34.871                                                            
C10  37015721.349        6822.020        -133.589          25.014                                                            
C13  41493793.844        2699.231        -540.646           7.000                                                            
C16  36085458.457       -3150.840          59.376          27.812                                                            
C20  24820331.442         -63.996        1886.827           8.545                                                            
C23  23224710.667       87446.073       -1053.633          32.793                                                            
C25  26005122.628       89079.970       -1812.111          28.165                                                            
C28  24618497.968     -189726.099        2299.027          29.935                                                            
E05  23607303.104      -24290.284         516.690          33.704    23607303.404      -35334.158         385.633          29.914
> 2019 12 10 09 39  6.0002309  0 31
G03  23405007.950      -13131.282         791.010          18.067    23404933.602      244809.958         566.243          10.710
G10  25653262.516          91.915       -3284.875          17.898                                                            
G14  20522700.130       17873.672        -367.211          26.938                                                            
G16  20645345.525      -72813.641        1327.225          31.158                                                            
G22  23152402.525       12820.423        -246.925          34.449                                                            
G23  25768464.064         -90.574        3260.485           7.000                                                            
G26  20248995.612       33009.790        -621.501          40.242    20248993.513       75989.244        -463.997          32.144
G27  23955824.728       -2175.854        3495.607          16.419                                                            
G29  23746688.010       84482.537       -1573.001          41.130                                                            
G31  21742255.550       44329.059        -798.625          32.327                                                            
G32  21718153.435      124634.362       -2309.615          43.615    21718155.534      290148.257       -1725.199          31.630
R09  21307663.212      100235.821       -1954.566          32.608                                                            
R07  19391612.266       72865.619       -1336.643          37.002                                                            
J01  36118234.167        8027.540        -159.690          26.749    36118224.274       11063.632        -119.424          22.901
J02  39872208.944       19179.952        -351.070          35.014    39872206.546       44699.254        -262.011          32.417
J04  37048738.092       11941.122        -218.186          33.120    37048730.897       26913.651        -162.926          29.423
C02  37073574.399           0.211        -107.317           7.000                                                            
C03  36356561.376        3846.491         -70.838          28.952                                                            
C04  38523528.116           0.068         -70.244           7.000                                                            
C05  39293510.569        5164.291         -99.519          17.698                                                            
C06  35778171.787       -5028.604          89.006          23.915                                                            
C07  36190326.159       21386.951        -419.577          28.899                                                            
C09  36090047.980     4066923.010         540.728          33.791                                                            
C10  37015747.131        6952.580        -133.098          25.070                                                            
C13  41493897.872        3240.518        -538.543           7.000                                                            
C16  36085446.765       -3209.883          59.837          24.880                                                            
C20  24819970.192         -64.007        1884.876           7.000                                                            
C23  23224922.321       88500.108       -1054.035          31.222                                                            
C25  26005467.090       90892.934       -1812.295          27.911                                                            
C28  24618091.150     -192024.908        2298.809          30.519                                                            
E05  23607200.275      -24806.137         515.853          35.473    23607207.770      -35719.555         385.397          29.510
> 2019 12 10 09 39  7.0002309  0 31
G03  23404855.955      -13923.489         796.826          17.619    23404784.305      244224.603         566.739          10.218
G10  25653887.583          91.786       -3284.875           7.000                                                            
G14  20522775.078       18239.903        -368.850          25.204                                                            
G16  20645073.313      -74140.135        1326.495          31.152                                                            
G22  23152435.502       13064.734        -244.692          32.166                                                            
G23  25767843.493         -90.446        3260.485           7.000                                                            
G26  20249116.728       33631.782        -621.992          40.504    20249112.231       76453.668        -464.424          34.017
G27  23955159.488       -2175.718        3495.607           8.372                                                            
G29  23746980.907       86056.044       -1573.508          39.391                                                            
G31  21742400.649       45127.722        -798.663          32.021                                                            
G32  21718596.528      126944.702       -2310.340          42.175    21718589.333      291873.221       -1725.864          29.877
R09  21308057.439      102190.752       -1954.931          36.207                                                            
R07  19391874.585       74203.223       -1337.604          39.396                                                            
J01  36118271.041        8187.510        -159.969          27.265    36118257.251       11183.202        -119.570          20.853
J02  39872268.603       19531.151        -351.199          34.759    39872268.003       44961.317        -262.063          31.020
J04  37048773.768       12157.689        -222.059          31.522    37048771.369       27076.683        -163.032          29.518
C02  37073596.283           0.214        -107.317           7.000                                                            
C03  36356582.961        3919.072         -71.106          32.541                                                            
C04  38523542.506           0.069         -70.244          15.588                                                            
C05  39293581.020        5265.884        -101.470          15.602                                                            
C06  35778143.607       -5119.596          92.406          23.413                                                            
C07  36190408.002       21806.393        -419.442          30.031                                                            
C09  36089943.052     4066382.547         540.463          34.092                                                            
C10  37015771.115        7084.201        -136.675          25.828                                                            
C13  41494002.200        3779.061        -538.543           7.000                                                            
C16  36085435.673       -3268.421          58.862          27.390                                                            
C20  24819608.043         -63.933        1884.876           7.000                                                            
C23  23225118.685       89554.233       -1054.181          28.690                                                            
C25  26005819.945       92706.122       -1813.559          25.673                                                            
C28  24617627.371     -194323.458        2298.241          30.249                                                            
E05  23607104.941      -25321.673         515.536          35.929    23607105.841      -36104.526         384.971          30.128
> 2019 12 10 09 39  8.0002309  0 32
G03  23404709.657      -14717.011         789.755          19.515    23404635.308      243639.211         585.355          14.425
G10  25654512.650          91.863       -3284.875           7.000                                                            
G14  20522852.425       18616.691        -371.422          28.742                                                            
G16  20644827.783      -75466.778        1326.642          30.701                                                            
G22  23152479.272       13307.195        -243.254          32.655                                                            
G23  25767222.023         -90.523        3260.485           7.000                                                            
G26  20249233.647       34254.139        -622.357          38.990    20249230.350       76918.303        -464.634          33.595
G27  23954494.549       -2175.800        3495.607          21.401                                                            
G29  23747288.194       87630.656       -1576.445          35.972                                                            
G31  21742540.952       45925.805        -798.084          33.732                                                            
G32  21719032.427      129255.847       -2311.145          40.537    21719034.525      293599.187       -1725.966          35.766
R09  21308399.802      104144.589       -1953.837          32.887                                                            
R07  19392114.419       75541.530       -1338.307          40.917                                                            
J01  36118297.423        8347.046        -160.088          26.790    36118293.226       11302.629        -119.427          24.040
J02  39872347.448       19882.110        -350.959          35.182    39872336.656       45223.642        -262.326          32.542
J04  37048825.332       12374.999        -217.310          30.673    37048813.340       27239.356        -162.673          29.076
C01  36964139.359        3751.166         -62.250          25.745                                                            
C02  37073617.269           0.209        -107.317           7.000                                                            
C03  36356595.852        3991.552         -71.058          34.050                                                            
C04  38523555.697           0.067         -70.244          19.539                                                            
C05  39293601.106        5367.384        -101.470          10.550                                                            
C06  35778130.416       -5209.152          93.368          26.614                                                            
C07  36190500.038       22225.843        -419.450          33.557                                                            
C09  36089839.324     4065841.960         540.586          34.992                                                            
C10  37015794.798        7219.392        -134.868          24.148                                                            
C13  41494105.628        4317.604        -538.543           7.000                                                            
C16  36085417.385       -3325.334          57.406          27.313                                                            
C20  24819245.594         -63.978        1884.876          10.016                                                            
C23  23225317.447       90607.574       -1052.436          28.761                                                            
C25  26006180.896       94515.866       -1812.550          26.148                                                            
C28  24617179.481     -196621.869        2298.412          31.460                                                            
E05  23607006.909      -25837.039         515.366          37.476    23607007.809      -36489.505         384.978          31.056
> 2019 12 10 09 39  9.0002309  0 32
G03  23404552.565      -15508.667         786.722          22.687    23404483.014      243051.892         585.336          12.237
G10  25655138.617          91.927       -3283.899          11.318                                                            
G14  20522917.480       18986.728        -370.037          28.674                                                            
G16  20644567.863      -76792.217        1325.439          29.637                                                            
G22  23152531.136       13552.985        -244.767          31.451                                                            
G23  25766600.853         -90.640        3263.412           7.000                                                            
G26  20249350.566       34876.894        -622.755          38.218    20249349.367       77383.316        -465.013          36.943
G27  23953829.309       -2175.901        3496.582           7.000                                                            
G29  23747584.090       89205.815       -1575.159          40.740                                                            
G31  21742705.838       46724.178        -798.372          35.539                                                            
G32  21719480.017      131566.971       -2311.124          41.312    21719468.925      295324.985       -1725.798          37.156
R09  21308787.433      106099.126       -1954.536          33.046                                                            
R07  19392363.246       76880.576       -1339.047          38.715                                                            
J01  36118341.193        8506.871        -159.825          31.210    36118314.511       11422.522        -119.893          20.239
J02  39872407.107       20232.976        -350.866          36.834    39872401.711       45485.604        -261.962          36.277
J04  37048861.307       12589.919        -217.186          30.698    37048851.114       27402.636        -163.281          28.548
C01  36964142.357        3810.474         -62.276          27.717                                                            
C02  37073638.254           0.208        -105.366           7.000                                                            
C03  36356605.146        4064.030         -70.776          32.104                                                            
C04  38523569.788           0.068         -70.244           7.000                                                            
C05  39293570.227        5466.477        -101.470           7.000                                                            
C06  35778119.623       -5302.179          92.017          25.042                                                            
C07  36190574.387       22645.399        -419.556          33.521                                                            
C09  36089735.896     4065301.314         540.646          35.554                                                            
C10  37015819.082        7355.125        -134.561          23.916                                                            
C13  41494209.656        4854.978        -538.542           7.000                                                            
C16  36085406.293       -3383.993          58.660          28.674                                                            
C20  24818883.445         -64.055        1886.827           7.000                                                            
C23  23225562.678       91661.539       -1053.965          29.578                                                            
C25  26006518.762       96328.082       -1810.432          28.719                                                            
C28  24616732.791     -198920.179        2298.309          31.134                                                            
E05  23606905.280      -26351.922         514.883          36.599    23606910.076      -36874.096         384.592          31.010
> 2019 12 10 09 39 10.0002309  0 32
G03  23404401.770      -16291.015         784.913          21.654    23404337.614      242466.566         570.664          10.677
G10  25655763.684          91.812       -3284.875           7.000                                                            
G14  20522984.334       19358.367        -367.475          27.249                                                            
G16  20644317.237      -78116.744        1324.527          30.532                                                            
G22  23152571.908       13798.812        -245.628          34.189                                                            
G23  25765979.683         -90.485        3261.460          10.644                                                            
G26  20249467.186       35500.375        -623.482          36.001    20249468.085       77849.002        -465.687          36.918
G27  23953164.369       -2175.745        3495.607           7.000                                                            
G29  23747884.781       90780.537       -1574.722          40.902                                                            
G31  21742847.940       47523.229        -801.422          33.910                                                            
G32  21719915.915      133878.130       -2311.158          40.464    21719911.418      297050.767       -1725.782          35.059
R09  21309152.281      108053.916       -1954.791          31.617                                                            
R07  19392612.074       78221.063       -1340.486          34.848                                                            
J01  36118370.572        8666.688        -159.817          32.455    36118348.388       11541.518        -118.996          20.644
J02  39872470.063       20583.191        -350.215          33.732    39872469.164       45747.376        -261.772          36.753
J04  37048905.377       12804.751        -219.452          31.491    37048894.284       27565.266        -162.629          30.659
C01  36964144.455        3870.157         -61.918          28.034                                                            
C02  37073659.240           0.214        -107.317           7.000                                                            
C03  36356621.934        4137.169         -70.408          32.219                                                            
C04  38523583.878           0.072         -72.195           7.000                                                            
C05  39293590.313        5567.553         -99.519           7.000                                                            
C06  35778109.430       -5393.100          89.286          23.704                                                            
C07  36190656.530       23065.137        -419.737          32.387                                                            
C09  36089632.767     4064760.917         540.397          35.568                                                            
C10  37015842.765        7491.766        -137.174          25.513                                                            
C13  41494313.385        5392.346        -536.593           7.000                                                            
C16  36085399.098       -3442.823          58.829          29.791                                                            
C20  24818520.995         -63.948        1884.876          10.237                                                            
C23  23225753.346       92715.790       -1054.149          26.560                                                            
C25  26006863.823       98139.209       -1810.453          25.010                                                            
C28  24616307.385     -201219.285        2298.769          31.904                                                            
E05  23606806.348      -26865.944         514.021          34.252    23606814.143      -37257.965         383.868          33.536
> 2019 12 10 09 39 11.0002309  0 32
G03  23404257.270      -17076.667         782.661          22.711    23404189.217      241884.485         588.538          10.175
G10  25656387.552          91.875       -3283.899          14.960                                                            
G14  20523065.577       19729.986        -372.360          24.782                                                            
G16  20644074.704      -79440.602        1323.858          34.636                                                            
G22  23152632.466       14043.339        -240.693          32.975                                                            
G23  25765358.214         -90.562        3261.460           7.000                                                            
G26  20249588.602       36124.145        -623.769          39.641    20249585.304       78314.889        -465.887          33.247
G27  23952498.231       -2175.827        3495.607          18.483                                                            
G29  23748181.276       92355.532       -1574.995          38.493                                                            
G31  21743007.729       48321.776        -798.547          34.314                                                            
G32  21720353.912      136189.317       -2311.187          37.044    21720348.815      298777.000       -1726.233          34.169
R09  21309518.627      110008.491       -1955.528          32.816                                                            
R07  19392861.202       79562.370       -1341.307          38.613                                                            
J01  36118385.862        8826.924        -161.078          29.496    36118379.266       11660.854        -120.414          20.677
J02  39872546.211       20933.300        -350.109          31.820    39872534.819       46008.722        -261.346          35.748
J04  37048942.851       13026.602        -219.129          29.623    37048939.553       27728.152        -162.886          32.107
C01  36964156.747        3929.361         -62.162          27.585                                                            
C02  37073679.925           0.210        -107.317           7.000                                                            
C03  36356639.023        4210.279         -70.578          31.504                                                            
C04  38523597.668           0.069         -72.195          14.909                                                            
C05  39293609.800        5669.415        -101.470           7.000                                                            
C06  35778095.040       -5483.333          90.417          24.669                                                            
C07  36190738.373       23484.874        -419.737          33.399                                                            
C09  36089529.339     4064220.322         540.596          35.987                                                            
C10  37015868.847        7628.471        -136.373          27.187                                                            
C13  41494416.513        5931.281        -538.543           9.722                                                            
C16  36085386.807       -3500.532          58.547          28.178                                                            
C20  24818158.546         -63.992        1884.876           7.000                                                            
C23  23225938.617       93769.680       -1052.555          24.983                                                            
C25  26007215.479       99950.581       -1809.402          26.622                                                            
C28  24615858.596     -203518.641        2299.356          30.357                                                            
E05  23606718.209      -27379.705         513.761          35.896    23606713.412      -37641.617         383.652          32.801
> 2019 12 10 09 39 12.0002309  0 32
G03  23404096.581      -17859.813         783.169          21.875    23404034.224      241293.869         575.942           7.000
G10  25657012.320          91.952       -3283.899          12.483                                                            
G14  20523136.628       20101.430        -371.444          26.266                                                            
G16  20643821.680      -80764.375        1323.773          32.879                                                            
G22  23152684.330       14289.149        -246.406          30.157                                                            
G23  25764736.744         -90.625        3260.485           7.000                                                            
G26  20249707.020       36748.730        -624.585          35.260    20249704.022       78781.225        -466.335          33.881
G27  23951832.991       -2175.909        3495.607          18.953                                                            
G29  23748483.167       93933.061       -1577.529          37.946                                                            
G31  21743162.122       49120.712        -798.936          33.448                                                            
G32  21720794.907      138502.870       -2315.157          36.784    21720789.810      300504.321       -1727.321          36.257
R09  21309877.779      111962.934       -1954.443          32.835                                                            
R07  19393107.331       80904.029       -1341.659          36.894                                                            
J01  36118419.139        8988.112        -161.188          27.461    36118362.778       11772.580        -106.660          21.830
J02  39872610.666       21284.567        -351.267          33.328    39872603.771       46271.037        -262.315          34.116
J04  37048981.524       13244.732        -218.838          26.685    37048977.027       27890.702        -162.550          32.000
C01  36964162.143        3988.045         -61.976          24.461                                                            
C02  37073700.311           0.213        -107.317           7.000                                                            
C03  36356651.314        4282.575         -70.859          33.030                                                            
C04  38523610.559           0.069         -70.244           7.000                                                            
C05  39293628.987        5770.885        -101.470           7.000                                                            
C06  35778074.954       -5575.216          92.630          25.680                                                            
C07  36190817.219       23904.823        -419.949          32.084                                                            
C09  36089425.311     4063680.475         539.847          35.661                                                            
C10  37015894.629        7764.540        -137.172          26.366                                                            
C13  41494543.325        6474.421        -538.543           7.000                                                            
C16  36085374.815       -3558.761          57.445          29.060                                                            
C20  24817796.697         -64.003        1882.925          11.113                                                            
C23  23226143.076       94823.940       -1054.846          23.394                                                            
C25  26007561.740      101763.787       -1813.453          25.489                                                            
C28  24615416.102     -205816.186        2297.544          31.556                                                            
E05  23606618.078      -27893.231         513.526          33.490    23606618.678      -38025.068         383.451          33.193
> 2019 12 10 09 39 13.0002309  0 32
G03  23403982.060      -18642.595         782.046          20.443    23403884.928      240708.594         539.014           7.000
G10  25657637.387          91.824       -3283.899           7.000                                                            
G14  20523204.381       20473.907        -372.477          26.242                                                            
G16  20643569.554      -82087.439        1323.064          35.398                                                            
G22  23152681.932       14543.163        -249.192          27.717                                                            
G23  25764116.174         -90.497        3260.485          10.207                                                            
G26  20249838.329       37373.689        -624.959          34.102    20249822.739       79247.957        -466.733          32.754
G27  23951168.051       -2175.772        3495.607           7.000                                                            
G29  23748780.262       95509.551       -1576.489          35.678                                                            
G31  21743326.408       49919.856        -799.144          33.753                                                            
G32  21721229.306      140815.492       -2312.622          37.458    21721232.304      302231.492       -1727.171          35.105
R09  21310252.519      113917.720       -1954.786          32.369                                                            
R07  19393372.647       82246.915       -1342.886          36.083                                                            
J01  36118456.613        9148.530        -160.418          25.968    36118398.753       11883.602        -118.360          17.030
J02  39872679.318       21634.862        -350.295          32.373    39872668.226       46532.627        -261.590          34.590
J04  37049048.677       13457.720        -213.129          23.579    37049020.797       28054.095        -163.393          32.686
C01  36964169.038        4046.824         -61.485          23.101                                                            
C02  37073720.997           0.209        -107.317           7.000                                                            
C03  36356663.905        4355.525         -71.021          30.566                                                            
C04  38523624.350           0.066         -70.244           7.000                                                            
C05  39293648.473        5872.356        -101.470          10.895                                                            
C06  35778064.162       -5666.191          93.355          25.313                                                            
C07  36190898.163       24324.870        -420.048          29.274                                                            
C09  36089323.681     4063140.351         540.124          36.034                                                            
C10  37015920.711        7901.165        -136.624          26.834                                                            
C13  41494649.752        7015.776        -538.543           7.000                                                            
C16  36085361.924       -3616.753          57.992          29.041                                                            
C20  24817434.847         -63.930        1882.925          14.688                                                            
C23  23226345.136       95875.323       -1058.435          23.331                                                            
C25  26007906.501      103571.698       -1811.985          21.952                                                            
C28  24614973.309     -208114.741        2298.555          33.054                                                            
E05  23606510.153      -28405.970         512.739          30.866    23606517.948      -38408.041         382.973          31.084
> 2019 12 10 09 39 14.0002309  0 32
G03  23403858.246      -19420.964         781.397          18.247    23403735.631      240123.141         585.355           7.000
G10  25658261.255          91.887       -3282.924          13.510                                                            
G14  20523288.623       20846.784        -355.504          23.296                                                            
G16  20643311.733      -83409.475        1322.036          37.258                                                            
G22  23152769.171       14788.438        -250.260          29.850                                                            
G23  25763494.404         -90.587        3261.460           8.006                                                            
G26  20249946.254       37999.343        -625.654          37.436    20249943.256       79715.081        -467.124          33.774
G27  23950501.613       -2175.854        3495.607          18.891                                                            
G29  23749087.249       97087.059       -1577.199          40.641                                                            
G31  21743463.713       50718.801        -798.945          37.307                                                            
G32  21721677.795      143128.615       -2313.137          39.852    21721670.001      303958.705       -1727.213          35.489
R09  21310631.157      115873.016       -1955.544          29.089                                                            
R07  19393611.582       83590.976       -1344.061          36.392                                                            
J01  36118477.898        9308.983        -160.453          27.016    36118428.432       12003.991        -116.003          15.652
J02  39872735.380       21983.676        -346.906          32.469    39872735.380       46794.085        -261.458          34.441
J04  37049074.459       13667.576        -216.232          26.506    37049064.566       28218.111        -165.324          33.083
C01  36964193.022        4105.660         -61.196          24.820                                                            
C02  37073741.083           0.211        -107.317          15.089                                                            
C03  36356680.394        4428.846         -70.805          31.134                                                            
C04  38523637.541           0.068         -70.244           7.000                                                            
C05  39293667.960        5973.826        -101.470           7.000                                                            
C06  35778035.382       -5755.494          91.101          24.642                                                            
C07  36190978.807       24745.149        -420.279          31.120                                                            
C09  36089216.655     4062600.299         540.053          36.587                                                            
C10  37015947.992        8038.443        -138.214          26.256                                                            
C13  41494755.279        7552.647        -551.141           7.000                                                            
C16  36085351.731       -3674.731          57.944          27.796                                                            
C20  24817072.098         -63.974        1882.925           7.000                                                            
C23  23226552.292       96929.461       -1051.051          26.267                                                            
C25  26008253.361      105382.687       -1807.237          26.982                                                            
C28  24614538.909     -210413.680        2298.940          32.828                                                            
E05  23606425.012      -28918.298         512.328          30.719    23606422.014      -38790.557         382.516          32.532
> 2019 12 10 09 39 15.0002309  0 32
G03  23403713.746      -20202.780         782.322          19.445    23403579.739      239546.767         585.336           7.000
G10  25658886.323          91.759       -3282.924          15.399                                                            
G14  20523350.380       21185.815        -335.141          23.817                                                            
G16  20643068.001      -84731.544        1322.069          39.344                                                            
G22  23152810.843       15035.026        -247.015          28.781                                                            
G23  25762872.934         -90.460        3261.460           7.000                                                            
G26  20250066.471       38625.172        -625.829          36.594    20250061.074       80182.608        -467.527          32.700
G27  23949835.474       -2175.718        3495.607          17.779                                                            
G29  23749387.341       98665.290       -1580.585          39.890                                                            
G31  21743613.909       51517.917        -799.116          36.841                                                            
G32  21722118.190      145442.997       -2318.633          39.568    21722113.694      305686.976       -1728.270          37.347
R09  21310992.107      117827.340       -1956.519          28.851                                                            
R07  19393880.196       84935.487       -1344.511          36.902                                                            
J01  36118502.781        9470.226        -161.243          25.474    36118492.888       12100.886        -114.873          14.500
J02  39872825.018       22333.234        -353.899          33.294    39872801.934       47055.993        -261.908          33.365
J04  37049110.734       13887.307        -224.577          26.995    37049103.539       28380.858        -160.503          32.060
C01  36964214.907        4165.242         -59.796          23.626                                                            
C02  37073762.368           0.214        -107.317           7.000                                                            
C03  36356694.484        4501.168         -70.901          31.689                                                            
C04  38523651.631           0.069         -70.244           7.000                                                            
C05  39293687.446        6075.296        -101.470           7.000                                                            
C06  35778004.803       -5843.148          90.358          28.053                                                            
C07  36191057.352       25165.753        -419.874          29.259                                                            
C09  36089116.525     4062060.574         539.725          35.745                                                            
C10  37015972.575        8179.185        -141.138          22.786                                                            
C13  41494828.128        8085.010        -538.543           7.000                                                            
C16  36085343.636       -3729.510          60.898          25.903                                                            
C20  24816711.448         -63.867        1880.974           7.000                                                            
C23  23226748.357       97984.122       -1052.916          27.080                                                            
C25  26008602.319      107193.879       -1809.999          27.907                                                            
C28  24614095.816     -212711.364        2297.683          32.228                                                            
E05  23606325.181      -29430.439         512.141          30.271    23606323.083      -39172.962         382.405          32.336
> 2019 12 10 09 39 16.0002309  0 32
G03  23403554.856      -20986.222         787.568          19.464    23403432.241      238944.262         586.118           7.181
G10  25659511.090          91.836       -3282.924          13.969                                                            
G14  20523429.525       21542.669        -336.615          23.207                                                            
G16  20642808.081      -86053.241        1321.697          36.431                                                            
G22  23152860.308       15280.232        -252.577          29.682                                                            
G23  25762252.364         -90.550        3262.436           7.000                                                            
G26  20250182.191       39250.835        -625.663          36.632    20250181.291       80649.757        -467.149          32.050
G27  23949171.434       -2175.800        3495.607          19.555                                                            
G29  23749688.333      100242.422       -1577.133          35.891                                                            
G31  21743767.703       52316.200        -798.283          34.499                                                            
G32  21722548.992      147755.957       -2312.960          40.022    21722551.091      307414.211       -1727.236          35.828
R09  21311354.556      119781.625       -1956.312          27.672                                                            
R07  19394123.927       86280.466       -1344.979          36.745                                                            
J01  36118530.062        9629.750        -159.883          25.442    36118536.058       12216.776        -126.195          20.544
J02  39872880.179       22682.122        -348.888          33.432    39872869.387       47316.576        -260.583          33.576
J04  37049162.598       14110.388        -222.026          25.702    37049145.510       28544.381        -163.523          30.026
C01  36964198.118        4224.871         -59.451          22.111                                                            
C02  37073783.354           0.209        -107.317           7.000                                                            
C03  36356708.574        4573.744         -71.207          31.395                                                            
C04  38523666.321           0.069         -72.195           7.000                                                            
C05  39293707.532        6176.766        -101.470           7.000                                                            
C06  35777993.710       -5937.245          88.952          25.219                                                            
C07  36191138.596       25585.194        -419.441          30.649                                                            
C09  36089009.798     4061519.746         540.827          35.870                                                            
C10  37016005.553        8315.687        -135.864          26.663                                                            
C13  41494932.456        8621.600        -536.592           7.000                                                            
C16  36085327.148       -3790.924          58.186          27.418                                                            
C20  24816349.898         -63.945        1882.925           7.000                                                            
C23  23226948.018       99037.163       -1055.430          27.591                                                            
C25  26008946.781      109004.014       -1809.803          26.922                                                            
C28  24613655.121     -215011.074        2299.711          31.382                                                            
E05  23606232.545      -29942.880         512.441          33.190    23606227.449      -39555.591         382.629          31.982
> 2019 12 10 09 39 17.0002309  0 32
G03  23403398.964      -21771.124         788.112          18.779    23403277.548      238331.073         608.183           7.000
G10  25660135.858          91.886       -3280.972           7.000                                                            
G14  20523489.784       21902.650        -361.474          18.637                                                            
G16  20642570.346      -87374.638        1321.397          35.201                                                            
G22  23152914.871       15526.409        -249.332          29.785                                                            
G23  25761631.793         -90.640        3263.412           7.000                                                            
G26  20250304.506       39877.217        -626.382          36.429    20250298.810       81117.434        -467.677          31.368
G27  23948504.995       -2175.921        3497.558          18.379                                                            
G29  23749984.528      101822.149       -1578.566          41.523                                                            
G31  21743922.396       53114.851        -798.651          37.280                                                            
G32  21722991.486      150070.560       -2313.360          38.037    21722994.784      309142.959       -1728.747          36.478
R09  21311715.806      121735.593       -1954.286          27.334                                                            
R07  19394367.059       87626.071       -1345.605          36.849                                                            
J01  36118566.637        9791.071        -161.325          26.652    36118565.737       12340.521        -123.526          20.901
J02  39872949.731       23032.242        -350.120          34.533    39872935.041       47577.890        -256.846          32.542
J04  37049194.077       14333.049        -213.196          28.735    37049187.481       28707.254        -162.872          30.784
C01  36964214.607        4283.686         -59.868          24.347                                                            
C02  37073803.740           0.208        -105.366           7.000                                                            
C03  36356722.964        4645.647         -71.603          32.398                                                            
C04  38523679.811           0.068         -70.244           7.000                                                            
C05  39293726.719        6276.287        -101.470           7.000                                                            
C06  35777982.018       -6036.313          94.456          25.932                                                            
C07  36191219.540       26004.886        -419.692          31.019                                                            
C09  36088907.569     4060979.757         539.989          35.332                                                            
C10  37016033.133        8451.545        -135.803          27.149                                                            
C13  41495035.585        9158.191        -536.592           7.000                                                            
C16  36085317.854       -3848.758          57.834          28.150                                                            
C20  24815988.049         -63.989        1882.925           7.000                                                            
C23  23227153.976      100091.157       -1052.585          27.878                                                            
C25  26009298.138      110815.441       -1811.427          27.640                                                            
C28  24613214.126     -217309.019        2297.945          31.152                                                            
E05  23606130.316      -30454.732         511.852          32.621    23606130.316      -39937.929         382.338          31.192
> 2019 12 10 09 39 18.0002309  0 32
G03  23403230.181      -22556.302         783.577          18.310    23403134.247      237757.088         616.053           7.000
G10  25660761.225          91.785       -3282.924           7.000                                                            
G14  20523552.740       22278.576        -373.444          20.514                                                            
G16  20642320.319      -88694.472        1319.834          36.798                                                            
G22  23152963.737       15776.093        -247.999          29.609                                                            
G23  25761011.523         -90.485        3261.460           7.000                                                            
G26  20250421.125       40504.631        -627.414          36.453    20250419.027       81586.031        -468.597          31.173
G27  23947841.254       -2175.745        3495.607          18.182                                                            
G29  23750290.616      103401.191       -1581.892          40.745                                                            
G31  21744068.994       53913.864        -799.013          36.885                                                            
G32  21723432.481      152385.144       -2314.585          38.160    21723432.481      310871.386       -1728.428          35.491
R09  21312060.268      123690.799       -1954.108          27.299                                                            
