     3.04           OBSERVATION DATA    M: Mixed            RINEX VERSION / TYPE
Higeo_Hi1105        Huawei CBG          20220126 062226 UTC PGM / RUN BY / DATE 
************************************************************COMMENT             
* If you have any problem,                                 *COMMENT             
*     please contact with LBS Technology Group, thanks.    *COMMENT             
*                                                          *COMMENT             
* Version Higeo2RinexV1.1 2020.07.21                       *COMMENT             
* Fuction:  Convert Higeo Log to Rinex file                *COMMENT             
*                                                          *COMMENT             
* Note that the verision support B1C B2A signal            *COMMENT             
*     BDS: C1D L1D D1D S1D indicate BDS B1C                *COMMENT             
*     BDS: C5D L5D D5D S5D indicate BDS B2A                *COMMENT             
*     Reference: RINEX V3.04                               *COMMENT             
*                                                          *COMMENT             
* Copyright(C) Huawei Technologies Co., Ltd. 2019 - 2020   *COMMENT             
*     All rights reserved.                                 *COMMENT             
************************************************************COMMENT             
                                                            MARKER NAME         
                                                            MARKER NUMBER       
                                                            MARKER TYPE         
                                                            OBSERVER / AGENCY   
                                                            REC # / TYPE / VERS 
                                                            ANT # / TYPE        
        0.0000        0.0000        0.0000                  APPROX POSITION XYZ 
        0.0000        0.0000        0.0000                  ANTENNA: DELTA H/E/N
G    8 C1C L1C D1C S1C C5I L5I D5I S5I                      SYS / # / OBS TYPES 
R    4 C1C L1C D1C S1C                                      SYS / # / OBS TYPES 
E    8 C1C L1C D1C S1C C5I L5I D5I S5I                      SYS / # / OBS TYPES 
J    8 C1C L1C D1C S1C C5I L5I D5I S5I                      SYS / # / OBS TYPES 
C   12 C2I L2I D2I S2I C1D L1D D1D S1D C5D L5D D5D S5D      SYS / # / OBS TYPES 
  2022     1    25     3    14   28.0000000     GPS         TIME OF FIRST OBS   
  2022     1    25     3    32   59.0000000     GPS         TIME OF LAST OBS    
G                                                           SYS / PHASE SHIFT   
R                                                           SYS / PHASE SHIFT   
E                                                           SYS / PHASE SHIFT   
J                                                           SYS / PHASE SHIFT   
C                                                           SYS / PHASE SHIFT   
  0                                                         GLONASS SLOT / FRQ #
 C1C    0.000 C1P    0.000 C2C    0.000 C2P    0.000        GLONASS COD/PHS/BIS 
                                                            END OF HEADER       
> 2022  1 25  3 14 28.0000000  0  2                     
G31                     -2954.232        -379.533          41.000                                                                  
C26                      4750.887         615.200          36.000                                                                                                                                  
> 2022  1 25  3 14 29.0000000  0  6                     
G25                      6581.809        2787.785          29.000                                                                  
G31                     -4933.989        -376.604          40.000                                                                  
G32                      1061.579         155.479          30.000                                                                  
R 1                                                        22.000  
R12                                                        32.000  
C26                      7958.170         617.259          35.000                                                                                                                                  
> 2022  1 25  3 14 30.0000000  0 10                     
G25                     21191.396        2774.125          34.000                                                                  
G26                    -19349.172       -2598.021          23.000                                                                  
G29                     -6766.558       -1595.819          24.000                                                                  
G31                     -6914.083        -375.467          38.000                                                                  
G32                      1875.131         156.564          37.000                                                                  
R 1                                                        21.000  
R 2                                                        39.000  
R12                                                        27.000  
C14                     -8820.305       -1517.451          28.000                                                                                                                                  
C26                     11170.611         616.141          33.000                                                                                                                                  
> 2022  1 25  3 14 31.0000000  0 11                     
G10                     33796.321        3489.908          20.000                                                                  
G25                     35770.436        2777.397          33.000                                                                  
G26                    -33005.442       -2600.181          21.000                                                                  
G29                    -15158.089       -1595.839          29.000                                                                  
G31                     -8892.613        -375.641          35.000                                                                  
G32                      2701.564         157.018          37.000                        1396.698         151.377          14.000  
R 1                                                        20.000  
R 2                                                        38.000  
R12                                                        26.000  
C14                    -16775.478       -1530.800          27.000                                                                                                                                  
C26                     14380.069         616.452          32.000                                                                                                                                  
> 2022  1 25  3 14 32.0000000  0 12                     
G10                     52129.766        3487.990          23.000                                                                  
G25                     50355.216        2775.068          33.000                                                                  
G26                    -46670.597       -2600.369          22.000                                                                  
G29                    -23547.822       -1596.336          28.000                                                                  
G31                    -10869.119        -376.470          36.000                                                                  
G32                      3525.734         156.668          37.000                        1957.994         135.722          17.000  
R 1                                                        20.000  
R 2                                                        38.000  
R12                                                        25.000  
E 8                     -3847.282       -1654.772          28.000                                                                  
C14                    -24767.995       -1537.368          23.000                                                                                                                                  
C26                     17595.036         616.610          33.000                                                                                                                                  
> 2022  1 25  3 14 33.0000000  0 13                     
G10                     70452.580        3486.869          20.000                                                                  
G25                     64939.658        2778.743          33.000                                                                  
G26                    -60338.115       -2602.012          25.000                                                                  
G29                    -31932.493       -1595.520          29.000                                                                  
G31                    -12848.028        -374.928          39.000                                                                  
G32                      4351.286         158.917          35.000                        2455.711         118.989          24.000  
R 1                                                        22.000  
R 2                                                        39.000  
R12                                                        27.000  
E 2                      -864.539        -211.849          30.000                                                                  
E 8                    -12552.239       -1656.704          32.000                                                                  
C14                    -32770.367       -1534.583          27.000                                                                                                                                  
C26                     20802.777         617.354          35.000                                                                                                                                  
> 2022  1 25  3 14 34.0000000  0 13                     
G10                     88779.965        3488.036          19.000                                                                  
G25                     79532.949        2778.299          33.000                       37066.473        2074.632          24.000  
G26                    -74011.708       -2601.108          25.000                                                                  
G29                    -40306.921       -1592.874          28.000                                                                  
G31                    -14820.982        -374.975          39.000                                                                  
G32                      5188.762         159.846          36.000                        2920.434         118.942          26.000  
R 1                                                        22.000  
R 2                                                        37.000  
R12                                                        26.000  
E 2                     -1975.751        -211.950          30.000                                                                  
E 8                    -21249.733       -1655.290          31.000                                                                  
C14                    -40763.176       -1533.683          25.000                                                                                                                                  
C26                     24024.811         619.592          34.000                                                                                                                                  
> 2022  1 25  3 14 35.0000000  0 14                     
G10                    107107.195        3487.277          17.000                                                                  
G25                     94124.586        2776.702          30.000                                                                  
G26                    -87675.862       -2599.535          23.000                                                                  
G29                    -48675.357       -1593.294          21.000                                                                  
G31                    -16788.808        -374.068          39.000                                                                  
G32                      6022.361         159.575          29.000                        3392.141         121.947          22.000  
R 1                                                        24.000  
R 2                                                        36.000  
R12                                                        33.000  
E 2                     -3083.105        -210.717          32.000                                                                  
E 8                    -29945.467       -1654.532          32.000                      -11650.940       -1236.040          29.000  
C 6                     -2745.241        -500.109          31.000                                                                                                                                  
C14                    -48752.063       -1532.588          31.000                                                                                                                                  
C26                     27247.379         619.393          33.000                                                                                                                                  
> 2022  1 25  3 14 36.0000000  0 14                     
G10                    125433.934        3487.604          16.000                                                                  
G25                    108719.680        2777.601          30.000                                                                  
G26                   -101335.384       -2599.127          25.000                                                                  
G29                    -57041.862       -1592.265          20.000                                                                  
G31                    -18753.882        -374.736          39.000                                                                  
G32                      6859.182         160.246          30.000                        3862.182         120.598          20.000  
R 1                                                        24.000  
R 2                                                        35.000  
R12                                                        34.000  
E 2                     -4187.570        -210.062          32.000                                                                  
E 8                    -38638.903       -1654.104          32.000                      -16498.497       -1234.884          30.000  
C 6                     -5363.412        -512.560          31.000                                                                                                                                  
C14                    -56736.085       -1535.134          31.000                                                                                                                                  
C26                     30472.988         619.588          35.000                                                                                                                                  
> 2022  1 25  3 14 37.0000000  0 16                     
G10                    143761.787        3488.929          15.000                                                                  
G25                    123320.024        2778.232          28.000                                                                  
G26                   -114993.235       -2597.696          23.000                                                                  
G29                    -65403.361       -1590.325          22.000                                                                  
G31                    -20722.599        -373.304          37.000                                                                  
G32                      7703.565         160.372          29.000                        4332.011         120.234          21.000  
R 1                                                        25.000  
R 2                                                        36.000  
R12                                                        36.000  
E 2                     -5291.037        -209.554          33.000                                                                  
E 8                    -47332.341       -1654.087          34.000                      -21346.327       -1235.140          27.000  
J 2                     31256.530         602.496          24.000                                                                  
C 6                     -8013.341        -506.774          32.000                                                                                                                                  
C14                    -64719.483       -1533.341          32.000                                                                                                                                  
C24                    -12549.757       -1477.785          33.000                                                                                                                                  
C26                     33699.233         620.560          33.000                                                                                                                                  
> 2022  1 25  3 14 39.0000000  0 17                     
G10                    169860.782        3487.161          17.000                                                                  
G25                    144098.968        2776.155          29.000                                                                  
G26                   -134426.633       -2596.183          22.000                                                                  
G29                    -77308.810       -1591.755          21.000                                                                  
G31                    -23512.230        -373.012          42.000                                                                  
G32                      8903.490         159.551          29.000                        5005.864         119.995          21.000  
R 1                                                        24.000  
R 2                                                        38.000  
R12                                                        34.000  
E 2                     -6855.630        -208.613          30.000                                                                  
E 8                    -59704.804       -1652.885          33.000                      -28245.823       -1234.467          32.000  
J 2                     35765.179         600.533          25.000                                                                  
C 6                    -11776.625        -508.055          31.000                                                                                                                                  
C 9                     -3580.501        -586.935          29.000                                                                                                                                  
C14                    -76082.110       -1531.607          29.000                                                                                                                                  
C24                    -23555.358       -1484.780          27.000                                                                                                                                  
C26                     38297.388         619.430          35.000                                                                                                                                  
> 2022  1 25  3 14 40.0000000  0 19                     
G10                    188189.734        3487.821          15.000                                                                  
G25                    158699.268        2780.292          33.000                                                                  
G26                   -148067.319       -2595.737          22.000                                                                  
G29                    -85670.281       -1590.021          26.000                                                                  
G31                    -25471.348        -373.251          41.000                                                                  
G32                      9748.061         160.439          32.000                        5480.433         120.891          25.000  
R 1                                                        20.000  
R 2                                                        38.000  
R12                                                        30.000  
E 2                     -7953.495        -208.880          30.000                                                                  
E 8                    -68393.598       -1653.462          33.000                      -33091.447       -1234.772          32.000  
J 2                     38921.045         600.763          32.000                                                                  
C 6                    -14417.629        -509.189          31.000                                                                                                                                  
C 9                     -6643.884        -590.214          26.000                                                                                                                                  
C14                    -84047.401       -1530.272          28.000                                                                                                                                  
C16                    -32596.723        -521.947          33.000                                                                                                                                  
C26                     41526.353         619.046          34.000                                                                                                                                  
C33                    -13965.097       -2696.155          26.000                                                                                                                                  
C35                    -10614.041       -2139.109          20.000                                                                                                                                  
> 2022  1 25  3 14 41.0000000  0 20                     
G10                    206513.473        3486.254          14.000                                                                  
G25                    173299.994        2777.490          25.000                                                                  
G26                   -161707.180       -2594.885          23.000                                                                  
G29                    -94026.489       -1589.967          19.000                                                                  
G31                    -27429.792        -372.926          38.000                                                                  
G32                     10603.070         162.436          28.000                        5955.602         121.652          21.000  
R 1                                                        21.000  
R 2                                                        36.000  
R12                                                        34.000  
E 2                     -9049.860        -208.172          30.000                                                                  
E 8                    -77082.592       -1653.116          30.000                      -37936.204       -1234.306          29.000  
E25                     11309.430        2033.299          28.000                                                                  
J 2                     42081.794         602.915          25.000                                                                  
C 6                    -17064.474        -508.043          30.000                                                                                                                                  
C 9                     -9711.339        -586.767          33.000                                                                                                                                  
C14                    -92021.703       -1531.902          30.000                                                                                                                                  
C16                    -35309.691        -520.958          31.000                                                                                                                                  
C24                     -8261.739       -1483.669          32.000                                                                                                                                  
C26                     44751.850         619.880          32.000                                                                                                                                  
C33                    -28006.307       -2696.155          25.000                                                                                                                                  
> 2022  1 25  3 14 42.0000000  0 21                     
G10                    224831.491        3486.220          17.000                                                                  
G25                    187900.177        2780.383          33.000                       17591.493        2072.275          21.000  
G26                   -175346.045       -2595.947          28.000                                                                  
G29                   -102378.390       -1587.255          18.000                                                                  
G31                    -29388.335        -373.241          30.000                                                                  
G32                     11452.763         161.482          37.000                        6433.412         121.416          24.000  
R 1                                                        18.000  
R 2                                                        36.000  
R12                                                        32.000  
E 2                    -10144.126        -208.144          29.000                                                                  
E 8                    -85767.715       -1652.747          34.000                      -42780.090       -1235.086          25.000  
E25                     21995.040        2033.528          31.000                                                                  
J 2                     45237.521         598.164          33.000                                                                  
C 6                    -19708.997        -507.903          33.000                                                                                                                                  
C 9                    -12770.524        -590.729          36.000                                                                                                                                  
C10                     -8371.619       -1209.890          17.000                                                                                                                                  
C14                    -99993.701       -1529.831          35.000                                                                                                                                  
C16                    -38015.153        -519.978          34.000                                                                                                                                  
C21                     28448.447        2661.150          23.000                                                                                                                                  
C24                    -15984.595       -1483.918          28.000                                                                                                                                  
C26                     47980.260         619.552          35.000                                                                                                                                  
> 2022  1 25  3 14 43.0000000  0 23                     
G10                    243151.686        3486.775          17.000                                                                  
G25                    202510.630        2779.138          32.000                       25736.929        2075.701          23.000  
G26                   -188986.200       -2594.885          25.000                                                                  
G29                   -110732.540       -1590.748          21.000                                                                  
G31                    -31353.881        -372.151          34.000                                                                  
G32                     12308.288         163.207          36.000                        6906.469         121.699          24.000  
R 1                                                        18.000  
R 2                                                        36.000  
R12                                                        33.000  
E 2                    -11238.978        -208.325          28.000                                                                  
E 8                    -94456.420       -1653.217          34.000                      -47624.493       -1234.144          24.000  
E25                     32677.808        2032.879          29.000                                                                  
J 2                     48393.391         600.460          32.000                                                                  
C 6                    -22352.306        -507.794          35.000                                                                                                                                  
C 9                    -15844.676        -591.064          30.000                                                                                                                                  
C10                    -14678.220       -1209.719          17.000                                                                                                                                  
C14                   -107965.872       -1529.425          34.000                                                                                                                                  
C16                    -40721.422        -519.473          35.000                                                                                                                                  
C21                     42305.086        2659.965          23.000                                                                                                                                  
C24                    -23709.676       -1482.042          24.000                                                                                                                                  
C26                     51206.209         619.362          36.000                                                                                                                                  
C33                    -18925.136       -2695.553          23.000                                                                                                                                  
C35                    -29532.981       -2141.228          16.000                                                                                                                                  
> 2022  1 25  3 14 44.0000000  0 23                     
G10                    261465.810        3483.783          17.000                                                                  
G25                    217116.428        2778.188          32.000                       33882.884        2076.062          23.000  
G26                   -202621.107       -2595.355          25.000                                                                  
G29                   -119091.412       -1590.339          22.000                                                                  
G31                    -33313.056        -371.878          31.000                                                                  
G32                     13163.847         162.277          36.000                        7385.323         122.556          23.000  
R 1                                                        19.000  
R 2                                                        37.000  
R12                                                        32.000  
E 2                    -12331.379        -207.495          27.000                       -1067.095        -154.816          22.000  
E 8                   -103142.212       -1652.724          33.000                      -52468.749       -1233.548          25.000  
E25                     43363.364        2033.315          31.000                                                                  
J 2                     51546.879         600.647          32.000                                                                  
C 6                    -24997.366        -507.287          34.000                                                                                                                                  
C 9                    -18908.633        -588.378          34.000                                                                                                                                  
C10                    -20965.158       -1204.784          16.000                                                                                                                                  
C14                   -115934.346       -1531.303          34.000                                                                                                                                  
C16                    -43429.549        -519.925          35.000                                                                                                                                  
C21                     56163.649        2662.554          23.000                                                                                                                                  
C24                    -31433.221       -1485.132          28.000                                                                                                                                  
C26                     54435.933         620.192          35.000                                                                                                                                  
C33                    -32957.685       -2692.679          23.000                                                                                                                                  
C35                    -40672.302       -2139.181          17.000                                                                                                                                  
> 2022  1 25  3 14 45.0000000  0 23                     
G10                    279779.072        3485.563          17.000                                                                  
G25                    231723.473        2781.477          33.000                       42030.251        2076.971          25.000  
G26                   -216260.297       -2593.040          28.000                                                                  
G29                   -127448.754       -1588.701          19.000                                                                  
G31                    -35268.710        -371.107          29.000                                                                  
G32                     14023.804         163.554          38.000                        7865.563         122.987          23.000  
R 1                                                        18.000  
R 2                                                        32.000  
R12                                                        34.000  
E 2                    -13421.938        -207.385          30.000                       -1673.989        -153.946          24.000  
E 8                   -111827.063       -1652.577          33.000                      -57316.412       -1236.076          21.000  
E25                     54049.332        2033.547          32.000                                                                  
J 2                     54698.714         600.688          33.000                                                                  
C 6                    -27647.637        -507.687          34.000                                                                                                                                  
C 9                    -21981.621        -590.548          34.000                                                                                                                                  
C10                    -27263.256       -1210.835          16.000                                                                                                                                  
C14                   -123902.260       -1527.930          33.000                                                                                                                                  
C16                    -46134.690        -518.910          33.000                                                                                                                                  
C21                     70027.347        2663.427          21.000                                                                                                                                  
C24                    -39160.387       -1482.989          25.000                                                                                                                                  
C26                     57668.831         621.848          35.000                                                                                                                                  
C33                    -46985.345       -2694.466          23.000                                                                                                                                  
C35                    -51812.443       -2141.142          15.000                                                                                                                                  
> 2022  1 25  3 14 46.0000000  0 23                     
G10                    298104.532        3489.253          19.000                                                                  
G25                    246335.399        2780.031          32.000                       50177.696        2076.826          23.000  
G26                   -229881.507       -2592.928          30.000                                                                  
G29                   -135787.996       -1587.005          18.000                                                                  
G31                    -37222.609        -373.484          30.000                                                                  
G32                     14886.648         163.902          38.000                        8347.345         124.182          23.000  
R 1                                                        17.000  
R 2                                                        33.000  
R12                                                        35.000  
E 2                    -14511.673        -207.254          31.000                       -2281.890        -155.519          21.000  
E 8                   -120512.191       -1652.655          32.000                      -62163.942       -1235.802          20.000  
E25                     64734.794        2033.304          32.000                                                                  
J 2                     57850.825         600.162          33.000                                                                  
C 6                    -30293.402        -508.525          34.000                                                                                                                                  
C 9                    -25051.269        -590.260          35.000                                                                                                                                  
C10                    -33576.649       -1213.124          15.000                                                                                                                                  
C14                   -131867.028       -1529.760          34.000                                                                                                                                  
C16                    -48841.776        -519.808          34.000                                                                                                                                  
C21                     83890.724        2662.537          19.000                                                                                                                                  
C24                    -46886.106       -1482.331          26.000                                                                                                                                  
C26                     60900.503         620.801          35.000                                                                                                                                  
C33                    -61016.482       -2692.912          19.000                                                                                                                                  
C35                    -62963.490       -2144.724          17.000                                                                                                                                  
> 2022  1 25  3 14 47.0000000  0 23                     
G10                    316436.074        3488.150          19.000                                                                  
G25                    260947.478        2781.231          33.000                       58325.393        2076.704          25.000  
G26                   -243512.211       -2593.716          28.000                                                                  
G29                   -144121.578       -1586.672          15.000                                                                  
G31                    -39182.525        -372.116          29.000                                                                  
G32                     15751.141         165.435          38.000                        8828.502         123.425          23.000  
R 1                                                        16.000  
R 2                                                        30.000  
R12                                                        34.000  
E 2                    -15600.431        -206.859          31.000                       -2888.813        -153.750          24.000  
E 8                   -129197.143       -1652.570          33.000                      -67005.472       -1234.880          22.000  
E25                     75420.110        2033.507          33.000                                                                  
J 2                     61003.249         599.712          32.000                                                                  
C 6                    -32941.113        -508.259          35.000                                                                                                                                  
C 9                    -28122.745        -589.925          36.000                                                                                                                                  
C10                    -39885.768       -1210.208          16.000                                                                                                                                  
C14                   -139830.396       -1529.227          33.000                                                                                                                                  
C16                    -51550.655        -519.940          35.000                                                                                                                                  
C21                     97758.186        2663.276          20.000                                                                                                                                  
C24                    -54605.074       -1483.330          28.000                                                                                                                                  
C26                     64131.843         620.868          35.000                                                                                                                                  
C33                    -75047.521       -2694.604          18.000                                                                                                                                  
C35                    -74110.318       -2138.449          17.000                                                                                                                                  
> 2022  1 25  3 14 48.0000000  0 23                     
G10                    334768.976        3488.302          19.000                                                                  
G25                    275560.032        2780.498          33.000                       66474.131        2076.323          24.000  
G26                   -257134.891       -2593.537          29.000                                                                  
G29                   -152456.146       -1586.574          13.000                                                                  
G31                    -41143.153        -372.954          31.000                                                                  
G32                     16617.269         164.969          38.000                        9311.927         124.586          23.000  
R 1                                                        16.000  
R 2                                                        30.000  
R12                                                        34.000  
E 2                    -16687.534        -206.761          32.000                       -3495.324        -154.519          24.000  
E 8                   -137880.867       -1652.580          34.000                      -71848.536       -1234.813          22.000  
E25                     86105.930        2033.411          32.000                        7089.516        1517.932          25.000  
J 2                     64155.294         599.446          33.000                                                                  
C 6                    -35589.510        -508.923          34.000                                                                                                                                  
C 9                    -31195.249        -590.257          36.000                                                                                                                                  
C10                    -46187.644       -1210.689          17.000                                                                                                                                  
C14                   -147791.662       -1529.026          33.000                                                                                                                                  
C16                    -54259.944        -521.008          35.000                                                                                                                                  
C21                    111626.619        2663.903          19.000                                                                                                                                  
C24                    -62323.100       -1479.538          27.000                                                                                                                                  
C26                     67363.734         620.803          36.000                                                                                                                                  
C33                    -89085.237       -2698.136          19.000                                                                                                                                  
C35                    -85255.730       -2140.434          16.000                                                                                                                                  
> 2022  1 25  3 14 49.0000000  0 24                     
G10                    353105.828        3489.943          18.000                                                                  
G25                    290172.923        2780.765          35.000                       74622.987        2076.985          25.000  
G26                   -270771.409       -2593.512          30.000                       -9344.827       -1936.063          23.000  
G29                   -160801.259          -0.007          14.000                                                                  
G31                    -43099.741        -372.088          32.000                                                                  
G32                     17484.701         165.837          39.000                        9795.293         124.196          23.000  
R 1                                                        19.000  
R 2                                                        25.000  
R12                                                        33.000  
E 2                    -17774.499        -206.474          32.000                       -4100.983        -152.414          24.000  
E 8                   -146565.307       -1652.290          35.000                      -76690.741       -1233.917          20.000  
E25                     96790.756        2033.505          30.000                       13048.174        1519.311          26.000  
E30                    -28214.707       -2345.182          18.000                                                                  
J 2                     67305.758         600.265          34.000                                                                  
C 6                    -38239.863        -508.790          35.000                                                                                                                                  
C 9                    -34269.558        -590.190          35.000                                                                                                                                  
C10                    -52496.649       -1211.894          18.000                                                                                                                                  
C14                   -155752.005       -1528.292          33.000                                                                                                                                  
C16                    -56970.936        -520.275          35.000                                                                                                                                  
C21                    125504.073        2664.814          19.000                                                                                                                                  
C24                    -70037.468       -1483.857          27.000                                                                                                                                  
C26                     70595.151         621.203          37.000                                                                                                                                  
C33                   -103137.449       -2698.232          19.000                                                                                                                                  
C35                    -96411.431       -2143.810          11.000                                                                                                                                  
> 2022  1 25  3 14 50.0000000  0 23                     
G10                    371444.375        3490.653          19.000                                                                  
G25                    304788.829        2780.964          35.000                       82773.582        2077.399          26.000  
G26                   -284396.994       -2594.317          27.000                      -16941.719       -1935.714          22.000  
G29                   -169133.763          -0.007          18.000                                                                  
G31                    -45052.135        -373.154          32.000                                                                  
G32                     18355.384         165.438          37.000                       10281.495         125.044          21.000  
R 1                                                        20.000  
R 2                                                        22.000  
R12                                                        30.000  
E 2                    -18858.208        -206.256          31.000                       -4706.378        -155.791          23.000  
E 8                   -155247.242       -1652.209          35.000                      -81531.850       -1234.445          20.000  
E25                    107477.935        2033.506          30.000                       19007.456        1519.083          24.000  
E30                    -40548.429       -2348.160          18.000                                                                  
J 2                     70459.516         600.100          33.000                       33087.472         449.142          22.000  
C 6                    -40889.470        -509.523          33.000                                                                                                                                  
C 9                    -37343.043        -590.789          35.000                                                                                                                                  
C10                    -58802.351       -1210.186          18.000                                                                                                                                  
C14                   -163708.829       -1528.158          34.000                                                                                                                                  
C16                    -59681.349        -521.274          35.000                                                                                                                                  
C21                    139371.070        2662.733          17.000                                                                                                                                  
C24                    -77771.263       -1485.378          24.000                                                                                                                                  
C26                     73828.381         620.604          36.000                                                                                                                                  
C33                   -117172.657       -2693.559          24.000                                                                                                                                  
> 2022  1 25  3 14 51.0000000  0 23                     
G10                    389784.712        3488.456          18.000                                                                  
G25                    319404.042        2781.564          35.000                       90923.584        2076.926          25.000  
G26                   -298023.595       -2594.025          27.000                      -24539.189       -1935.756          21.000  
G29                   -177467.274       -1586.534          21.000                                                                  
G31                    -47008.298        -371.767          33.000                                                                  
G32                     19226.438         165.706          36.000                       10767.164         124.689          24.000  
R 1                                                        20.000  
R 2                                                        25.000  
R12                                                        29.000  
E 2                    -19942.994        -206.344          30.000                       -5310.251        -153.090          25.000  
E 8                   -163930.935       -1652.422          36.000                      -86370.595       -1233.457          19.000  
E25                    118162.837        2033.382          30.000                       24965.920        1518.579          24.000  
E30                    -52882.161       -2347.211          15.000                                                                  
