$GPGGA,031323.000,3113.918749,N,12131.920250,E,1,19,0.8,15.3,M,,M,,*73
$GPRMC,031323.000,A,3113.918749,N,12131.920250,E,0.4,141.705950025,250122,,E,A*22
$GPGGA,031324.000,3113.918774,N,12131.920372,E,1,19,0.8,15.1,M,,M,,*79
$GPRMC,031324.000,A,3113.918774,N,12131.920372,E,0.5,141.705950025,250122,,E,A*2B
$GPGGA,031325.000,3113.919240,N,12131.920519,E,1,19,0.8,12.6,M,,M,,*70
$GPRMC,031325.000,A,3113.919240,N,12131.920519,E,0.4,141.705950025,250122,,E,A*23
$GPGGA,031326.000,3113.919574,N,12131.920605,E,1,19,0.8,12.1,M,,M,,*7A
$GPRMC,031326.000,A,3113.919574,N,12131.920605,E,0.5,141.705950025,250122,,E,A*2F
$GPGGA,031327.000,3113.919835,N,12131.920732,E,1,19,0.8,12.3,M,,M,,*74
$GPRMC,031327.000,A,3113.919835,N,12131.920732,E,0.5,141.705950025,250122,,E,A*23
$GPGGA,031328.000,3113.919982,N,12131.920706,E,1,19,0.8,12.4,M,,M,,*76
$GPRMC,031328.000,A,3113.919982,N,12131.920706,E,0.5,141.705950025,250122,,E,A*26
$GPGGA,031329.000,3113.920191,N,12131.920936,E,1,19,0.8,12.3,M,,M,,*7D
$GPRMC,031329.000,A,3113.920191,N,12131.920936,E,0.3,141.705950025,250122,,E,A*2C
$GPGGA,031330.000,3113.920165,N,12131.921313,E,1,19,0.8,12.6,M,,M,,*77
$GPRMC,031330.000,A,3113.920165,N,12131.921313,E,0.2,141.705950025,250122,,E,A*22
$GPGGA,031331.000,3113.920272,N,12131.921486,E,1,19,0.8,12.7,M,,M,,*79
$GPRMC,031331.000,A,3113.920272,N,12131.921486,E,0.2,141.705950025,250122,,E,A*2D
$GPGGA,031332.000,3113.920444,N,12131.921635,E,1,19,0.8,13.3,M,,M,,*76
$GPRMC,031332.000,A,3113.920444,N,12131.921635,E,0.3,141.705950025,250122,,E,A*26
$GPGGA,031333.000,3113.920524,N,12131.921781,E,1,19,0.8,13.5,M,,M,,*78
$GPRMC,031333.000,A,3113.920524,N,12131.921781,E,0.2,141.705950025,250122,,E,A*2F
$GPGGA,031334.000,3113.920601,N,12131.921860,E,1,19,0.8,13.7,M,,M,,*79
$GPRMC,031334.000,A,3113.920601,N,12131.921860,E,0.2,141.705950025,250122,,E,A*2C
$GPGGA,031335.000,3113.920562,N,12131.921972,E,1,19,0.8,13.7,M,,M,,*7C
$GPRMC,031335.000,A,3113.920562,N,12131.921972,E,0.2,141.705950025,250122,,E,A*29
$GPGGA,031336.000,3113.920675,N,12131.922065,E,1,19,0.8,13.7,M,,M,,*76
$GPRMC,031336.000,A,3113.920675,N,12131.922065,E,0.0,141.705950025,250122,,E,A*21
$GPGGA,031337.000,3113.920712,N,12131.922114,E,1,19,0.8,13.8,M,,M,,*7F
$GPRMC,031337.000,A,3113.920712,N,12131.922114,E,0.0,141.705950025,250122,,E,A*27
$GPGGA,031338.000,3113.920746,N,12131.922162,E,1,19,0.8,14.0,M,,M,,*7F
$GPRMC,031338.000,A,3113.920746,N,12131.922162,E,0.0,141.705950025,250122,,E,A*28
$GPGGA,031339.000,3113.920810,N,12131.922144,E,1,19,0.8,14.0,M,,M,,*76
$GPRMC,031339.000,A,3113.920810,N,12131.922144,E,0.0,141.705950025,250122,,E,A*21
$GPGGA,031340.000,3113.920849,N,12131.922153,E,1,19,0.8,13.9,M,,M,,*7C
$GPRMC,031340.000,A,3113.920849,N,12131.922153,E,0.1,141.705950025,250122,,E,A*24
$GPGGA,031341.000,3113.920870,N,12131.922125,E,1,19,0.8,13.6,M,,M,,*79
$GPRMC,031341.000,A,3113.920870,N,12131.922125,E,0.1,141.705950025,250122,,E,A*2E
$GPGGA,031342.000,3113.920890,N,12131.922132,E,1,19,0.8,13.3,M,,M,,*77
$GPRMC,031342.000,A,3113.920890,N,12131.922132,E,0.1,141.705950025,250122,,E,A*25
$GPGGA,031343.000,3113.920839,N,12131.922218,E,1,19,0.8,13.0,M,,M,,*7D
$GPRMC,031343.000,A,3113.920839,N,12131.922218,E,0.2,141.705950025,250122,,E,A*2F
$GPGGA,031344.000,3113.920865,N,12131.922343,E,1,19,0.8,12.9,M,,M,,*74
$GPRMC,031344.000,A,3113.920865,N,12131.922343,E,0.1,141.705950025,250122,,E,A*2D
$GPGGA,031345.000,3113.920698,N,12131.922615,E,1,19,0.8,12.3,M,,M,,*75
$GPRMC,031345.000,A,3113.920698,N,12131.922615,E,0.1,141.705950025,250122,,E,A*26
$GPGGA,031346.000,3113.920592,N,12131.922742,E,1,19,0.8,11.8,M,,M,,*74
$GPRMC,031346.000,A,3113.920592,N,12131.922742,E,0.3,141.705950025,250122,,E,A*2D
$GPGGA,031347.000,3113.920685,N,12131.922832,E,1,19,0.8,11.1,M,,M,,*71
$GPRMC,031347.000,A,3113.920685,N,12131.922832,E,0.3,141.705950025,250122,,E,A*21
$GPGGA,031348.000,3113.920705,N,12131.922839,E,1,19,0.8,9.9,M,,M,,*4D
$GPRMC,031348.000,A,3113.920705,N,12131.922839,E,0.2,141.705950025,250122,,E,A*2D
$GPGGA,031349.000,3113.920854,N,12131.922917,E,1,19,0.8,9.9,M,,M,,*4A
$GPRMC,031349.000,A,3113.920854,N,12131.922917,E,0.4,141.705950025,250122,,E,A*2C
$GPGGA,031350.000,3113.920773,N,12131.922780,E,1,19,0.8,9.3,M,,M,,*42
$GPRMC,031350.000,A,3113.920773,N,12131.922780,E,0.1,141.705950025,250122,,E,A*2B
$GPGGA,031351.000,3113.919446,N,12131.921493,E,1,19,0.8,3.9,M,,M,,*4E
$GPRMC,031351.000,A,3113.919446,N,12131.921493,E,0.4,141.705950025,250122,,E,A*22
$GPGGA,031352.000,3113.919303,N,12131.921385,E,1,19,0.8,3.2,M,,M,,*40
$GPRMC,031352.000,A,3113.919303,N,12131.921385,E,0.1,141.705950025,250122,,E,A*22
$GPGGA,031353.000,3113.919266,N,12131.921336,E,1,19,0.8,2.9,M,,M,,*41
$GPRMC,031353.000,A,3113.919266,N,12131.921336,E,0.1,141.705950025,250122,,E,A*29
$GPGGA,031354.000,3113.919209,N,12131.921284,E,1,19,0.8,2.5,M,,M,,*4B
$GPRMC,031354.000,A,3113.919209,N,12131.921284,E,0.0,141.705950025,250122,,E,A*2E
$GPGGA,031355.000,3113.919155,N,12131.921154,E,1,19,0.8,2.1,M,,M,,*4A
$GPRMC,031355.000,A,3113.919155,N,12131.921154,E,0.0,141.705950025,250122,,E,A*2B
$GPGGA,031356.000,3113.919122,N,12131.921082,E,1,19,0.8,2.0,M,,M,,*42
$GPRMC,031356.000,A,3113.919122,N,12131.921082,E,0.4,141.705950025,250122,,E,A*26
$GPGGA,031357.000,3113.919116,N,12131.920967,E,1,19,0.8,1.8,M,,M,,*4C
$GPRMC,031357.000,A,3113.919116,N,12131.920967,E,0.0,141.705950025,250122,,E,A*27
$GPGGA,031358.000,3113.919125,N,12131.920908,E,1,19,0.8,1.8,M,,M,,*4A
$GPRMC,031358.000,A,3113.919125,N,12131.920908,E,0.0,141.705950025,250122,,E,A*21
$GPGGA,031359.000,3113.919120,N,12131.920811,E,1,19,0.8,1.8,M,,M,,*47
$GPRMC,031359.000,A,3113.919120,N,12131.920811,E,0.1,141.705950025,250122,,E,A*2D
$GPGGA,031400.000,3113.919285,N,12131.920693,E,1,19,0.8,2.2,M,,M,,*4D
$GPRMC,031400.000,A,3113.919285,N,12131.920693,E,0.0,141.705950025,250122,,E,A*2F
$GPGGA,031401.000,3113.919280,N,12131.920680,E,1,19,0.8,2.4,M,,M,,*4D
$GPRMC,031401.000,A,3113.919280,N,12131.920680,E,0.1,141.705950025,250122,,E,A*28
$GPGGA,031402.000,3113.919279,N,12131.920695,E,1,19,0.8,2.6,M,,M,,*4E
$GPRMC,031402.000,A,3113.919279,N,12131.920695,E,0.1,141.705950025,250122,,E,A*29
$GPGGA,031403.000,3113.919359,N,12131.920811,E,1,19,0.8,3.5,M,,M,,*4C
$GPRMC,031403.000,A,3113.919359,N,12131.920811,E,0.1,141.705950025,250122,,E,A*29
$GPGGA,031404.000,3113.919480,N,12131.920970,E,1,19,0.8,5.1,M,,M,,*4C
$GPRMC,031404.000,A,3113.919480,N,12131.920970,E,0.1,141.705950025,250122,,E,A*2B
$GPGGA,031405.000,3113.919519,N,12131.921086,E,1,19,0.8,6.4,M,,M,,*4B
$GPRMC,031405.000,A,3113.919519,N,12131.921086,E,0.2,141.705950025,250122,,E,A*29
$GPGGA,031406.000,3113.919583,N,12131.921229,E,1,19,0.8,7.5,M,,M,,*4C
$GPRMC,031406.000,A,3113.919583,N,12131.921229,E,0.2,141.705950025,250122,,E,A*2E
$GPGGA,031407.000,3113.919591,N,12131.921551,E,1,19,0.8,9.4,M,,M,,*49
$GPRMC,031407.000,A,3113.919591,N,12131.921551,E,0.2,141.705950025,250122,,E,A*24
$GPGGA,031408.000,3113.919687,N,12131.922107,E,1,19,0.8,11.9,M,,M,,*72
$GPRMC,031408.000,A,3113.919687,N,12131.922107,E,0.4,141.705950025,250122,,E,A*2D
$GPGGA,031409.000,3113.919894,N,12131.922608,E,1,19,0.8,13.9,M,,M,,*75
$GPRMC,031409.000,A,3113.919894,N,12131.922608,E,0.8,141.705950025,250122,,E,A*24
$GPGGA,031410.000,3113.920137,N,12131.923130,E,1,19,0.8,15.3,M,,M,,*76
$GPRMC,031410.000,A,3113.920137,N,12131.923130,E,0.7,141.705950025,250122,,E,A*24
$GPGGA,031411.000,3113.920177,N,12131.923303,E,1,19,0.8,15.6,M,,M,,*74
$GPRMC,031411.000,A,3113.920177,N,12131.923303,E,0.6,141.705950025,250122,,E,A*22
$GPGGA,031412.000,3113.920200,N,12131.923417,E,1,19,0.8,15.9,M,,M,,*79
$GPRMC,031412.000,A,3113.920200,N,12131.923417,E,0.5,141.705950025,250122,,E,A*23
$GPGGA,031413.000,3113.920220,N,12131.923621,E,1,19,0.8,16.2,M,,M,,*75
$GPRMC,031413.000,A,3113.920220,N,12131.923621,E,0.5,141.705950025,250122,,E,A*27
$GPGGA,031414.000,3113.920152,N,12131.923651,E,1,19,0.8,16.4,M,,M,,*75
$GPRMC,031414.000,A,3113.920152,N,12131.923651,E,0.4,141.705950025,250122,,E,A*20
$GPGGA,031415.000,3113.920175,N,12131.923710,E,1,19,0.8,16.8,M,,M,,*79
$GPRMC,031415.000,A,3113.920175,N,12131.923710,E,0.3,141.705950025,250122,,E,A*27
$GPGGA,031416.000,3113.920093,N,12131.923643,E,1,19,0.8,17.0,M,,M,,*7D
$GPRMC,031416.000,A,3113.920093,N,12131.923643,E,0.3,141.705950025,250122,,E,A*2A
$GPGGA,031417.000,3113.920130,N,12131.923689,E,1,19,0.8,17.3,M,,M,,*71
$GPRMC,031417.000,A,3113.920130,N,12131.923689,E,0.1,141.705950025,250122,,E,A*27
$GPGGA,031418.000,3113.920202,N,12131.923769,E,1,19,0.8,17.6,M,,M,,*76
$GPRMC,031418.000,A,3113.920202,N,12131.923769,E,0.1,141.705950025,250122,,E,A*25
$GPGGA,031419.000,3113.920735,N,12131.924132,E,1,19,0.8,19.2,M,,M,,*73
$GPRMC,031419.000,A,3113.920735,N,12131.924132,E,0.2,141.705950025,250122,,E,A*29
$GPGGA,031420.000,3113.920814,N,12131.924191,E,1,19,0.8,19.5,M,,M,,*7B
$GPRMC,031420.000,A,3113.920814,N,12131.924191,E,0.2,141.705950025,250122,,E,A*26
$GPGGA,031421.000,3113.920847,N,12131.924251,E,1,19,0.8,19.5,M,,M,,*73
$GPRMC,031421.000,A,3113.920847,N,12131.924251,E,0.2,141.705950025,250122,,E,A*2E
$GPGGA,031422.000,3113.921082,N,12131.924417,E,1,19,0.8,19.9,M,,M,,*78
$GPRMC,031422.000,A,3113.921082,N,12131.924417,E,0.3,141.705950025,250122,,E,A*28
$GPGGA,031423.000,3113.921299,N,12131.924738,E,1,19,0.8,20.0,M,,M,,*7C
$GPRMC,031423.000,A,3113.921299,N,12131.924738,E,0.4,141.705950025,250122,,E,A*28
$GPGGA,031424.000,3113.921316,N,12131.924670,E,1,19,0.8,19.5,M,,M,,*7F
$GPRMC,031424.000,A,3113.921316,N,12131.924670,E,0.2,141.705950025,250122,,E,A*22
$GPGGA,031425.000,3113.921244,N,12131.924652,E,1,19,0.8,19.4,M,,M,,*79
$GPRMC,031425.000,A,3113.921244,N,12131.924652,E,0.4,141.705950025,250122,,E,A*23
$GPGGA,031426.000,3113.921165,N,12131.925066,E,1,19,0.8,20.0,M,,M,,*74
$GPRMC,031426.000,A,3113.921165,N,12131.925066,E,0.2,141.705950025,250122,,E,A*26
$GPGGA,031427.000,3113.920970,N,12131.924781,E,1,19,0.8,19.6,M,,M,,*7B
$GPRMC,031427.000,A,3113.920970,N,12131.924781,E,0.3,141.705950025,250122,,E,A*24
$GPGGA,031428.000,3113.920811,N,12131.924541,E,1,19,0.8,19.4,M,,M,,*7E
$GPRMC,031428.000,A,3113.920811,N,12131.924541,E,0.1,141.705950025,250122,,E,A*21
$GPGGA,031429.000,3113.920664,N,12131.924357,E,1,19,0.8,19.3,M,,M,,*75
$GPRMC,031429.000,A,3113.920664,N,12131.924357,E,0.2,141.705950025,250122,,E,A*2E
$GPGGA,031430.000,3113.920805,N,12131.924728,E,1,19,0.8,20.1,M,,M,,*70
$GPRMC,031430.000,A,3113.920805,N,12131.924728,E,0.2,141.705950025,250122,,E,A*23
$GPGGA,031431.000,3113.920864,N,12131.924702,E,1,19,0.8,20.1,M,,M,,*7E
$GPRMC,031431.000,A,3113.920864,N,12131.924702,E,0.2,141.705950025,250122,,E,A*2D
$GPGGA,031432.000,3113.920896,N,12131.924805,E,1,19,0.8,20.1,M,,M,,*78
$GPRMC,031432.000,A,3113.920896,N,12131.924805,E,0.2,141.705950025,250122,,E,A*2B
$GPGGA,031433.000,3113.920894,N,12131.924490,E,1,19,0.8,19.3,M,,M,,*73
$GPRMC,031433.000,A,3113.920894,N,12131.924490,E,0.2,141.705950025,250122,,E,A*28
$GPGGA,031434.000,3113.920964,N,12131.924593,E,1,19,0.8,19.1,M,,M,,*7A
$GPRMC,031434.000,A,3113.920964,N,12131.924593,E,0.2,141.705950025,250122,,E,A*23
$GPGGA,031435.000,3113.921019,N,12131.924637,E,1,19,0.8,19.0,M,,M,,*75
$GPRMC,031435.000,A,3113.921019,N,12131.924637,E,0.2,141.705950025,250122,,E,A*2D
$GPGGA,031436.000,3113.921052,N,12131.924872,E,1,19,0.8,19.0,M,,M,,*76
$GPRMC,031436.000,A,3113.921052,N,12131.924872,E,0.2,141.705950025,250122,,E,A*2E
$GPGGA,031437.000,3113.921073,N,12131.924948,E,1,19,0.8,18.9,M,,M,,*74
$GPRMC,031437.000,A,3113.921073,N,12131.924948,E,0.3,141.705950025,250122,,E,A*25
$GPGGA,031438.000,3113.921115,N,12131.924981,E,1,19,0.8,18.7,M,,M,,*71
$GPRMC,031438.000,A,3113.921115,N,12131.924981,E,0.2,141.705950025,250122,,E,A*2F
$GPGGA,031439.000,3113.921099,N,12131.925044,E,1,19,0.8,18.7,M,,M,,*74
$GPRMC,031439.000,A,3113.921099,N,12131.925044,E,0.1,141.705950025,250122,,E,A*29
$GPGGA,031440.000,3113.921106,N,12131.925176,E,1,19,0.8,18.9,M,,M,,*73
$GPRMC,031440.000,A,3113.921106,N,12131.925176,E,0.1,141.705950025,250122,,E,A*20
$GPGGA,031441.000,3113.920935,N,12131.925299,E,1,19,0.8,19.1,M,,M,,*70
$GPRMC,031441.000,A,3113.920935,N,12131.925299,E,0.1,141.705950025,250122,,E,A*2A
$GPGGA,031442.000,3113.920860,N,12131.925146,E,1,19,0.8,19.1,M,,M,,*73
$GPRMC,031442.000,A,3113.920860,N,12131.925146,E,0.2,141.705950025,250122,,E,A*2A
$GPGGA,031443.000,3113.920811,N,12131.925057,E,1,19,0.8,19.7,M,,M,,*73
$GPRMC,031443.000,A,3113.920811,N,12131.925057,E,0.3,141.705950025,250122,,E,A*2D
$GPGGA,031444.000,3113.920626,N,12131.924954,E,1,19,0.8,20.2,M,,M,,*7A
$GPRMC,031444.000,A,3113.920626,N,12131.924954,E,0.3,141.705950025,250122,,E,A*2B
$GPGGA,031445.000,3113.920545,N,12131.924908,E,1,19,0.8,20.9,M,,M,,*7F
$GPRMC,031445.000,A,3113.920545,N,12131.924908,E,0.0,141.705950025,250122,,E,A*26
$GPGGA,031446.000,3113.920539,N,12131.924745,E,1,19,0.8,21.1,M,,M,,*79
$GPRMC,031446.000,A,3113.920539,N,12131.924745,E,0.1,141.705950025,250122,,E,A*28
$GPGGA,031447.000,3113.920539,N,12131.924698,E,1,19,0.8,21.6,M,,M,,*7E
$GPRMC,031447.000,A,3113.920539,N,12131.924698,E,0.1,141.705950025,250122,,E,A*28
$GPGGA,031448.000,3113.920579,N,12131.924725,E,1,19,0.8,22.7,M,,M,,*70
$GPRMC,031448.000,A,3113.920579,N,12131.924725,E,0.1,141.705950025,250122,,E,A*24
$GPGGA,031449.000,3113.920584,N,12131.924665,E,1,19,0.8,23.2,M,,M,,*72
$GPRMC,031449.000,A,3113.920584,N,12131.924665,E,0.1,141.705950025,250122,,E,A*22
$GPGGA,031450.000,3113.920774,N,12131.925019,E,1,19,0.8,24.6,M,,M,,*78
$GPRMC,031450.000,A,3113.920774,N,12131.925019,E,0.3,141.705950025,250122,,E,A*29
$GPGGA,031451.000,3113.920607,N,12131.924029,E,1,19,0.8,23.6,M,,M,,*79
$GPRMC,031451.000,A,3113.920607,N,12131.924029,E,0.4,141.705950025,250122,,E,A*28
$GPGGA,031452.000,3113.920609,N,12131.923567,E,1,19,0.8,22.8,M,,M,,*73
$GPRMC,031452.000,A,3113.920609,N,12131.923567,E,0.4,141.705950025,250122,,E,A*2D
$GPGGA,031453.000,3113.921148,N,12131.923361,E,1,19,0.8,23.1,M,,M,,*79
$GPRMC,031453.000,A,3113.921148,N,12131.923361,E,0.8,141.705950025,250122,,E,A*23
$GPGGA,031454.000,3113.921360,N,12131.923440,E,1,19,0.8,23.4,M,,M,,*77
$GPRMC,031454.000,A,3113.921360,N,12131.923440,E,0.8,141.705950025,250122,,E,A*28
$GPGGA,031455.000,3113.921262,N,12131.923427,E,1,19,0.8,23.6,M,,M,,*76
$GPRMC,031455.000,A,3113.921262,N,12131.923427,E,0.4,6.064548514,250122,,E,A*27
$GPGGA,031456.000,3113.921379,N,12131.923641,E,1,19,0.8,24.4,M,,M,,*79
$GPRMC,031456.000,A,3113.921379,N,12131.923641,E,0.5,351.97675483300003,250122,,E,A*13
$GPGGA,031457.000,3113.922010,N,12131.924250,E,1,19,0.8,24.7,M,,M,,*77
$GPRMC,031457.000,A,3113.922010,N,12131.924250,E,1.3,30.744652323,250122,,E,A*1C
$GPGGA,031458.000,3113.922860,N,12131.924941,E,1,19,0.8,25.4,M,,M,,*7E
$GPRMC,031458.000,A,3113.922860,N,12131.924941,E,2.1,47.189729715,250122,,E,A*1D
$GPGGA,031459.000,3113.923321,N,12131.925708,E,1,19,0.8,25.9,M,,M,,*7F
$GPRMC,031459.000,A,3113.923321,N,12131.925708,E,2.4,36.290356182,250122,,E,A*1D
$GPGGA,031500.000,3113.923939,N,12131.926404,E,1,19,0.8,26.1,M,,M,,*76
$GPRMC,031500.000,A,3113.923939,N,12131.926404,E,2.6,30.871461615999998,250122,,E,A*15
$GPGGA,031501.000,3113.924326,N,12131.927457,E,1,19,0.8,26.1,M,,M,,*73
$GPRMC,031501.000,A,3113.924326,N,12131.927457,E,2.8,31.671406551,250122,,E,A*12
$GPGGA,031502.000,3113.924883,N,12131.928154,E,1,19,0.8,26.3,M,,M,,*7F
$GPRMC,031502.000,A,3113.924883,N,12131.928154,E,2.7,53.742080527,250122,,E,A*1D
$GPGGA,031503.000,3113.925111,N,12131.928347,E,1,19,0.8,25.8,M,,M,,*75
$GPRMC,031503.000,A,3113.925111,N,12131.928347,E,2.1,52.533140444,250122,,E,A*15
$GPGGA,031504.000,3113.925287,N,12131.928988,E,1,19,0.8,25.3,M,,M,,*7C
$GPRMC,031504.000,A,3113.925287,N,12131.928988,E,2.3,40.55946352,250122,,E,A*2D
$GPGGA,031505.000,3113.925475,N,12131.929872,E,1,19,0.8,25.3,M,,M,,*73
$GPRMC,031505.000,A,3113.925475,N,12131.929872,E,2.3,39.461841862,250122,,E,A*11
$GPGGA,031506.000,3113.925722,N,12131.931160,E,1,19,0.8,25.1,M,,M,,*70
$GPRMC,031506.000,A,3113.925722,N,12131.931160,E,2.9,45.468788402,250122,,E,A*18
$GPGGA,031507.000,3113.926088,N,12131.932086,E,1,19,0.8,24.8,M,,M,,*77
$GPRMC,031507.000,A,3113.926088,N,12131.932086,E,2.9,66.726168053,250122,,E,A*17
$GPGGA,031508.000,3113.926475,N,12131.932868,E,1,19,0.8,24.4,M,,M,,*7A
$GPRMC,031508.000,A,3113.926475,N,12131.932868,E,2.5,58.216605806000004,250122,,E,A*11
$GPGGA,031509.000,3113.927006,N,12131.933787,E,1,19,0.8,24.3,M,,M,,*72
$GPRMC,031509.000,A,3113.927006,N,12131.933787,E,2.6,59.271917856,250122,,E,A*10
$GPGGA,031510.000,3113.927497,N,12131.934336,E,1,19,0.8,24.2,M,,M,,*7E
$GPRMC,031510.000,A,3113.927497,N,12131.934336,E,2.2,56.685827206000006,250122,,E,A*12
$GPGGA,031511.000,3113.927928,N,12131.935225,E,1,19,0.8,24.4,M,,M,,*72
$GPRMC,031511.000,A,3113.927928,N,12131.935225,E,2.5,59.464167193,250122,,E,A*19
$GPGGA,031512.000,3113.928499,N,12131.935773,E,1,19,0.8,24.3,M,,M,,*78
$GPRMC,031512.000,A,3113.928499,N,12131.935773,E,2.4,50.495032463,250122,,E,A*19
$GPGGA,031513.000,3113.929310,N,12131.936265,E,1,19,0.8,24.3,M,,M,,*7F
$GPRMC,031513.000,A,3113.929310,N,12131.936265,E,2.5,68.99130448,250122,,E,A*26
$GPGGA,031514.000,3113.930075,N,12131.936799,E,1,19,0.8,24.0,M,,M,,*75
$GPRMC,031514.000,A,3113.930075,N,12131.936799,E,2.6,52.563220598,250122,,E,A*1B
$GPGGA,031515.000,3113.930623,N,12131.937430,E,1,19,0.8,23.7,M,,M,,*70
$GPRMC,031515.000,A,3113.930623,N,12131.937430,E,2.7,48.341497698000005,250122,,E,A*1E
$GPGGA,031516.000,3113.931151,N,12131.938598,E,1,19,0.8,23.6,M,,M,,*7D
$GPRMC,031516.000,A,3113.931151,N,12131.938598,E,3.4,60.008268796,250122,,E,A*18
$GPGGA,031517.000,3113.931886,N,12131.939851,E,1,19,0.8,23.5,M,,M,,*75
$GPRMC,031517.000,A,3113.931886,N,12131.939851,E,3.6,58.731520466000006,250122,,E,A*16
$GPGGA,031518.000,3113.932382,N,12131.940713,E,1,19,0.8,23.2,M,,M,,*76
$GPRMC,031518.000,A,3113.932382,N,12131.940713,E,3.3,57.383213893000004,250122,,E,A*16
$GPGGA,031519.000,3113.932981,N,12131.941475,E,1,19,0.8,23.0,M,,M,,*7E
$GPRMC,031519.000,A,3113.932981,N,12131.941475,E,3.2,54.939308793,250122,,E,A*15
$GPGGA,031520.000,3113.933382,N,12131.942226,E,1,19,0.8,22.8,M,,M,,*76
$GPRMC,031520.000,A,3113.933382,N,12131.942226,E,3.1,56.253645882,250122,,E,A*11
$GPGGA,031521.000,3113.933689,N,12131.942326,E,1,19,0.8,22.2,M,,M,,*72
$GPRMC,031521.000,A,3113.933689,N,12131.942326,E,2.4,49.504228135,250122,,E,A*1A
$GPGGA,031522.000,3113.934084,N,12131.942802,E,1,19,0.8,21.9,M,,M,,*78
$GPRMC,031522.000,A,3113.934084,N,12131.942802,E,2.5,41.677142028,250122,,E,A*14
$GPGGA,031523.000,3113.934389,N,12131.943159,E,1,19,0.8,21.9,M,,M,,*71
$GPRMC,031523.000,A,3113.934389,N,12131.943159,E,2.3,38.302618728,250122,,E,A*1D
$GPGGA,031524.000,3113.934563,N,12131.944481,E,1,19,0.8,21.6,M,,M,,*7C
$GPRMC,031524.000,A,3113.934563,N,12131.944481,E,3.2,67.23449049,250122,,E,A*23
$GPGGA,031525.000,3113.935367,N,12131.945113,E,1,19,0.8,21.8,M,,M,,*7F
$GPRMC,031525.000,A,3113.935367,N,12131.945113,E,3.0,60.77965205,250122,,E,A*23
$GPGGA,031526.000,3113.935941,N,12131.945529,E,1,19,0.8,22.0,M,,M,,*74
$GPRMC,031526.000,A,3113.935941,N,12131.945529,E,2.8,19.875749970999998,250122,,E,A*16
$GPGGA,031527.000,3113.936324,N,12131.946139,E,1,19,0.8,22.0,M,,M,,*79
$GPRMC,031527.000,A,3113.936324,N,12131.946139,E,2.6,21.553341781,250122,,E,A*1A
$GPGGA,031528.000,3113.936995,N,12131.946438,E,1,19,0.8,21.9,M,,M,,*78
$GPRMC,031528.000,A,3113.936995,N,12131.946438,E,2.5,40.573345879,250122,,E,A*1B
$GPGGA,031529.000,3113.937738,N,12131.947067,E,1,19,0.8,21.8,M,,M,,*7F
$GPRMC,031529.000,A,3113.937738,N,12131.947067,E,2.9,45.485846798999994,250122,,E,A*19
$GPGGA,031530.000,3113.938064,N,12131.947240,E,1,19,0.8,21.9,M,,M,,*70
$GPRMC,031530.000,A,3113.938064,N,12131.947240,E,2.2,38.570792448,250122,,E,A*18
$GPGGA,031531.000,3113.938694,N,12131.947713,E,1,19,0.8,22.3,M,,M,,*72
$GPRMC,031531.000,A,3113.938694,N,12131.947713,E,2.6,46.321889283999994,250122,,E,A*15
$GPGGA,031532.000,3113.939594,N,12131.948467,E,1,19,0.8,22.4,M,,M,,*7B
$GPRMC,031532.000,A,3113.939594,N,12131.948467,E,2.8,41.847869439,250122,,E,A*1D
$GPGGA,031533.000,3113.940046,N,12131.949221,E,1,19,0.8,22.8,M,,M,,*77
$GPRMC,031533.000,A,3113.940046,N,12131.949221,E,2.8,24.333577146,250122,,E,A*19
$GPGGA,031534.000,3113.940898,N,12131.949808,E,1,19,0.8,23.1,M,,M,,*72
$GPRMC,031534.000,A,3113.940898,N,12131.949808,E,3.0,41.638588705,250122,,E,A*11
$GPGGA,031535.000,3113.942099,N,12131.948959,E,1,19,0.8,24.2,M,,M,,*78
$GPRMC,031535.000,A,3113.942099,N,12131.948959,E,2.4,55.190814893,250122,,E,A*12
$GPGGA,031536.000,3113.943332,N,12131.948930,E,1,19,0.8,24.8,M,,M,,*7D
$GPRMC,031536.000,A,3113.943332,N,12131.948930,E,2.6,88.07301592200001,250122,,E,A*20
$GPGGA,031537.000,3113.944525,N,12131.948918,E,1,19,0.8,25.0,M,,M,,*78
$GPRMC,031537.000,A,3113.944525,N,12131.948918,E,2.9,76.215500026,250122,,E,A*1D
$GPGGA,031538.000,3113.945803,N,12131.947873,E,1,19,0.8,25.4,M,,M,,*78
$GPRMC,031538.000,A,3113.945803,N,12131.947873,E,3.1,-10.446928939,250122,,E,A*3C
$GPGGA,031539.000,3113.946831,N,12131.947321,E,1,19,0.8,25.7,M,,M,,*74
$GPRMC,031539.000,A,3113.946831,N,12131.947321,E,3.3,-14.61282053,250122,,E,A*0A
$GPGGA,031540.000,3113.947668,N,12131.946903,E,1,19,0.8,26.1,M,,M,,*77
$GPRMC,031540.000,A,3113.947668,N,12131.946903,E,3.3,-17.403541095999998,250122,,E,A*3C
$GPGGA,031541.000,3113.948606,N,12131.947429,E,1,19,0.8,26.4,M,,M,,*70
$GPRMC,031541.000,A,3113.948606,N,12131.947429,E,3.2,-2.47699635,250122,,E,A*34
$GPGGA,031542.000,3113.949017,N,12131.948332,E,1,19,0.8,26.2,M,,M,,*70
$GPRMC,031542.000,A,3113.949017,N,12131.948332,E,3.0,10.600590203,250122,,E,A*10
$GPGGA,031543.000,3113.949366,N,12131.949993,E,1,19,0.8,25.9,M,,M,,*7C
$GPRMC,031543.000,A,3113.949366,N,12131.949993,E,3.2,33.277888757,250122,,E,A*13
$GPGGA,031544.000,3113.949647,N,12131.951093,E,1,19,0.8,25.7,M,,M,,*73
$GPRMC,031544.000,A,3113.949647,N,12131.951093,E,3.0,38.028777452,250122,,E,A*1A
$GPGGA,031545.000,3113.949686,N,12131.952360,E,1,19,0.8,25.6,M,,M,,*72
$GPRMC,031545.000,A,3113.949686,N,12131.952360,E,2.8,29.090421468000002,250122,,E,A*1B
$GPGGA,031546.000,3113.949812,N,12131.953198,E,1,19,0.8,25.5,M,,M,,*75
$GPRMC,031546.000,A,3113.949812,N,12131.953198,E,2.6,28.063190033,250122,,E,A*1B
$GPGGA,031547.000,3113.949643,N,12131.954612,E,1,19,0.8,25.5,M,,M,,*7C
$GPRMC,031547.000,A,3113.949643,N,12131.954612,E,2.6,35.444187942,250122,,E,A*16
$GPGGA,031548.000,3113.950227,N,12131.954699,E,1,19,0.8,25.4,M,,M,,*7F
$GPRMC,031548.000,A,3113.950227,N,12131.954699,E,2.4,32.488344997,250122,,E,A*14
$GPGGA,031549.000,3113.950031,N,12131.954814,E,1,19,0.8,25.3,M,,M,,*77
$GPRMC,031549.000,A,3113.950031,N,12131.954814,E,1.8,32.823041345,250122,,E,A*1A
$GPGGA,031550.000,3113.949523,N,12131.955649,E,1,19,0.8,25.4,M,,M,,*71
$GPRMC,031550.000,A,3113.949523,N,12131.955649,E,2.1,53.998560963,250122,,E,A*1F
$GPGGA,031551.000,3113.949270,N,12131.956412,E,1,19,0.8,25.5,M,,M,,*7F
$GPRMC,031551.000,A,3113.949270,N,12131.956412,E,2.6,28.281325786999997,250122,,E,A*14
$GPGGA,031552.000,3113.948978,N,12131.957421,E,1,19,0.8,25.5,M,,M,,*7F
$GPRMC,031552.000,A,3113.948978,N,12131.957421,E,2.5,31.231535533000002,250122,,E,A*13
$GPGGA,031553.000,3113.948550,N,12131.958359,E,1,19,0.8,25.4,M,,M,,*7E
$GPRMC,031553.000,A,3113.948550,N,12131.958359,E,2.6,42.543971591,250122,,E,A*10
$GPGGA,031554.000,3113.948848,N,12131.959193,E,1,19,0.8,25.0,M,,M,,*7C
$GPRMC,031554.000,A,3113.948848,N,12131.959193,E,2.6,49.583154387,250122,,E,A*1F
$GPGGA,031555.000,3113.949362,N,12131.960091,E,1,19,0.8,24.3,M,,M,,*74
$GPRMC,031555.000,A,3113.949362,N,12131.960091,E,2.7,54.785002614,250122,,E,A*11
$GPGGA,031556.000,3113.950176,N,12131.960813,E,1,19,0.8,23.5,M,,M,,*7B
$GPRMC,031556.000,A,3113.950176,N,12131.960813,E,2.8,63.424085524,250122,,E,A*13
$GPGGA,031557.000,3113.950763,N,12131.961393,E,1,19,0.8,22.7,M,,M,,*79
$GPRMC,031557.000,A,3113.950763,N,12131.961393,E,2.7,42.383943672,250122,,E,A*17
$GPGGA,031558.000,3113.951513,N,12131.961758,E,1,19,0.8,21.9,M,,M,,*7C
$GPRMC,031558.000,A,3113.951513,N,12131.961758,E,2.6,22.090773515,250122,,E,A*16
$GPGGA,031559.000,3113.951912,N,12131.962247,E,1,19,0.8,21.3,M,,M,,*72
$GPRMC,031559.000,A,3113.951912,N,12131.962247,E,2.5,18.969337754,250122,,E,A*14
$GPGGA,031600.000,3113.952156,N,12131.962873,E,1,19,0.8,20.9,M,,M,,*70
$GPRMC,031600.000,A,3113.952156,N,12131.962873,E,2.5,31.425881738,250122,,E,A*1F
$GPGGA,031601.000,3113.952259,N,12131.963748,E,1,19,0.8,20.9,M,,M,,*7B
$GPRMC,031601.000,A,3113.952259,N,12131.963748,E,2.4,62.271586711000005,250122,,E,A*10
$GPGGA,031602.000,3113.952418,N,12131.964723,E,1,19,0.8,21.0,M,,M,,*79
$GPRMC,031602.000,A,3113.952418,N,12131.964723,E,2.6,3.15049224,250122,,E,A*1F
$GPGGA,031603.000,3113.952694,N,12131.965627,E,1,19,0.8,21.0,M,,M,,*7A
$GPRMC,031603.000,A,3113.952694,N,12131.965627,E,2.7,11.087488044,250122,,E,A*18
$GPGGA,031604.000,3113.953033,N,12131.967138,E,1,19,0.8,20.9,M,,M,,*74
$GPRMC,031604.000,A,3113.953033,N,12131.967138,E,3.2,68.575829035,250122,,E,A*1D
$GPGGA,031605.000,3113.953997,N,12131.968018,E,1,19,0.8,20.8,M,,M,,*7F
$GPRMC,031605.000,A,3113.953997,N,12131.968018,E,3.4,63.05233715600001,250122,,E,A*2B
$GPGGA,031606.000,3113.954411,N,12131.969283,E,1,19,0.8,20.7,M,,M,,*76
$GPRMC,031606.000,A,3113.954411,N,12131.969283,E,3.8,60.319863833,250122,,E,A*1F
$GPGGA,031607.000,3113.954640,N,12131.970129,E,1,19,0.8,20.7,M,,M,,*7A
$GPRMC,031607.000,A,3113.954640,N,12131.970129,E,3.3,62.67509523100001,250122,,E,A*2D
$GPGGA,031608.000,3113.954606,N,12131.971299,E,1,19,0.8,20.9,M,,M,,*70
$GPRMC,031608.000,A,3113.954606,N,12131.971299,E,3.2,67.15318182600001,250122,,E,A*26
$GPGGA,031609.000,3113.954857,N,12131.972792,E,1,19,0.8,20.8,M,,M,,*77
$GPRMC,031609.000,A,3113.954857,N,12131.972792,E,3.4,68.427952545,250122,,E,A*10
$GPGGA,031610.000,3113.955167,N,12131.973810,E,1,19,0.8,20.9,M,,M,,*71
$GPRMC,031610.000,A,3113.955167,N,12131.973810,E,3.4,67.522316468,250122,,E,A*18
$GPGGA,031611.000,3113.956184,N,12131.974003,E,1,19,0.8,20.8,M,,M,,*72
$GPRMC,031611.000,A,3113.956184,N,12131.974003,E,3.4,58.103268121000006,250122,,E,A*17
$GPGGA,031612.000,3113.956841,N,12131.974663,E,1,19,0.8,21.0,M,,M,,*78
$GPRMC,031612.000,A,3113.956841,N,12131.974663,E,3.4,56.066867675,250122,,E,A*1D
$GPGGA,031613.000,3113.958288,N,12131.974592,E,1,19,0.8,20.6,M,,M,,*72
$GPRMC,031613.000,A,3113.958288,N,12131.974592,E,3.5,45.577968843,250122,,E,A*13
$GPGGA,031614.000,3113.959420,N,12131.974589,E,1,19,0.8,20.2,M,,M,,*7E
$GPRMC,031614.000,A,3113.959420,N,12131.974589,E,3.3,42.235909545,250122,,E,A*17
$GPGGA,031615.000,3113.960140,N,12131.975068,E,1,19,0.8,19.8,M,,M,,*7D
$GPRMC,031615.000,A,3113.960140,N,12131.975068,E,3.2,41.153868374,250122,,E,A*17
$GPGGA,031616.000,3113.960383,N,12131.975468,E,1,19,0.8,19.6,M,,M,,*79
$GPRMC,031616.000,A,3113.960383,N,12131.975468,E,2.7,43.442380533999994,250122,,E,A*1B
$GPGGA,031617.000,3113.961082,N,12131.975520,E,1,19,0.8,19.2,M,,M,,*72
$GPRMC,031617.000,A,3113.961082,N,12131.975520,E,2.6,30.662782259,250122,,E,A*11
$GPGGA,031618.000,3113.961465,N,12131.975697,E,1,19,0.8,18.9,M,,M,,*75
$GPRMC,031618.000,A,3113.961465,N,12131.975697,E,2.3,53.401377026000006,250122,,E,A*19
$GPGGA,031619.000,3113.961609,N,12131.976598,E,1,19,0.8,18.4,M,,M,,*7E
$GPRMC,031619.000,A,3113.961609,N,12131.976598,E,2.2,43.051304388,250122,,E,A*1B
$GPGGA,031620.000,3113.961794,N,12131.977825,E,1,19,0.8,18.2,M,,M,,*7D
$GPRMC,031620.000,A,3113.961794,N,12131.977825,E,2.4,21.694287859,250122,,E,A*1E
$GPGGA,031621.000,3113.962676,N,12131.978014,E,1,19,0.8,18.3,M,,M,,*76
$GPRMC,031621.000,A,3113.962676,N,12131.978014,E,2.5,18.834385167,250122,,E,A*1C
$GPGGA,031622.000,3113.963839,N,12131.977819,E,1,19,0.8,18.7,M,,M,,*7F
$GPRMC,031622.000,A,3113.963839,N,12131.977819,E,2.7,19.577067503,250122,,E,A*11
$GPGGA,031623.000,3113.964596,N,12131.977673,E,1,19,0.8,19.2,M,,M,,*77
$GPRMC,031623.000,A,3113.964596,N,12131.977673,E,2.5,32.389689743000005,250122,,E,A*14
$GPGGA,031624.000,3113.965238,N,12131.978301,E,1,19,0.8,19.5,M,,M,,*7A
$GPRMC,031624.000,A,3113.965238,N,12131.978301,E,2.6,46.291880848000005,250122,,E,A*15
$GPGGA,031625.000,3113.965753,N,12131.977969,E,1,19,0.8,19.8,M,,M,,*75
$GPRMC,031625.000,A,3113.965753,N,12131.977969,E,2.1,36.370320623000005,250122,,E,A*1B
$GPGGA,031626.000,3113.966470,N,12131.978232,E,1,19,0.8,19.9,M,,M,,*7C
$GPRMC,031626.000,A,3113.966470,N,12131.978232,E,2.2,32.835622554000004,250122,,E,A*1B
$GPGGA,031627.000,3113.967162,N,12131.978238,E,1,19,0.8,20.0,M,,M,,*73
$GPRMC,031627.000,A,3113.967162,N,12131.978238,E,2.1,4.734519848,250122,,E,A*20
$GPGGA,031628.000,3113.968076,N,12131.978703,E,1,19,0.8,19.9,M,,M,,*79
$GPRMC,031628.000,A,3113.968076,N,12131.978703,E,2.2,23.150815470999998,250122,,E,A*1C
$GPGGA,031629.000,3113.969212,N,12131.978114,E,1,19,0.8,20.0,M,,M,,*7A
$GPRMC,031629.000,A,3113.969212,N,12131.978114,E,2.5,23.150815470999998,250122,,E,A*1B
$GPGGA,031630.000,3113.970077,N,12131.978773,E,1,19,0.8,20.1,M,,M,,*7D
$GPRMC,031630.000,A,3113.970077,N,12131.978773,E,2.8,350.07995663699995,250122,,E,A*1F
$GPGGA,031631.000,3113.970710,N,12131.980049,E,1,19,0.8,20.3,M,,M,,*71
$GPRMC,031631.000,A,3113.970710,N,12131.980049,E,2.9,9.336808086,250122,,E,A*25
$GPGGA,031632.000,3113.971732,N,12131.981097,E,1,19,0.8,20.2,M,,M,,*70
$GPRMC,031632.000,A,3113.971732,N,12131.981097,E,3.1,25.55957676,250122,,E,A*26
$GPGGA,031633.000,3113.972882,N,12131.981978,E,1,19,0.8,20.4,M,,M,,*78
$GPRMC,031633.000,A,3113.972882,N,12131.981978,E,3.6,25.521843154000003,250122,,E,A*19
$GPGGA,031634.000,3113.973543,N,12131.982107,E,1,19,0.8,20.8,M,,M,,*71
$GPRMC,031634.000,A,3113.973543,N,12131.982107,E,3.1,19.321067804000002,250122,,E,A*11
$GPGGA,031635.000,3113.973752,N,12131.982141,E,1,19,0.8,21.6,M,,M,,*7F
$GPRMC,031635.000,A,3113.973752,N,12131.982141,E,2.2,11.868933410999999,250122,,E,A*1F
$GPGGA,031636.000,3113.974158,N,12131.982480,E,1,19,0.8,22.0,M,,M,,*7A
$GPRMC,031636.000,A,3113.974158,N,12131.982480,E,1.7,24.930644969,250122,,E,A*1F
$GPGGA,031637.000,3113.974955,N,12131.982313,E,1,19,0.8,22.2,M,,M,,*71
$GPRMC,031637.000,A,3113.974955,N,12131.982313,E,2.2,351.684477375,250122,,E,A*24
$GPGGA,031638.000,3113.975611,N,12131.982088,E,1,19,0.8,22.6,M,,M,,*75
$GPRMC,031638.000,A,3113.975611,N,12131.982088,E,1.8,20.734139128,250122,,E,A*17
$GPGGA,031639.000,3113.976062,N,12131.982205,E,1,19,0.8,22.8,M,,M,,*7C
$GPRMC,031639.000,A,3113.976062,N,12131.982205,E,1.7,6.452046494,250122,,E,A*23
$GPGGA,031640.000,3113.976969,N,12131.982843,E,1,19,0.8,22.4,M,,M,,*74
$GPRMC,031640.000,A,3113.976969,N,12131.982843,E,2.1,30.379271349,250122,,E,A*18
$GPGGA,031641.000,3113.977709,N,12131.983894,E,1,19,0.8,22.4,M,,M,,*77
$GPRMC,031641.000,A,3113.977709,N,12131.983894,E,2.5,7.341597107999999,250122,,E,A*27
$GPGGA,031642.000,3113.978625,N,12131.985205,E,1,19,0.8,22.5,M,,M,,*71
$GPRMC,031642.000,A,3113.978625,N,12131.985205,E,3.1,28.071653872,250122,,E,A*18
$GPGGA,031643.000,3113.979227,N,12131.985996,E,1,19,0.8,22.8,M,,M,,*7B
$GPRMC,031643.000,A,3113.979227,N,12131.985996,E,3.1,30.235726150999998,250122,,E,A*1F
$GPGGA,031644.000,3113.979956,N,12131.985588,E,1,19,0.8,23.5,M,,M,,*7E
$GPRMC,031644.000,A,3113.979956,N,12131.985588,E,2.8,359.064578821,250122,,E,A*23
$GPGGA,031645.000,3113.980663,N,12131.985588,E,1,19,0.8,24.1,M,,M,,*73
$GPRMC,031645.000,A,3113.980663,N,12131.985588,E,3.0,21.516820213000003,250122,,E,A*10
$GPGGA,031646.000,3113.981500,N,12131.985949,E,1,19,0.8,24.4,M,,M,,*73
$GPRMC,031646.000,A,3113.981500,N,12131.985949,E,3.0,19.374878102,250122,,E,A*11
$GPGGA,031647.000,3113.982208,N,12131.986382,E,1,19,0.8,24.7,M,,M,,*73
$GPRMC,031647.000,A,3113.982208,N,12131.986382,E,3.0,18.813474924,250122,,E,A*15
$GPGGA,031648.000,3113.983208,N,12131.986316,E,1,19,0.8,24.7,M,,M,,*70
$GPRMC,031648.000,A,3113.983208,N,12131.986316,E,2.9,14.116207793,250122,,E,A*1E
$GPGGA,031649.000,3113.983892,N,12131.986756,E,1,19,0.8,25.0,M,,M,,*7E
$GPRMC,031649.000,A,3113.983892,N,12131.986756,E,2.8,9.854880502,250122,,E,A*2B
$GPGGA,031650.000,3113.984276,N,12131.987365,E,1,19,0.8,25.0,M,,M,,*74
$GPRMC,031650.000,A,3113.984276,N,12131.987365,E,2.2,35.922748567,250122,,E,A*1C
$GPGGA,031651.000,3113.985023,N,12131.987804,E,1,19,0.8,25.0,M,,M,,*7A
$GPRMC,031651.000,A,3113.985023,N,12131.987804,E,2.6,8.102808893999999,250122,,E,A*2F
$GPGGA,031652.000,3113.986128,N,12131.987623,E,1,19,0.8,25.2,M,,M,,*79
$GPRMC,031652.000,A,3113.986128,N,12131.987623,E,3.7,14.051093065999998,250122,,E,A*1E
$GPGGA,031653.000,3113.986833,N,12131.987524,E,1,19,0.8,25.2,M,,M,,*7F
$GPRMC,031653.000,A,3113.986833,N,12131.987524,E,3.2,14.154048046,250122,,E,A*1F
$GPGGA,031654.000,3113.987351,N,12131.987310,E,1,19,0.8,25.0,M,,M,,*75
$GPRMC,031654.000,A,3113.987351,N,12131.987310,E,2.4,8.613189663,250122,,E,A*24
$GPGGA,031655.000,3113.988040,N,12131.987129,E,1,19,0.8,25.1,M,,M,,*71
$GPRMC,031655.000,A,3113.988040,N,12131.987129,E,2.4,357.312826524,250122,,E,A*20
$GPGGA,031656.000,3113.988503,N,12131.987034,E,1,19,0.8,24.8,M,,M,,*75
$GPRMC,031656.000,A,3113.988503,N,12131.987034,E,1.5,4.737978485,250122,,E,A*28
$GPGGA,031657.000,3113.989353,N,12131.987452,E,1,19,0.8,24.7,M,,M,,*7D
$GPRMC,031657.000,A,3113.989353,N,12131.987452,E,1.9,9.843115501,250122,,E,A*2C
$GPGGA,031658.000,3113.990581,N,12131.987420,E,1,19,0.8,24.5,M,,M,,*74
$GPRMC,031658.000,A,3113.990581,N,12131.987420,E,2.4,40.155550033000004,250122,,E,A*1F
$GPGGA,031659.000,3113.991632,N,12131.988203,E,1,19,0.8,24.7,M,,M,,*75
$GPRMC,031659.000,A,3113.991632,N,12131.988203,E,2.8,353.622557235,250122,,E,A*21
$GPGGA,031700.000,3113.992496,N,12131.988745,E,1,19,0.8,24.5,M,,M,,*72
$GPRMC,031700.000,A,3113.992496,N,12131.988745,E,2.9,11.96548271,250122,,E,A*27
$GPGGA,031701.000,3113.993342,N,12131.989194,E,1,19,0.8,24.5,M,,M,,*77
$GPRMC,031701.000,A,3113.993342,N,12131.989194,E,3.0,11.07634316,250122,,E,A*2A
$GPGGA,031702.000,3113.994095,N,12131.989347,E,1,19,0.8,24.9,M,,M,,*7A
$GPRMC,031702.000,A,3113.994095,N,12131.989347,E,3.0,10.637677784,250122,,E,A*17
$GPGGA,031703.000,3113.994793,N,12131.989730,E,1,19,0.8,25.2,M,,M,,*74
$GPRMC,031703.000,A,3113.994793,N,12131.989730,E,2.9,11.599514901,250122,,E,A*18
$GPGGA,031704.000,3113.995291,N,12131.989725,E,1,19,0.8,25.7,M,,M,,*74
$GPRMC,031704.000,A,3113.995291,N,12131.989725,E,2.7,353.780334606,250122,,E,A*20
$GPGGA,031705.000,3113.995808,N,12131.990008,E,1,19,0.8,26.1,M,,M,,*7A
$GPRMC,031705.000,A,3113.995808,N,12131.990008,E,2.5,22.546038071999998,250122,,E,A*1C
$GPGGA,031706.000,3113.996260,N,12131.990768,E,1,19,0.8,26.5,M,,M,,*7B
$GPRMC,031706.000,A,3113.996260,N,12131.990768,E,2.4,3.741967846,250122,,E,A*20
$GPGGA,031707.000,3113.996934,N,12131.991416,E,1,19,0.8,26.9,M,,M,,*77
$GPRMC,031707.000,A,3113.996934,N,12131.991416,E,2.5,348.59381673900003,250122,,E,A*13
$GPGGA,031708.000,3113.997483,N,12131.991905,E,1,19,0.8,27.4,M,,M,,*7B
$GPRMC,031708.000,A,3113.997483,N,12131.991905,E,2.5,351.389659086,250122,,E,A*23
$GPGGA,031709.000,3113.997840,N,12131.991958,E,1,19,0.8,27.7,M,,M,,*72
$GPRMC,031709.000,A,3113.997840,N,12131.991958,E,1.9,357.771268826,250122,,E,A*27
$GPGGA,031710.000,3113.998604,N,12131.992363,E,1,19,0.8,27.7,M,,M,,*7A
$GPRMC,031710.000,A,3113.998604,N,12131.992363,E,1.8,356.07680815699996,250122,,E,A*1B
$GPGGA,031711.000,3113.999515,N,12131.992188,E,1,19,0.8,27.6,M,,M,,*7F
$GPRMC,031711.000,A,3113.999515,N,12131.992188,E,2.0,3.712567296,250122,,E,A*2F
$GPGGA,031712.000,3114.000161,N,12131.991989,E,1,19,0.8,27.3,M,,M,,*7A
$GPRMC,031712.000,A,3114.000161,N,12131.991989,E,1.6,8.746496173999999,250122,,E,A*27
$GPGGA,031713.000,3114.001711,N,12131.990564,E,1,19,0.8,26.9,M,,M,,*7E
$GPRMC,031713.000,A,3114.001711,N,12131.990564,E,2.5,349.26383098400004,250122,,E,A*18
$GPGGA,031714.000,3114.002520,N,12131.989846,E,1,19,0.8,26.8,M,,M,,*7E
$GPRMC,031714.000,A,3114.002520,N,12131.989846,E,2.6,358.678099393,250122,,E,A*27
$GPGGA,031715.000,3114.003359,N,12131.989371,E,1,19,0.8,26.6,M,,M,,*77
$GPRMC,031715.000,A,3114.003359,N,12131.989371,E,2.7,3.291031067,250122,,E,A*25
$GPGGA,031716.000,3114.004162,N,12131.988703,E,1,19,0.8,26.7,M,,M,,*78
$GPRMC,031716.000,A,3114.004162,N,12131.988703,E,2.8,11.745069637,250122,,E,A*15
$GPGGA,031717.000,3114.005044,N,12131.988188,E,1,19,0.8,26.9,M,,M,,*76
$GPRMC,031717.000,A,3114.005044,N,12131.988188,E,3.0,-25.001252051999998,250122,,E,A*3C
$GPGGA,031718.000,3114.005728,N,12131.987842,E,1,19,0.8,26.8,M,,M,,*75
$GPRMC,031718.000,A,3114.005728,N,12131.987842,E,2.9,348.027102277,250122,,E,A*26
$GPGGA,031719.000,3114.006605,N,12131.988114,E,1,19,0.8,26.6,M,,M,,*72
$GPRMC,031719.000,A,3114.006605,N,12131.988114,E,2.9,2.241962237,250122,,E,A*2A
$GPGGA,031720.000,3114.007369,N,12131.988685,E,1,19,0.8,26.4,M,,M,,*7B
$GPRMC,031720.000,A,3114.007369,N,12131.988685,E,2.8,5.949563131000001,250122,,E,A*2D
$GPGGA,031721.000,3114.008076,N,12131.988514,E,1,19,0.8,26.4,M,,M,,*73
$GPRMC,031721.000,A,3114.008076,N,12131.988514,E,2.8,16.029463792,250122,,E,A*17
$GPGGA,031722.000,3114.008937,N,12131.988440,E,1,19,0.8,26.3,M,,M,,*7B
$GPRMC,031722.000,A,3114.008937,N,12131.988440,E,2.8,3.5889442860000003,250122,,E,A*19
$GPGGA,031723.000,3114.009528,N,12131.988364,E,1,19,0.8,26.5,M,,M,,*7E
$GPRMC,031723.000,A,3114.009528,N,12131.988364,E,2.7,0.09866165,250122,,E,A*16
$GPGGA,031724.000,3114.010180,N,12131.988020,E,1,19,0.8,26.5,M,,M,,*74
$GPRMC,031724.000,A,3114.010180,N,12131.988020,E,2.7,337.906701582,250122,,E,A*2E
$GPGGA,031725.000,3114.010773,N,12131.987533,E,1,19,0.8,26.8,M,,M,,*7A
$GPRMC,031725.000,A,3114.010773,N,12131.987533,E,2.6,351.91014682699995,250122,,E,A*18
$GPGGA,031726.000,3114.011213,N,12131.987247,E,1,19,0.8,27.1,M,,M,,*77
$GPRMC,031726.000,A,3114.011213,N,12131.987247,E,2.5,333.876425472,250122,,E,A*23
$GPGGA,031727.000,3114.011491,N,12131.987436,E,1,19,0.8,27.9,M,,M,,*72
$GPRMC,031727.000,A,3114.011491,N,12131.987436,E,2.2,3.9741725089999997,250122,,E,A*16
$GPGGA,031728.000,3114.011897,N,12131.987280,E,1,19,0.8,27.4,M,,M,,*71
$GPRMC,031728.000,A,3114.011897,N,12131.987280,E,2.1,0.839356034,250122,,E,A*29
$GPGGA,031729.000,3114.012521,N,12131.987048,E,1,19,0.8,26.8,M,,M,,*78
$GPRMC,031729.000,A,3114.012521,N,12131.987048,E,2.2,348.247772031,250122,,E,A*25
$GPGGA,031730.000,3114.013343,N,12131.986741,E,1,19,0.8,26.3,M,,M,,*77
$GPRMC,031730.000,A,3114.013343,N,12131.986741,E,2.3,346.165602499,250122,,E,A*2D
$GPGGA,031731.000,3114.014299,N,12131.986244,E,1,19,0.8,25.8,M,,M,,*7F
$GPRMC,031731.000,A,3114.014299,N,12131.986244,E,2.5,0.11281895800000001,250122,,E,A*2E
$GPGGA,031732.000,3114.014969,N,12131.985387,E,1,19,0.8,25.4,M,,M,,*79
$GPRMC,031732.000,A,3114.014969,N,12131.985387,E,2.6,336.547575884,250122,,E,A*22
$GPGGA,031733.000,3114.015828,N,12131.985020,E,1,19,0.8,24.8,M,,M,,*7E
$GPRMC,031733.000,A,3114.015828,N,12131.985020,E,2.7,354.32330733099997,250122,,E,A*19
$GPGGA,031734.000,3114.016747,N,12131.984621,E,1,19,0.8,24.6,M,,M,,*74
$GPRMC,031734.000,A,3114.016747,N,12131.984621,E,2.8,4.385893755,250122,,E,A*2E
$GPGGA,031735.000,3114.017467,N,12131.984676,E,1,19,0.8,24.5,M,,M,,*74
$GPRMC,031735.000,A,3114.017467,N,12131.984676,E,2.7,322.869438892,250122,,E,A*25
$GPGGA,031736.000,3114.018240,N,12131.984681,E,1,19,0.8,24.7,M,,M,,*71
$GPRMC,031736.000,A,3114.018240,N,12131.984681,E,2.7,312.06921580200003,250122,,E,A*1A
$GPGGA,031737.000,3114.019160,N,12131.984432,E,1,19,0.8,24.1,M,,M,,*7C
$GPRMC,031737.000,A,3114.019160,N,12131.984432,E,2.8,331.496650934,250122,,E,A*29
$GPGGA,031738.000,3114.020192,N,12131.983940,E,1,19,0.8,23.3,M,,M,,*7E
$GPRMC,031738.000,A,3114.020192,N,12131.983940,E,2.9,345.968155388,250122,,E,A*2F
$GPGGA,031739.000,3114.021094,N,12131.982775,E,1,19,0.8,22.6,M,,M,,*74
$GPRMC,031739.000,A,3114.021094,N,12131.982775,E,3.1,-20.974865,250122,,E,A*01
$GPGGA,031740.000,3114.022057,N,12131.981989,E,1,19,0.8,22.1,M,,M,,*7F
$GPRMC,031740.000,A,3114.022057,N,12131.981989,E,3.2,-22.019156736,250122,,E,A*35
$GPGGA,031741.000,3114.023139,N,12131.981971,E,1,19,0.8,21.8,M,,M,,*7B
$GPRMC,031741.000,A,3114.023139,N,12131.981971,E,3.3,-19.42530833,250122,,E,A*02
$GPGGA,031742.000,3114.024129,N,12131.982115,E,1,19,0.8,21.7,M,,M,,*78
$GPRMC,031742.000,A,3114.024129,N,12131.982115,E,3.3,-5.465925694,250122,,E,A*09
$GPGGA,031743.000,3114.025182,N,12131.981709,E,1,19,0.8,21.5,M,,M,,*73
$GPRMC,031743.000,A,3114.025182,N,12131.981709,E,3.5,-14.415395312000001,250122,,E,A*3A
$GPGGA,031744.000,3114.026225,N,12131.981404,E,1,19,0.8,21.5,M,,M,,*77
$GPRMC,031744.000,A,3114.026225,N,12131.981404,E,3.5,-12.64716869,250122,,E,A*03
$GPGGA,031745.000,3114.027321,N,12131.980965,E,1,19,0.8,21.4,M,,M,,*78
$GPRMC,031745.000,A,3114.027321,N,12131.980965,E,3.6,-18.872915901,250122,,E,A*39
$GPGGA,031746.000,3114.028266,N,12131.980507,E,1,19,0.8,21.3,M,,M,,*79
$GPRMC,031746.000,A,3114.028266,N,12131.980507,E,3.6,-18.928758584,250122,,E,A*37
$GPGGA,031747.000,3114.028939,N,12131.980127,E,1,19,0.8,21.0,M,,M,,*7C
$GPRMC,031747.000,A,3114.028939,N,12131.980127,E,3.4,-18.301421764,250122,,E,A*33
$GPGGA,031748.000,3114.029432,N,12131.979638,E,1,19,0.8,21.4,M,,M,,*7F
$GPRMC,031748.000,A,3114.029432,N,12131.979638,E,3.3,-26.798139054,250122,,E,A*32
$GPGGA,031749.000,3114.030377,N,12131.979289,E,1,19,0.8,21.4,M,,M,,*7E
$GPRMC,031749.000,A,3114.030377,N,12131.979289,E,3.3,-25.660927991999998,250122,,E,A*30
$GPGGA,031750.000,3114.031168,N,12131.978898,E,1,19,0.8,21.5,M,,M,,*71
$GPRMC,031750.000,A,3114.031168,N,12131.978898,E,3.3,-26.199578571,250122,,E,A*39
$GPGGA,031751.000,3114.031687,N,12131.978691,E,1,19,0.8,21.7,M,,M,,*73
$GPRMC,031751.000,A,3114.031687,N,12131.978691,E,3.1,-25.569608160999998,250122,,E,A*32
$GPGGA,031752.000,3114.032124,N,12131.978890,E,1,19,0.8,21.8,M,,M,,*7D
$GPRMC,031752.000,A,3114.032124,N,12131.978890,E,2.8,302.873376845,250122,,E,A*25
$GPGGA,031753.000,3114.032406,N,12131.979029,E,1,19,0.8,22.3,M,,M,,*7A
$GPRMC,031753.000,A,3114.032406,N,12131.979029,E,2.4,302.040011794,250122,,E,A*2F
$GPGGA,031754.000,3114.032905,N,12131.978721,E,1,19,0.8,22.4,M,,M,,*7A
$GPRMC,031754.000,A,3114.032905,N,12131.978721,E,2.4,326.242705438,250122,,E,A*29
$GPGGA,031755.000,3114.033380,N,12131.978684,E,1,19,0.8,22.5,M,,M,,*72
$GPRMC,031755.000,A,3114.033380,N,12131.978684,E,2.2,357.146607038,250122,,E,A*20
$GPGGA,031756.000,3114.034083,N,12131.978152,E,1,19,0.8,22.7,M,,M,,*78
$GPRMC,031756.000,A,3114.034083,N,12131.978152,E,3.1,-44.623816331,250122,,E,A*36
$GPGGA,031757.000,3114.034920,N,12131.977765,E,1,19,0.8,23.2,M,,M,,*70
$GPRMC,031757.000,A,3114.034920,N,12131.977765,E,2.5,346.107764456,250122,,E,A*2E
$GPGGA,031758.000,3114.035585,N,12131.977602,E,1,19,0.8,23.3,M,,M,,*7C
$GPRMC,031758.000,A,3114.035585,N,12131.977602,E,2.5,356.67502345199995,250122,,E,A*16
$GPGGA,031759.000,3114.036807,N,12131.977388,E,1,19,0.8,23.9,M,,M,,*74
$GPRMC,031759.000,A,3114.036807,N,12131.977388,E,2.7,302.83529171,250122,,E,A*15
$GPGGA,031800.000,3114.037500,N,12131.977209,E,1,19,0.8,24.2,M,,M,,*78
$GPRMC,031800.000,A,3114.037500,N,12131.977209,E,2.7,325.93802435599997,250122,,E,A*12
$GPGGA,031801.000,3114.038770,N,12131.976997,E,1,19,0.8,24.4,M,,M,,*78
$GPRMC,031801.000,A,3114.038770,N,12131.976997,E,3.0,-12.139833838,250122,,E,A*38
$GPGGA,031802.000,3114.039599,N,12131.976647,E,1,19,0.8,24.3,M,,M,,*7A
$GPRMC,031802.000,A,3114.039599,N,12131.976647,E,3.0,-15.266200220999998,250122,,E,A*3B
$GPGGA,031803.000,3114.040710,N,12131.976014,E,1,19,0.8,24.3,M,,M,,*76
$GPRMC,031803.000,A,3114.040710,N,12131.976014,E,3.2,-19.365816152,250122,,E,A*31
$GPGGA,031804.000,3114.041845,N,12131.975321,E,1,19,0.8,24.8,M,,M,,*72
$GPRMC,031804.000,A,3114.041845,N,12131.975321,E,3.6,-30.399249102,250122,,E,A*37
$GPGGA,031805.000,3114.042996,N,12131.975181,E,1,19,0.8,25.3,M,,M,,*7D
$GPRMC,031805.000,A,3114.042996,N,12131.975181,E,3.7,-29.016271244000002,250122,,E,A*37
$GPGGA,031806.000,3114.043812,N,12131.974888,E,1,19,0.8,26.0,M,,M,,*73
$GPRMC,031806.000,A,3114.043812,N,12131.974888,E,3.7,-33.05318773,250122,,E,A*0D
$GPGGA,031807.000,3114.044536,N,12131.974629,E,1,19,0.8,27.0,M,,M,,*7A
$GPRMC,031807.000,A,3114.044536,N,12131.974629,E,3.5,-33.506715829,250122,,E,A*38
$GPGGA,031808.000,3114.045614,N,12131.974589,E,1,19,0.8,27.7,M,,M,,*79
$GPRMC,031808.000,A,3114.045614,N,12131.974589,E,3.5,-29.83900275,250122,,E,A*06
$GPGGA,031809.000,3114.046656,N,12131.974381,E,1,19,0.8,28.5,M,,M,,*7E
$GPRMC,031809.000,A,3114.046656,N,12131.974381,E,3.5,-29.090702245,250122,,E,A*31
$GPGGA,031810.000,3114.047643,N,12131.974022,E,1,19,0.8,28.7,M,,M,,*7B
$GPRMC,031810.000,A,3114.047643,N,12131.974022,E,3.5,-31.673481857,250122,,E,A*35
$GPGGA,031811.000,3114.048661,N,12131.973693,E,1,19,0.8,29.0,M,,M,,*78
$GPRMC,031811.000,A,3114.048661,N,12131.973693,E,3.5,-29.236244038000002,250122,,E,A*30
$GPGGA,031812.000,3114.049268,N,12131.973266,E,1,19,0.8,29.8,M,,M,,*71
$GPRMC,031812.000,A,3114.049268,N,12131.973266,E,3.4,-29.894844513000002,250122,,E,A*34
$GPGGA,031813.000,3114.050210,N,12131.972602,E,1,19,0.8,30.2,M,,M,,*72
$GPRMC,031813.000,A,3114.050210,N,12131.972602,E,3.4,-29.64737499,250122,,E,A*08
$GPGGA,031814.000,3114.051552,N,12131.971856,E,1,19,0.8,30.6,M,,M,,*7D
$GPRMC,031814.000,A,3114.051552,N,12131.971856,E,3.6,-28.189988689,250122,,E,A*3B
$GPGGA,031815.000,3114.052981,N,12131.971114,E,1,19,0.8,30.8,M,,M,,*7C
$GPRMC,031815.000,A,3114.052981,N,12131.971114,E,3.8,-28.041425126,250122,,E,A*37
$GPGGA,031816.000,3114.054506,N,12131.970262,E,1,19,0.8,31.3,M,,M,,*73
$GPRMC,031816.000,A,3114.054506,N,12131.970262,E,4.1,-28.25882686,250122,,E,A*02
$GPGGA,031817.000,3114.055746,N,12131.969734,E,1,19,0.8,31.8,M,,M,,*70
$GPRMC,031817.000,A,3114.055746,N,12131.969734,E,4.1,-23.325920495,250122,,E,A*3B
$GPGGA,031818.000,3114.057233,N,12131.969341,E,1,19,0.8,32.3,M,,M,,*74
$GPRMC,031818.000,A,3114.057233,N,12131.969341,E,4.2,-21.077894265999998,250122,,E,A*34
$GPGGA,031819.000,3114.057887,N,12131.968532,E,1,19,0.8,32.1,M,,M,,*71
$GPRMC,031819.000,A,3114.057887,N,12131.968532,E,4.1,-23.651178835,250122,,E,A*35
$GPGGA,031820.000,3114.059116,N,12131.967866,E,1,19,0.8,32.2,M,,M,,*74
$GPRMC,031820.000,A,3114.059116,N,12131.967866,E,4.1,-23.651714423,250122,,E,A*34
$GPGGA,031821.000,3114.060554,N,12131.966730,E,1,19,0.8,32.1,M,,M,,*73
$GPRMC,031821.000,A,3114.060554,N,12131.966730,E,4.4,-26.409666980999997,250122,,E,A*31
$GPGGA,031822.000,3114.061260,N,12131.965726,E,1,19,0.8,31.9,M,,M,,*7E
$GPRMC,031822.000,A,3114.061260,N,12131.965726,E,4.4,-31.081034555,250122,,E,A*3E
$GPGGA,031823.000,3114.061514,N,12131.965123,E,1,19,0.8,32.1,M,,M,,*73
$GPRMC,031823.000,A,3114.061514,N,12131.965123,E,4.1,-33.569556258,250122,,E,A*37
$GPGGA,031824.000,3114.061665,N,12131.964665,E,1,19,0.8,32.5,M,,M,,*71
$GPRMC,031824.000,A,3114.061665,N,12131.964665,E,3.8,-35.493696249,250122,,E,A*32
$GPGGA,031825.000,3114.061608,N,12131.964515,E,1,19,0.8,33.0,M,,M,,*7B
$GPRMC,031825.000,A,3114.061608,N,12131.964515,E,3.3,-35.406942401,250122,,E,A*37
$GPGGA,031826.000,3114.062175,N,12131.964112,E,1,19,0.8,33.0,M,,M,,*75
$GPRMC,031826.000,A,3114.062175,N,12131.964112,E,3.2,-35.865654309,250122,,E,A*36
$GPGGA,031827.000,3114.062414,N,12131.963668,E,1,19,0.8,32.8,M,,M,,*72
$GPRMC,031827.000,A,3114.062414,N,12131.963668,E,2.9,314.610264769,250122,,E,A*26
$GPGGA,031828.000,3114.063084,N,12131.963337,E,1,19,0.8,33.0,M,,M,,*77
$GPRMC,031828.000,A,3114.063084,N,12131.963337,E,2.8,306.596868175,250122,,E,A*28
$GPGGA,031829.000,3114.063589,N,12131.963109,E,1,19,0.8,33.4,M,,M,,*75
$GPRMC,031829.000,A,3114.063589,N,12131.963109,E,2.7,291.89188053099997,250122,,E,A*10
$GPGGA,031830.000,3114.063672,N,12131.962552,E,1,19,0.8,33.5,M,,M,,*70
$GPRMC,031830.000,A,3114.063672,N,12131.962552,E,2.5,310.818471546,250122,,E,A*2B
$GPGGA,031831.000,3114.064534,N,12131.961788,E,1,19,0.8,33.3,M,,M,,*77
$GPRMC,031831.000,A,3114.064534,N,12131.961788,E,2.7,325.994031908,250122,,E,A*2D
$GPGGA,031832.000,3114.064477,N,12131.960735,E,1,19,0.8,33.6,M,,M,,*70
$GPRMC,031832.000,A,3114.064477,N,12131.960735,E,2.6,315.40393275900004,250122,,E,A*1A
$GPGGA,031833.000,3114.064343,N,12131.959770,E,1,19,0.8,33.8,M,,M,,*74
$GPRMC,031833.000,A,3114.064343,N,12131.959770,E,2.5,294.804437152,250122,,E,A*21
$GPGGA,031834.000,3114.064149,N,12131.958898,E,1,19,0.8,33.8,M,,M,,*73
$GPRMC,031834.000,A,3114.064149,N,12131.958898,E,2.3,325.44644197599996,250122,,E,A*1B
$GPGGA,031835.000,3114.064169,N,12131.958078,E,1,19,0.8,34.2,M,,M,,*7B
$GPRMC,031835.000,A,3114.064169,N,12131.958078,E,2.2,302.610633125,250122,,E,A*27
$GPGGA,031836.000,3114.064077,N,12131.956810,E,1,19,0.8,34.6,M,,M,,*7A
$GPRMC,031836.000,A,3114.064077,N,12131.956810,E,2.3,308.73687575,250122,,E,A*14
$GPGGA,031837.000,3114.064167,N,12131.956061,E,1,19,0.8,34.8,M,,M,,*7B
$GPRMC,031837.000,A,3114.064167,N,12131.956061,E,2.3,269.488204094,250122,,E,A*28
$GPGGA,031838.000,3114.064523,N,12131.955226,E,1,19,0.8,34.9,M,,M,,*73
$GPRMC,031838.000,A,3114.064523,N,12131.955226,E,2.4,274.06874757099996,250122,,E,A*1B
$GPGGA,031839.000,3114.064591,N,12131.954037,E,1,19,0.8,35.4,M,,M,,*74
$GPRMC,031839.000,A,3114.064591,N,12131.954037,E,2.5,265.388178091,250122,,E,A*2A
$GPGGA,031840.000,3114.064309,N,12131.953092,E,1,19,0.8,35.8,M,,M,,*79
$GPRMC,031840.000,A,3114.064309,N,12131.953092,E,2.6,317.429439042,250122,,E,A*2E
$GPGGA,031841.000,3114.063809,N,12131.951678,E,1,19,0.8,36.1,M,,M,,*7E
$GPRMC,031841.000,A,3114.063809,N,12131.951678,E,2.7,319.249575194,250122,,E,A*2F
$GPGGA,031842.000,3114.064160,N,12131.950389,E,1,19,0.8,36.4,M,,M,,*73
$GPRMC,031842.000,A,3114.064160,N,12131.950389,E,2.9,324.910190157,250122,,E,A*20
$GPGGA,031843.000,3114.064406,N,12131.949283,E,1,19,0.8,36.5,M,,M,,*75
$GPRMC,031843.000,A,3114.064406,N,12131.949283,E,3.0,-78.785755716,250122,,E,A*36
$GPGGA,031844.000,3114.064555,N,12131.948458,E,1,19,0.8,36.4,M,,M,,*75
$GPRMC,031844.000,A,3114.064555,N,12131.948458,E,3.0,-77.630353676,250122,,E,A*32
$GPGGA,031845.000,3114.064873,N,12131.948071,E,1,19,0.8,36.6,M,,M,,*70
$GPRMC,031845.000,A,3114.064873,N,12131.948071,E,2.7,301.467969784,250122,,E,A*23
$GPGGA,031846.000,3114.065444,N,12131.947717,E,1,19,0.8,36.6,M,,M,,*72
$GPRMC,031846.000,A,3114.065444,N,12131.947717,E,2.5,301.361473473,250122,,E,A*2F
$GPGGA,031847.000,3114.065957,N,12131.947289,E,1,19,0.8,36.5,M,,M,,*7D
$GPRMC,031847.000,A,3114.065957,N,12131.947289,E,2.4,299.14215374099996,250122,,E,A*13
$GPGGA,031848.000,3114.066305,N,12131.946697,E,1,19,0.8,36.7,M,,M,,*74
$GPRMC,031848.000,A,3114.066305,N,12131.946697,E,2.4,280.893472669,250122,,E,A*2F
$GPGGA,031849.000,3114.066397,N,12131.946221,E,1,19,0.8,36.8,M,,M,,*78
$GPRMC,031849.000,A,3114.066397,N,12131.946221,E,2.3,287.936326692,250122,,E,A*20
$GPGGA,031850.000,3114.066721,N,12131.945434,E,1,19,0.8,36.8,M,,M,,*78
$GPRMC,031850.000,A,3114.066721,N,12131.945434,E,2.4,284.22108623,250122,,E,A*1C
$GPGGA,031851.000,3114.067097,N,12131.944880,E,1,19,0.8,36.8,M,,M,,*70
$GPRMC,031851.000,A,3114.067097,N,12131.944880,E,2.3,325.691837015,250122,,E,A*21
$GPGGA,031852.000,3114.067414,N,12131.943959,E,1,19,0.8,36.6,M,,M,,*70
$GPRMC,031852.000,A,3114.067414,N,12131.943959,E,2.4,313.404189951,250122,,E,A*26
$GPGGA,031853.000,3114.067756,N,12131.943554,E,1,19,0.8,36.4,M,,M,,*77
$GPRMC,031853.000,A,3114.067756,N,12131.943554,E,2.2,285.666135709,250122,,E,A*29
$GPGGA,031854.000,3114.068062,N,12131.943188,E,1,19,0.8,36.5,M,,M,,*7B
$GPRMC,031854.000,A,3114.068062,N,12131.943188,E,2.2,281.202251865,250122,,E,A*22
$GPGGA,031855.000,3114.068511,N,12131.942789,E,1,19,0.8,36.3,M,,M,,*7B
$GPRMC,031855.000,A,3114.068511,N,12131.942789,E,2.1,309.23474190400003,250122,,E,A*12
$GPGGA,031856.000,3114.069911,N,12131.942945,E,1,19,0.8,36.7,M,,M,,*7F
$GPRMC,031856.000,A,3114.069911,N,12131.942945,E,2.1,293.324553708,250122,,E,A*20
$GPGGA,031857.000,3114.070432,N,12131.942607,E,1,19,0.8,36.5,M,,M,,*71
$GPRMC,031857.000,A,3114.070432,N,12131.942607,E,2.2,291.171213603,250122,,E,A*26
$GPGGA,031858.000,3114.071048,N,12131.941969,E,1,19,0.8,36.4,M,,M,,*73
$GPRMC,031858.000,A,3114.071048,N,12131.941969,E,2.3,299.79088511599997,250122,,E,A*17
$GPGGA,031859.000,3114.071504,N,12131.941316,E,1,19,0.8,36.0,M,,M,,*79
$GPRMC,031859.000,A,3114.071504,N,12131.941316,E,2.4,296.70066161200003,250122,,E,A*18
$GPGGA,031900.000,3114.071835,N,12131.940447,E,1,19,0.8,35.8,M,,M,,*72
$GPRMC,031900.000,A,3114.071835,N,12131.940447,E,2.4,307.54424274400003,250122,,E,A*14
$GPGGA,031901.000,3114.072027,N,12131.939179,E,1,19,0.8,35.3,M,,M,,*76
$GPRMC,031901.000,A,3114.072027,N,12131.939179,E,2.6,287.240166482,250122,,E,A*2C
$GPGGA,031902.000,3114.072175,N,12131.937828,E,1,19,0.8,34.6,M,,M,,*74
$GPRMC,031902.000,A,3114.072175,N,12131.937828,E,2.8,288.059871155,250122,,E,A*21
$GPGGA,031903.000,3114.072136,N,12131.936644,E,1,19,0.8,33.9,M,,M,,*7F
$GPRMC,031903.000,A,3114.072136,N,12131.936644,E,2.8,303.46585478099996,250122,,E,A*14
$GPGGA,031904.000,3114.071522,N,12131.935327,E,1,19,0.8,33.3,M,,M,,*73
$GPRMC,031904.000,A,3114.071522,N,12131.935327,E,2.9,217.825472232,250122,,E,A*2D
$GPGGA,031905.000,3114.071332,N,12131.934307,E,1,19,0.8,32.9,M,,M,,*7D
$GPRMC,031905.000,A,3114.071332,N,12131.934307,E,2.9,295.73877972099996,250122,,E,A*19
$GPGGA,031906.000,3114.070917,N,12131.933126,E,1,19,0.8,32.3,M,,M,,*7E
$GPRMC,031906.000,A,3114.070917,N,12131.933126,E,2.9,-83.810341926,250122,,E,A*3C
$GPGGA,031907.000,3114.070692,N,12131.931959,E,1,19,0.8,32.0,M,,M,,*7C
$GPRMC,031907.000,A,3114.070692,N,12131.931959,E,3.1,-88.517884161,250122,,E,A*3C
$GPGGA,031908.000,3114.070360,N,12131.930810,E,1,19,0.8,31.5,M,,M,,*70
$GPRMC,031908.000,A,3114.070360,N,12131.930810,E,3.1,-90.193648042,250122,,E,A*39
$GPGGA,031909.000,3114.071056,N,12131.929762,E,1,19,0.8,31.2,M,,M,,*73
$GPRMC,031909.000,A,3114.071056,N,12131.929762,E,3.2,-69.04016662800001,250122,,E,A*07
$GPGGA,031910.000,3114.070780,N,12131.928360,E,1,19,0.8,31.2,M,,M,,*71
$GPRMC,031910.000,A,3114.070780,N,12131.928360,E,3.3,-73.686769844,250122,,E,A*3F
$GPGGA,031911.000,3114.070508,N,12131.927014,E,1,19,0.8,31.0,M,,M,,*7F
$GPRMC,031911.000,A,3114.070508,N,12131.927014,E,3.3,-90.75161266399999,250122,,E,A*0A
$GPGGA,031912.000,3114.070328,N,12131.926305,E,1,19,0.8,31.1,M,,M,,*7B
$GPRMC,031912.000,A,3114.070328,N,12131.926305,E,2.9,-81.005376422,250122,,E,A*3B
$GPGGA,031913.000,3114.070071,N,12131.925598,E,1,19,0.8,31.3,M,,M,,*76
$GPRMC,031913.000,A,3114.070071,N,12131.925598,E,2.8,268.578969301,250122,,E,A*20
$GPGGA,031914.000,3114.069751,N,12131.925204,E,1,19,0.8,31.4,M,,M,,*79
$GPRMC,031914.000,A,3114.069751,N,12131.925204,E,2.5,293.384222241,250122,,E,A*25
$GPGGA,031915.000,3114.069278,N,12131.924934,E,1,19,0.8,31.2,M,,M,,*79
$GPRMC,031915.000,A,3114.069278,N,12131.924934,E,1.9,242.59455248900002,250122,,E,A*17
$GPGGA,031916.000,3114.068941,N,12131.924528,E,1,19,0.8,30.8,M,,M,,*70
$GPRMC,031916.000,A,3114.068941,N,12131.924528,E,1.5,311.612795235,250122,,E,A*29
$GPGGA,031917.000,3114.068588,N,12131.923993,E,1,19,0.8,30.7,M,,M,,*7C
$GPRMC,031917.000,A,3114.068588,N,12131.923993,E,1.6,273.689835992,250122,,E,A*2D
$GPGGA,031918.000,3114.068435,N,12131.923114,E,1,19,0.8,30.2,M,,M,,*76
$GPRMC,031918.000,A,3114.068435,N,12131.923114,E,1.8,284.62098015,250122,,E,A*1E
$GPGGA,031919.000,3114.068398,N,12131.922141,E,1,19,0.8,29.9,M,,M,,*75
$GPRMC,031919.000,A,3114.068398,N,12131.922141,E,2.0,259.74354577099996,250122,,E,A*16
$GPGGA,031920.000,3114.068266,N,12131.920871,E,1,19,0.8,29.6,M,,M,,*78
$GPRMC,031920.000,A,3114.068266,N,12131.920871,E,2.4,255.43115552400002,250122,,E,A*18
$GPGGA,031921.000,3114.068169,N,12131.919304,E,1,19,0.8,29.2,M,,M,,*72
$GPRMC,031921.000,A,3114.068169,N,12131.919304,E,2.9,265.01003149400003,250122,,E,A*17
$GPGGA,031922.000,3114.068118,N,12131.918067,E,1,19,0.8,28.9,M,,M,,*7A
$GPRMC,031922.000,A,3114.068118,N,12131.918067,E,2.9,298.444436248,250122,,E,A*25
$GPGGA,031923.000,3114.067815,N,12131.916858,E,1,19,0.8,28.4,M,,M,,*77
$GPRMC,031923.000,A,3114.067815,N,12131.916858,E,3.0,-95.98108123600001,250122,,E,A*0B
$GPGGA,031924.000,3114.067535,N,12131.915394,E,1,19,0.8,27.9,M,,M,,*75
$GPRMC,031924.000,A,3114.067535,N,12131.915394,E,3.3,-96.519716073,250122,,E,A*3D
$GPGGA,031925.000,3114.067402,N,12131.913899,E,1,19,0.8,27.6,M,,M,,*7E
$GPRMC,031925.000,A,3114.067402,N,12131.913899,E,3.5,-96.66197822299999,250122,,E,A*0A
$GPGGA,031926.000,3114.067453,N,12131.912759,E,1,19,0.8,27.1,M,,M,,*7C
$GPRMC,031926.000,A,3114.067453,N,12131.912759,E,3.6,-95.905579774,250122,,E,A*30
$GPGGA,031927.000,3114.067589,N,12131.911767,E,1,19,0.8,27.2,M,,M,,*76
$GPRMC,031927.000,A,3114.067589,N,12131.911767,E,3.4,-92.188690508,250122,,E,A*3C
$GPGGA,031928.000,3114.067535,N,12131.911101,E,1,19,0.8,27.3,M,,M,,*79
$GPRMC,031928.000,A,3114.067535,N,12131.911101,E,3.1,-91.845547044,250122,,E,A*38
$GPGGA,031929.000,3114.067946,N,12131.910951,E,1,19,0.8,27.6,M,,M,,*79
$GPRMC,031929.000,A,3114.067946,N,12131.910951,E,2.5,254.47424601,250122,,E,A*17
$GPGGA,031930.000,3114.068276,N,12131.910370,E,1,19,0.8,27.8,M,,M,,*71
$GPRMC,031930.000,A,3114.068276,N,12131.910370,E,2.3,302.197270071,250122,,E,A*2F
$GPGGA,031931.000,3114.068400,N,12131.909641,E,1,19,0.8,28.0,M,,M,,*7F
$GPRMC,031931.000,A,3114.068400,N,12131.909641,E,2.3,233.710689257,250122,,E,A*28
$GPGGA,031932.000,3114.067572,N,12131.908824,E,1,19,0.8,28.0,M,,M,,*7B
$GPRMC,031932.000,A,3114.067572,N,12131.908824,E,2.3,211.88017498,250122,,E,A*1E
$GPGGA,031933.000,3114.066998,N,12131.908143,E,1,19,0.8,28.1,M,,M,,*7A
$GPRMC,031933.000,A,3114.066998,N,12131.908143,E,2.4,261.064313126,250122,,E,A*2B
$GPGGA,031934.000,3114.066743,N,12131.907339,E,1,19,0.8,28.1,M,,M,,*75
$GPRMC,031934.000,A,3114.066743,N,12131.907339,E,2.3,255.243270678,250122,,E,A*2B
$GPGGA,031935.000,3114.066245,N,12131.906476,E,1,19,0.8,28.0,M,,M,,*7B
$GPRMC,031935.000,A,3114.066245,N,12131.906476,E,2.5,230.81367814700002,250122,,E,A*1B
$GPGGA,031936.000,3114.065865,N,12131.905615,E,1,19,0.8,27.9,M,,M,,*71
$GPRMC,031936.000,A,3114.065865,N,12131.905615,E,2.6,264.568555381,250122,,E,A*22
$GPGGA,031937.000,3114.065460,N,12131.904716,E,1,19,0.8,27.6,M,,M,,*75
$GPRMC,031937.000,A,3114.065460,N,12131.904716,E,2.6,252.951878788,250122,,E,A*25
$GPGGA,031938.000,3114.065486,N,12131.903746,E,1,19,0.8,27.4,M,,M,,*72
$GPRMC,031938.000,A,3114.065486,N,12131.903746,E,2.5,245.227972936,250122,,E,A*2F
$GPGGA,031939.000,3114.065580,N,12131.903146,E,1,19,0.8,27.2,M,,M,,*74
$GPRMC,031939.000,A,3114.065580,N,12131.903146,E,2.3,217.02603956099998,250122,,E,A*1C
$GPGGA,031940.000,3114.065744,N,12131.902251,E,1,19,0.8,26.9,M,,M,,*7E
$GPRMC,031940.000,A,3114.065744,N,12131.902251,E,2.4,254.557000583,250122,,E,A*20
$GPGGA,031941.000,3114.065689,N,12131.901186,E,1,19,0.8,26.7,M,,M,,*7B
$GPRMC,031941.000,A,3114.065689,N,12131.901186,E,2.9,-106.09325493600001,250122,,E,A*32
$GPGGA,031942.000,3114.065716,N,12131.900221,E,1,19,0.8,26.5,M,,M,,*72
$GPRMC,031942.000,A,3114.065716,N,12131.900221,E,2.5,229.748960926,250122,,E,A*2B
$GPGGA,031943.000,3114.066161,N,12131.899267,E,1,19,0.8,26.1,M,,M,,*71
$GPRMC,031943.000,A,3114.066161,N,12131.899267,E,2.5,225.006350718,250122,,E,A*27
$GPGGA,031944.000,3114.066469,N,12131.898286,E,1,19,0.8,25.7,M,,M,,*70
$GPRMC,031944.000,A,3114.066469,N,12131.898286,E,2.6,223.31888416200002,250122,,E,A*11
$GPGGA,031945.000,3114.066879,N,12131.897282,E,1,19,0.8,25.6,M,,M,,*76
$GPRMC,031945.000,A,3114.066879,N,12131.897282,E,2.6,231.618192478,250122,,E,A*22
$GPGGA,031946.000,3114.067351,N,12131.896061,E,1,19,0.8,25.3,M,,M,,*7E
$GPRMC,031946.000,A,3114.067351,N,12131.896061,E,2.8,238.3643704,250122,,E,A*27
$GPGGA,031947.000,3114.068212,N,12131.894808,E,1,19,0.8,25.3,M,,M,,*73
$GPRMC,031947.000,A,3114.068212,N,12131.894808,E,2.9,243.83573448,250122,,E,A*14
