% program   : RTKLIB ver.2.4.2
% inp file  : /home/wws/fgo_gnss/src/global_fusion/dataset/klt20210610_3/m8t/rtk/20210610.klt3.ublox.m8t.GC.10Hz.obs
% inp file  : /home/wws/fgo_gnss/src/global_fusion/dataset/klt20210610_3/m8t/rtk/hksc1610.21o
% inp file  : /home/wws/fgo_gnss/src/global_fusion/dataset/klt20210610_3/m8t/rtk/hksc1610.21f
% inp file  : /home/wws/fgo_gnss/src/global_fusion/dataset/klt20210610_3/m8t/rtk/hksc1610.21n
% obs start : 2021/06/10 03:52:31.0 GPST (week2161 359551.0s)
% obs end   : 2021/06/10 03:59:17.0 GPST (week2161 359957.0s)
% pos mode  : kinematic
% freqs     : L1+L2
% solution  : combined
% elev mask : 15.0 deg
% dynamics  : off
% tidecorr  : off
% ionos opt : broadcast
% tropo opt : saastamoinen
% ephemeris : broadcast
% navi sys  : gps glonass galileo qzss sbas
% amb res   : instantaneous
% amb glo   : on
% val thres : 3.0
% antenna1  :                       ( 0.0000  0.0000  0.0000)
% antenna2  :                       ( 0.0000  0.0000  0.0000)
% ref pos   : 22.322172082, 114.141187963,   20.2386
%
% (lat/lon/height=WGS84/ellipsoidal,Q=1:fix,2:float,3:sbas,4:dgps,5:single,6:ppp,ns=# of satellites)
%  GPST        , latitude(deg),longitude(deg), height(m),  Q, ns,  sdn(m),  sde(m),  sdu(m), sdne(m), sdeu(m), sdun(m),age(s), ratio
2161,359551.000,  22.330492542, 114.180800375,   33.8617,  2, 13,  0.3157,  0.3128,  1.7797,  0.0827,  0.3484,  0.3306,  1.00,   1.0
2161,359551.100,  22.330501270, 114.180806979,   30.1380,  2, 13,  0.3157,  0.3128,  1.7797,  0.0827,  0.3484,  0.3306,  1.10,   1.1
2161,359551.200,  22.330499039, 114.180806400,   26.5529,  2, 13,  0.3157,  0.3128,  1.7797,  0.0827,  0.3484,  0.3306,  1.20,   1.2
2161,359551.300,  22.330494411, 114.180802930,   30.1726,  2, 13,  0.3157,  0.3128,  1.7797,  0.0826,  0.3485,  0.3305,  1.30,   1.1
2161,359551.400,  22.330489727, 114.180802222,   30.0392,  2, 13,  0.3157,  0.3128,  1.7797,  0.0826,  0.3485,  0.3305,  1.40,   1.3
2161,359551.500,  22.330490396, 114.180807527,   26.2705,  2, 13,  0.3157,  0.3128,  1.7797,  0.0826,  0.3485,  0.3305,  1.50,   1.3
2161,359551.600,  22.330496259, 114.180807052,   25.7501,  2, 13,  0.3157,  0.3128,  1.7797,  0.0826,  0.3485,  0.3305,  1.60,   1.0
2161,359551.700,  22.330495959, 114.180804323,   32.2707,  2, 13,  0.3157,  0.3128,  1.7797,  0.0826,  0.3485,  0.3305,  1.70,   1.0
2161,359551.800,  22.330494999, 114.180794961,   31.4886,  2, 13,  0.3157,  0.3128,  1.7797,  0.0826,  0.3485,  0.3305,  1.80,   1.3
2161,359551.900,  22.330492444, 114.180793681,   35.2043,  2, 13,  0.3157,  0.3128,  1.7797,  0.0826,  0.3485,  0.3305,  1.90,   1.3
2161,359552.000,  22.330495574, 114.180793736,   30.9238,  2, 13,  0.3157,  0.3128,  1.7797,  0.0826,  0.3485,  0.3304,  2.00,   1.0
2161,359552.100,  22.330495252, 114.180792883,   29.7634,  2, 13,  0.3157,  0.3128,  1.7797,  0.0826,  0.3485,  0.3304,  2.10,   1.1
2161,359552.200,  22.330499095, 114.180787316,   26.1591,  2, 13,  0.3157,  0.3128,  1.7796,  0.0826,  0.3485,  0.3304,  2.20,   1.1
2161,359552.300,  22.330494113, 114.180788354,   25.8135,  2, 13,  0.3157,  0.3128,  1.7796,  0.0826,  0.3485,  0.3304,  2.30,   1.2
2161,359552.400,  22.330494870, 114.180783387,   26.1659,  2, 13,  0.3157,  0.3128,  1.7796,  0.0826,  0.3485,  0.3304,  2.40,   1.3
2161,359552.500,  22.330493784, 114.180788171,   26.4110,  2, 13,  0.3157,  0.3128,  1.7796,  0.0826,  0.3485,  0.3304,  2.50,   1.3
2161,359552.600,  22.330496967, 114.180794793,   21.6045,  2, 13,  0.3157,  0.3128,  1.7796,  0.0826,  0.3485,  0.3304,  2.60,   1.2
2161,359552.700,  22.330494686, 114.180797809,   21.7244,  2, 13,  0.3157,  0.3128,  1.7796,  0.0826,  0.3485,  0.3303,  2.70,   1.2
2161,359552.800,  22.330494997, 114.180802685,   21.9452,  2, 13,  0.3157,  0.3128,  1.7796,  0.0826,  0.3485,  0.3303,  2.80,   1.1
2161,359552.900,  22.330502521, 114.180803275,   26.8669,  2, 13,  0.3157,  0.3128,  1.7796,  0.0826,  0.3486,  0.3303,  2.90,   1.1
2161,359553.000,  22.330498043, 114.180803891,   28.8372,  2, 13,  0.3157,  0.3128,  1.7796,  0.0826,  0.3486,  0.3303,  3.00,   1.1
2161,359553.100,  22.330497807, 114.180803919,   30.8853,  2, 13,  0.3157,  0.3128,  1.7796,  0.0826,  0.3486,  0.3303,  3.10,   1.1
2161,359553.200,  22.330480877, 114.180798300,   13.0887,  2, 14,  0.3045,  0.3118,  1.3221,  0.0685,  0.3018,  0.0999,  3.20,   1.2
2161,359553.300,  22.330482371, 114.180792843,   11.5536,  2, 14,  0.3045,  0.3118,  1.3220,  0.0685,  0.3018,  0.0999,  3.30,   1.3
2161,359553.400,  22.330486553, 114.180792508,   11.9651,  2, 14,  0.3045,  0.3118,  1.3220,  0.0685,  0.3018,  0.0999,  3.40,   1.0
2161,359553.500,  22.330486763, 114.180792271,   12.1870,  2, 14,  0.3045,  0.3118,  1.3220,  0.0685,  0.3018,  0.0998,  3.50,   1.1
2161,359553.600,  22.330483643, 114.180801923,   12.7969,  2, 13,  0.3147,  0.3170,  1.3226,  0.0117,  0.2989,  0.1114,  3.60,   1.3
2161,359553.700,  22.330484563, 114.180804040,   12.2895,  2, 13,  0.3147,  0.3170,  1.3225,  0.0117,  0.2989,  0.1114,  3.70,   1.6
2161,359553.800,  22.330488941, 114.180812685,   12.4654,  2, 13,  0.3147,  0.3170,  1.3225,  0.0117,  0.2989,  0.1114,  3.80,   1.4
2161,359553.900,  22.330487370, 114.180810134,   13.3547,  2, 13,  0.3147,  0.3170,  1.3225,  0.0116,  0.2989,  0.1113,  3.90,   2.4
2161,359554.000,  22.330490703, 114.180808151,   14.1809,  2, 13,  0.3147,  0.3170,  1.3225,  0.0116,  0.2989,  0.1113,  4.00,   1.4
2161,359554.100,  22.330488287, 114.180810205,   17.3399,  2, 13,  0.3147,  0.3170,  1.3224,  0.0116,  0.2989,  0.1113,  4.10,   1.2
2161,359554.200,  22.330495643, 114.180810153,   14.2094,  2, 13,  0.3147,  0.3170,  1.3224,  0.0115,  0.2989,  0.1113,  4.20,   1.2
2161,359554.300,  22.330499080, 114.180808756,   12.6544,  2, 13,  0.3147,  0.3170,  1.3224,  0.0115,  0.2989,  0.1113,  4.30,   1.2
2161,359554.400,  22.330494386, 114.180813324,   12.5062,  2, 13,  0.3147,  0.3170,  1.3224,  0.0115,  0.2989,  0.1113,  4.40,   1.0
2161,359554.500,  22.330488754, 114.180811490,   12.0109,  2, 13,  0.3147,  0.3170,  1.3224,  0.0114,  0.2989,  0.1113,  4.50,   2.0
2161,359554.600,  22.330487488, 114.180811889,   10.9614,  2, 13,  0.3147,  0.3170,  1.3223,  0.0114,  0.2989,  0.1113,  4.60,   2.3
2161,359554.700,  22.330486348, 114.180813931,    9.1316,  2, 13,  0.3147,  0.3170,  1.3223,  0.0114,  0.2989,  0.1112,  4.70,   1.0
2161,359554.800,  22.330496786, 114.180811497,   22.3176,  2, 13,  0.3157,  0.3128,  1.7795,  0.0825,  0.3487,  0.3300,  4.80,   1.2
2161,359554.900,  22.330493207, 114.180811695,    9.4319,  2, 14,  0.3045,  0.3118,  1.3217,  0.0684,  0.3018,  0.0995,  4.90,   1.2
2161,359555.000,  22.330489730, 114.180815058,   10.4852,  2, 14,  0.3045,  0.3118,  1.3217,  0.0684,  0.3018,  0.0995,  5.00,   1.1
2161,359555.100,  22.330493931, 114.180807976,    9.9542,  2, 14,  0.3045,  0.3118,  1.3216,  0.0684,  0.3018,  0.0995,  5.10,   1.1
2161,359555.200,  22.330495675, 114.180810440,   12.7564,  2, 14,  0.3045,  0.3118,  1.3216,  0.0684,  0.3018,  0.0994,  5.20,   1.4
2161,359555.300,  22.330497073, 114.180810515,   13.7750,  2, 14,  0.3045,  0.3118,  1.3216,  0.0684,  0.3018,  0.0994,  5.30,   1.1
2161,359555.400,  22.330490445, 114.180810720,   13.1065,  2, 14,  0.3045,  0.3118,  1.3216,  0.0684,  0.3018,  0.0994,  5.40,   2.1
2161,359555.500,  22.330489267, 114.180812010,   12.5712,  2, 14,  0.3045,  0.3118,  1.3216,  0.0683,  0.3018,  0.0994,  5.50,   1.0
2161,359555.600,  22.330487365, 114.180815743,   11.2328,  2, 14,  0.3045,  0.3118,  1.3215,  0.0683,  0.3018,  0.0993,  5.60,   1.1
2161,359555.700,  22.330487415, 114.180805554,    9.2028,  2, 14,  0.3045,  0.3118,  1.3215,  0.0683,  0.3018,  0.0993,  5.70,   1.1
2161,359555.800,  22.330491035, 114.180806132,    8.6535,  2, 14,  0.3045,  0.3118,  1.3215,  0.0683,  0.3018,  0.0993,  5.80,   1.1
2161,359555.900,  22.330496738, 114.180805140,    7.7144,  2, 14,  0.3045,  0.3118,  1.3215,  0.0683,  0.3018,  0.0993,  5.90,   1.0
2161,359556.000,  22.330487112, 114.180800784,    7.2220,  2, 14,  0.3045,  0.3118,  1.3214,  0.0683,  0.3018,  0.0992,  6.00,   1.6
2161,359556.100,  22.330482069, 114.180797979,    8.6291,  2, 14,  0.3045,  0.3118,  1.3214,  0.0683,  0.3018,  0.0992,  6.10,   1.1
2161,359556.200,  22.330486214, 114.180794290,    9.5068,  2, 14,  0.3045,  0.3118,  1.3214,  0.0683,  0.3018,  0.0992,  6.20,   1.6
2161,359556.300,  22.330487413, 114.180790397,   10.0293,  2, 14,  0.3045,  0.3118,  1.3214,  0.0683,  0.3018,  0.0992,  6.30,   1.1
2161,359556.400,  22.330483232, 114.180792567,    8.9231,  2, 14,  0.3045,  0.3118,  1.3214,  0.0683,  0.3018,  0.0992,  6.40,   1.2
2161,359556.500,  22.330482228, 114.180792670,   10.3565,  2, 14,  0.3045,  0.3118,  1.3213,  0.0683,  0.3018,  0.0991,  6.50,   1.0
2161,359556.600,  22.330482800, 114.180795616,    9.9948,  2, 14,  0.3045,  0.3118,  1.3213,  0.0683,  0.3018,  0.0991,  6.60,   1.0
2161,359556.700,  22.330484285, 114.180789731,    8.0347,  2, 14,  0.3045,  0.3118,  1.3213,  0.0683,  0.3018,  0.0991,  6.70,   1.1
2161,359556.800,  22.330484204, 114.180786602,    9.0431,  2, 14,  0.3045,  0.3118,  1.3213,  0.0683,  0.3018,  0.0991,  6.80,   1.0
2161,359556.900,  22.330491666, 114.180782793,    6.7948,  2, 14,  0.3045,  0.3118,  1.3213,  0.0683,  0.3018,  0.0990,  6.90,   1.3
2161,359557.000,  22.330484004, 114.180783948,    6.6841,  2, 14,  0.3045,  0.3118,  1.3212,  0.0683,  0.3018,  0.0990,  7.00,   1.1
2161,359557.100,  22.330481815, 114.180778716,    5.7602,  2, 14,  0.3045,  0.3118,  1.3212,  0.0682,  0.3018,  0.0990,  7.10,   1.2
2161,359557.200,  22.330486946, 114.180774443,    6.2579,  2, 14,  0.3045,  0.3118,  1.3212,  0.0682,  0.3018,  0.0990,  7.20,   1.0
2161,359557.300,  22.330491898, 114.180770321,    4.3858,  2, 14,  0.3045,  0.3118,  1.3212,  0.0682,  0.3018,  0.0989,  7.30,   1.0
2161,359557.400,  22.330480159, 114.180764944,    4.8008,  2, 14,  0.3045,  0.3118,  1.3212,  0.0682,  0.3018,  0.0989,  7.40,   1.7
2161,359557.500,  22.330477618, 114.180771956,    4.3251,  2, 14,  0.3045,  0.3118,  1.3211,  0.0682,  0.3018,  0.0989,  7.50,   1.0
2161,359557.600,  22.330485106, 114.180763962,    3.4005,  2, 14,  0.3045,  0.3118,  1.3211,  0.0682,  0.3018,  0.0989,  7.60,   1.0
2161,359557.700,  22.330488049, 114.180768949,    2.4763,  2, 14,  0.3045,  0.3118,  1.3211,  0.0682,  0.3018,  0.0988,  7.70,   1.0
2161,359557.800,  22.330490204, 114.180769972,    2.0853,  2, 14,  0.3045,  0.3118,  1.3211,  0.0682,  0.3018,  0.0988,  7.80,   1.0
2161,359557.900,  22.330491453, 114.180768147,    0.2156,  2, 14,  0.3045,  0.3118,  1.3211,  0.0682,  0.3018,  0.0988,  7.90,   1.1
2161,359558.000,  22.330492888, 114.180764828,   -2.6052,  2, 14,  0.3045,  0.3118,  1.3210,  0.0682,  0.3018,  0.0988,  8.00,   1.0
2161,359558.100,  22.330491645, 114.180768185,   -3.7854,  2, 14,  0.3045,  0.3118,  1.3210,  0.0682,  0.3018,  0.0987,  8.10,   2.3
2161,359558.200,  22.330490755, 114.180769707,   -3.3343,  2, 14,  0.3045,  0.3118,  1.3210,  0.0682,  0.3018,  0.0987,  8.20,   1.4
2161,359558.300,  22.330490858, 114.180770603,   -2.9773,  2, 14,  0.3045,  0.3118,  1.3210,  0.0682,  0.3018,  0.0987,  8.30,   1.5
2161,359558.400,  22.330494213, 114.180774461,   -2.2470,  2, 14,  0.3045,  0.3118,  1.3210,  0.0682,  0.3018,  0.0987,  8.40,   1.6
2161,359558.500,  22.330492423, 114.180771769,   -3.7042,  2, 14,  0.3045,  0.3118,  1.3209,  0.0682,  0.3018,  0.0987,  8.50,   1.5
2161,359558.600,  22.330487341, 114.180766281,   -2.3478,  1, 14,  0.0189,  0.0176,  0.0904, -0.0045,  0.0114,  0.0199,-21.40,   3.2
2161,359558.700,  22.330487694, 114.180768268,   -2.4417,  2, 14,  0.3045,  0.3118,  1.3209,  0.0681,  0.3018,  0.0986,  8.70,   1.0
2161,359558.800,  22.330488360, 114.180773924,   -2.4242,  2, 14,  0.3045,  0.3118,  1.3209,  0.0681,  0.3018,  0.0986,  8.80,   1.1
2161,359558.900,  22.330487332, 114.180773488,   -1.2816,  2, 14,  0.3045,  0.3118,  1.3209,  0.0681,  0.3018,  0.0986,  8.90,   1.3
2161,359559.000,  22.330488299, 114.180774063,   -0.7679,  2, 14,  0.3045,  0.3118,  1.3208,  0.0681,  0.3018,  0.0985,  9.00,   1.3
2161,359559.100,  22.330487117, 114.180774842,   -0.1201,  2, 14,  0.3045,  0.3118,  1.3208,  0.0681,  0.3018,  0.0985,  9.10,   1.3
2161,359559.200,  22.330489350, 114.180772072,    1.8541,  2, 14,  0.3045,  0.3118,  1.3208,  0.0681,  0.3018,  0.0985,  9.20,   1.3
2161,359559.300,  22.330492157, 114.180778710,    1.1748,  2, 14,  0.3045,  0.3118,  1.3208,  0.0681,  0.3018,  0.0985,  9.30,   1.1
2161,359559.400,  22.330493024, 114.180773802,    1.4687,  2, 14,  0.3045,  0.3118,  1.3208,  0.0681,  0.3018,  0.0984,  9.40,   1.1
2161,359559.500,  22.330493394, 114.180771782,    2.8387,  2, 14,  0.3045,  0.3118,  1.3207,  0.0681,  0.3018,  0.0984,  9.50,   1.1
2161,359559.600,  22.330493678, 114.180776553,    1.6451,  2, 14,  0.3045,  0.3118,  1.3207,  0.0681,  0.3018,  0.0984,  9.60,   1.1
2161,359559.700,  22.330499335, 114.180773484,    1.1936,  2, 14,  0.3045,  0.3118,  1.3207,  0.0681,  0.3018,  0.0984,  9.70,   1.0
2161,359559.800,  22.330507229, 114.180772394,   -1.2166,  2, 14,  0.3045,  0.3118,  1.3207,  0.0681,  0.3018,  0.0983,  9.80,   1.4
2161,359559.900,  22.330508730, 114.180775760,   -1.6189,  2, 14,  0.3045,  0.3118,  1.3207,  0.0681,  0.3018,  0.0983,  9.90,   1.9
2161,359560.000,  22.330507657, 114.180774646,   -1.0815,  2, 14,  0.3045,  0.3118,  1.3206,  0.0681,  0.3018,  0.0983, 10.00,   1.8
2161,359560.100,  22.330508706, 114.180779341,   -0.5691,  2, 14,  0.3045,  0.3118,  1.3206,  0.0681,  0.3018,  0.0983, 10.10,   1.4
2161,359560.200,  22.330504484, 114.180780131,    0.5613,  2, 14,  0.3045,  0.3118,  1.3206,  0.0680,  0.3018,  0.0982, 10.20,   1.0
2161,359560.300,  22.330507310, 114.180779787,    0.2806,  2, 14,  0.3045,  0.3118,  1.3206,  0.0680,  0.3018,  0.0982, 10.30,   1.0
2161,359560.400,  22.330509028, 114.180783589,    1.9112,  2, 14,  0.3045,  0.3118,  1.3206,  0.0680,  0.3018,  0.0982, 10.40,   1.1
2161,359560.500,  22.330503072, 114.180777740,    0.4460,  2, 14,  0.3045,  0.3118,  1.3205,  0.0680,  0.3018,  0.0982, 10.50,   1.4
2161,359560.600,  22.330499475, 114.180770521,    0.2601,  2, 14,  0.3045,  0.3118,  1.3205,  0.0680,  0.3018,  0.0982, 10.60,   1.2
2161,359560.700,  22.330501828, 114.180767216,    0.2324,  2, 14,  0.3045,  0.3118,  1.3205,  0.0680,  0.3018,  0.0981, 10.70,   1.1
2161,359560.800,  22.330508846, 114.180771270,    0.6218,  2, 14,  0.3045,  0.3118,  1.3205,  0.0680,  0.3018,  0.0981, 10.80,   1.0
2161,359560.900,  22.330513187, 114.180764517,    0.7331,  2, 14,  0.3045,  0.3118,  1.3205,  0.0680,  0.3018,  0.0981, 10.90,   1.2
2161,359561.000,  22.330503796, 114.180764836,    0.5251,  2, 14,  0.3045,  0.3118,  1.3204,  0.0680,  0.3018,  0.0981, 11.00,   1.1
2161,359561.100,  22.330497836, 114.180765919,    1.2274,  2, 14,  0.3045,  0.3118,  1.3204,  0.0680,  0.3018,  0.0980, 11.10,   1.5
2161,359561.200,  22.330506482, 114.180764534,   -0.5940,  2, 14,  0.3045,  0.3118,  1.3204,  0.0680,  0.3018,  0.0980, 11.20,   1.0
2161,359561.300,  22.330501804, 114.180763996,    2.4919,  2, 14,  0.3045,  0.3118,  1.3204,  0.0680,  0.3018,  0.0980, 11.30,   1.4
2161,359561.400,  22.330504849, 114.180760593,    3.2762,  2, 14,  0.3045,  0.3118,  1.3204,  0.0680,  0.3018,  0.0980, 11.40,   1.6
2161,359561.500,  22.330513909, 114.180764159,    2.5844,  2, 14,  0.3045,  0.3118,  1.3203,  0.0680,  0.3018,  0.0979, 11.50,   1.1
2161,359561.600,  22.330507951, 114.180761327,    0.7170,  2, 14,  0.3045,  0.3118,  1.3203,  0.0680,  0.3018,  0.0979, 11.60,   1.2
2161,359561.700,  22.330505859, 114.180760258,   -0.8332,  2, 14,  0.3045,  0.3118,  1.3203,  0.0679,  0.3018,  0.0979, 11.70,   1.2
2161,359561.800,  22.330507497, 114.180766397,   -1.9405,  2, 14,  0.3045,  0.3118,  1.3203,  0.0679,  0.3018,  0.0979, 11.80,   1.0
2161,359561.900,  22.330505482, 114.180760977,   -0.1675,  2, 14,  0.3045,  0.3118,  1.3203,  0.0679,  0.3018,  0.0978, 11.90,   1.2
2161,359562.000,  22.330507157, 114.180765163,   -1.1137,  2, 14,  0.3045,  0.3118,  1.3203,  0.0679,  0.3018,  0.0978, 12.00,   1.2
2161,359562.100,  22.330501639, 114.180766676,   -0.3600,  2, 14,  0.3045,  0.3118,  1.3202,  0.0679,  0.3018,  0.0978, 12.10,   1.0
2161,359562.200,  22.330498312, 114.180767224,   -0.2297,  2, 14,  0.3045,  0.3118,  1.3202,  0.0679,  0.3018,  0.0978, 12.20,   1.0
2161,359562.300,  22.330495894, 114.180770149,   -1.0702,  2, 14,  0.3045,  0.3118,  1.3202,  0.0679,  0.3018,  0.0977, 12.30,   1.2
2161,359562.400,  22.330496868, 114.180774817,   -0.3143,  2, 14,  0.3045,  0.3118,  1.3202,  0.0679,  0.3018,  0.0977, 12.40,   1.2
2161,359562.500,  22.330496170, 114.180780692,    0.2903,  2, 14,  0.3045,  0.3118,  1.3202,  0.0679,  0.3018,  0.0977, 12.50,   1.1
2161,359562.600,  22.330495605, 114.180781339,   -0.6509,  2, 14,  0.3045,  0.3118,  1.3201,  0.0679,  0.3018,  0.0977, 12.60,   1.0
2161,359562.700,  22.330486674, 114.180778562,    1.8593,  2, 14,  0.3045,  0.3118,  1.3201,  0.0679,  0.3018,  0.0977, 12.70,   1.2
2161,359562.800,  22.330491669, 114.180779938,    0.3436,  2, 14,  0.3045,  0.3118,  1.3201,  0.0679,  0.3018,  0.0976, 12.80,   1.3
2161,359562.900,  22.330489401, 114.180780645,    0.4776,  2, 14,  0.3045,  0.3118,  1.3201,  0.0679,  0.3018,  0.0976, 12.90,   1.3
2161,359563.000,  22.330492330, 114.180783751,    0.6925,  2, 14,  0.3045,  0.3118,  1.3201,  0.0679,  0.3018,  0.0976, 13.00,   1.1
2161,359563.100,  22.330495391, 114.180786566,    1.9899,  2, 14,  0.3045,  0.3118,  1.3200,  0.0679,  0.3018,  0.0976, 13.10,   1.0
2161,359563.200,  22.330488844, 114.180790556,    2.2321,  2, 14,  0.3045,  0.3118,  1.3200,  0.0678,  0.3018,  0.0975, 13.20,   1.1
2161,359563.300,  22.330490702, 114.180788773,    3.3037,  2, 14,  0.3045,  0.3118,  1.3200,  0.0678,  0.3018,  0.0975, 13.30,   1.1
2161,359563.400,  22.330502395, 114.180789859,    1.8833,  2, 14,  0.3045,  0.3118,  1.3200,  0.0678,  0.3018,  0.0975, 13.40,   1.7
2161,359563.500,  22.330501794, 114.180791377,    1.7140,  2, 14,  0.3045,  0.3118,  1.3200,  0.0678,  0.3018,  0.0975, 13.50,   1.2
2161,359563.600,  22.330498967, 114.180789694,    3.6653,  2, 14,  0.3045,  0.3118,  1.3200,  0.0678,  0.3018,  0.0974, 13.60,   1.2
2161,359563.700,  22.330498029, 114.180791374,    4.5301,  2, 14,  0.3045,  0.3118,  1.3199,  0.0678,  0.3018,  0.0974, 13.70,   1.5
2161,359563.800,  22.330498259, 114.180789504,    2.5150,  2, 14,  0.3045,  0.3118,  1.3199,  0.0678,  0.3018,  0.0974, 13.80,   1.2
2161,359563.900,  22.330497065, 114.180791388,    1.4101,  2, 14,  0.3045,  0.3118,  1.3199,  0.0678,  0.3018,  0.0974, 13.90,   1.2
2161,359564.000,  22.330500384, 114.180791893,    2.5915,  2, 14,  0.3045,  0.3118,  1.3199,  0.0678,  0.3018,  0.0973, 14.00,   1.2
2161,359564.100,  22.330501051, 114.180790166,    3.1021,  2, 14,  0.3045,  0.3118,  1.3199,  0.0678,  0.3018,  0.0973, 14.10,   1.3
2161,359564.200,  22.330501419, 114.180792619,    1.4250,  2, 14,  0.3045,  0.3118,  1.3199,  0.0678,  0.3018,  0.0973, 14.20,   1.5
2161,359564.300,  22.330499233, 114.180793051,    2.2747,  2, 14,  0.3045,  0.3118,  1.3198,  0.0678,  0.3018,  0.0973, 14.30,   1.7
2161,359564.400,  22.330491176, 114.180791748,    5.4536,  2, 14,  0.3045,  0.3118,  1.3198,  0.0678,  0.3019,  0.0972, 14.40,   1.1
2161,359564.500,  22.330492670, 114.180791863,    7.4432,  2, 14,  0.3045,  0.3118,  1.3198,  0.0678,  0.3019,  0.0972, 14.50,   1.4
2161,359564.600,  22.330491810, 114.180790825,    7.5594,  2, 14,  0.3045,  0.3118,  1.3198,  0.0678,  0.3019,  0.0972, 14.60,   1.5
2161,359564.700,  22.330491888, 114.180792356,    8.7534,  2, 14,  0.3045,  0.3118,  1.3198,  0.0678,  0.3019,  0.0972, 14.70,   1.5
2161,359564.800,  22.330486057, 114.180788478,    8.9697,  2, 14,  0.3045,  0.3118,  1.3197,  0.0677,  0.3019,  0.0972, 14.80,   1.3
2161,359564.900,  22.330485448, 114.180790105,   12.1787,  2, 14,  0.3045,  0.3118,  1.3197,  0.0677,  0.3019,  0.0971, 14.90,   1.3
2161,359565.000,  22.330485747, 114.180788997,   10.1885,  2, 14,  0.3045,  0.3118,  1.3197,  0.0677,  0.3019,  0.0971, 15.00,   1.2
2161,359565.100,  22.330490210, 114.180789131,    9.5855,  2, 14,  0.3045,  0.3118,  1.3197,  0.0677,  0.3019,  0.0971, 15.10,   1.0
2161,359565.200,  22.330488337, 114.180786992,   10.3983,  2, 14,  0.3045,  0.3118,  1.3197,  0.0677,  0.3019,  0.0971, 15.20,   1.5
2161,359565.300,  22.330490964, 114.180787805,   10.4430,  2, 14,  0.3045,  0.3118,  1.3197,  0.0677,  0.3019,  0.0970, 15.30,   1.1
2161,359565.400,  22.330494605, 114.180787905,   11.4348,  2, 14,  0.3045,  0.3118,  1.3196,  0.0677,  0.3019,  0.0970, 15.40,   1.1
2161,359565.500,  22.330497761, 114.180785495,   12.9859,  2, 14,  0.3045,  0.3118,  1.3196,  0.0677,  0.3019,  0.0970, 15.50,   1.3
2161,359565.600,  22.330494672, 114.180789106,   16.4468,  2, 14,  0.3045,  0.3118,  1.3196,  0.0677,  0.3019,  0.0970, 15.60,   1.7
2161,359565.700,  22.330493589, 114.180786349,   16.7570,  2, 14,  0.3045,  0.3118,  1.3196,  0.0677,  0.3019,  0.0969, 15.70,   1.5
2161,359565.800,  22.330490089, 114.180784572,   16.0847,  2, 14,  0.3045,  0.3118,  1.3196,  0.0677,  0.3019,  0.0969, 15.80,   1.2
2161,359565.900,  22.330486010, 114.180785882,   15.1909,  2, 14,  0.3045,  0.3118,  1.3196,  0.0677,  0.3019,  0.0969, 15.90,   1.1
2161,359566.000,  22.330481326, 114.180790038,   14.3770,  2, 14,  0.3045,  0.3118,  1.3195,  0.0677,  0.3019,  0.0969, 16.00,   1.1
2161,359566.100,  22.330473871, 114.180790663,   15.3416,  2, 14,  0.3045,  0.3118,  1.3195,  0.0677,  0.3019,  0.0968, 16.10,   1.0
2161,359566.200,  22.330474280, 114.180791537,   16.4653,  2, 14,  0.3045,  0.3118,  1.3195,  0.0677,  0.3019,  0.0968, 16.20,   1.0
2161,359566.300,  22.330474217, 114.180786679,   19.4166,  2, 14,  0.3045,  0.3118,  1.3195,  0.0676,  0.3019,  0.0968, 16.30,   1.3
2161,359566.400,  22.330478945, 114.180783061,   19.5916,  2, 14,  0.3045,  0.3119,  1.3195,  0.0676,  0.3019,  0.0968, 16.40,   1.2
2161,359566.500,  22.330472723, 114.180783765,   23.3711,  2, 14,  0.3045,  0.3119,  1.3195,  0.0676,  0.3019,  0.0967, 16.50,   1.4
2161,359566.600,  22.330467938, 114.180780746,   27.3320,  2, 14,  0.3045,  0.3119,  1.3194,  0.0676,  0.3019,  0.0967, 16.60,   1.4
2161,359566.700,  22.330468282, 114.180782377,   27.6774,  2, 14,  0.3045,  0.3119,  1.3194,  0.0676,  0.3019,  0.0967, 16.70,   1.1
2161,359566.800,  22.330470395, 114.180784166,   30.5366,  2, 13,  0.3339,  0.3126,  1.3630,  0.0872,  0.2891, -0.1936, 16.80,   1.2
2161,359566.900,  22.330457847, 114.180806784,   33.5868,  2, 12,  0.3456,  0.3546,  1.3810, -0.0856,  0.3472, -0.2391, 16.90,   1.2
2161,359567.000,  22.330469127, 114.180779080,   27.9974,  1, 13,  0.0155,  0.0158,  0.0591, -0.0050,  0.0150, -0.0095, 17.00,   4.4
2161,359567.100,  22.330471463, 114.180791182,   36.4254,  2, 12,  0.3401,  0.3135,  1.8504,  0.0954,  0.3356,  0.2081, 17.10,   1.4
2161,359567.200,  22.330474350, 114.180787840,   37.1717,  2, 12,  0.3401,  0.3135,  1.8504,  0.0954,  0.3356,  0.2081, 17.20,   1.1
2161,359567.300,  22.330477216, 114.180779314,   36.0782,  2, 12,  0.3401,  0.3135,  1.8504,  0.0954,  0.3356,  0.2081, 17.30,   1.1
2161,359567.400,  22.330481469, 114.180779957,   35.8748,  2, 12,  0.3401,  0.3135,  1.8504,  0.0954,  0.3356,  0.2081, 17.40,   1.4
2161,359567.500,  22.330481901, 114.180744302,   10.1571,  2, 10,  0.3520,  0.3862,  2.2800, -0.0592,  0.6071,  0.1720, 17.50,   1.7
2161,359567.600,  22.330473472, 114.180793123,   38.9714,  2, 10,  0.3531,  0.3753,  1.8703, -0.0749,  0.2434,  0.2577, 17.60,   2.1
2161,359567.700,  22.330473299, 114.180791297,   41.2046,  2, 10,  0.3531,  0.3753,  1.8703, -0.0749,  0.2434,  0.2577, 17.70,   1.0
2161,359567.800,  22.330490456, 114.180729443,   13.4893,  2,  8,  0.4097,  0.5162,  2.3003, -0.2517,  0.5791,  0.2821, 17.80,   1.5
2161,359567.900,  22.330482268, 114.180738745,   23.6626,  2,  6,  0.4610,  0.6901,  3.3635, -0.3863,  1.0874, -0.6513, 17.90,   1.1
2161,359568.000,  22.330481251, 114.180747158,   21.9112,  2,  6,  0.4610,  0.6901,  3.3635, -0.3863,  1.0873, -0.6512, 18.00,   1.2
2161,359568.100,  22.330478859, 114.180724142,   25.9507,  1,  5,  0.0248,  0.0443,  0.1629, -0.0217,  0.0488, -0.0422, 18.10,  35.5
2161,359568.200,  22.330478946, 114.180724959,   25.8902,  1,  5,  0.0169,  0.0302,  0.1127, -0.0147,  0.0335, -0.0285,-11.80,   3.5
2161,359568.300,  22.330476702, 114.180726826,   26.1224,  1,  5,  0.0251,  0.0447,  0.1646, -0.0220,  0.0493, -0.0427, 18.30,   4.3
2161,359568.400,  22.330475965, 114.180728690,   25.9941,  2,  5,  0.4612,  0.8197,  3.4333, -0.3769,  0.9375, -0.6594, 18.40,   1.7
2161,359568.500,  22.330475929, 114.180730010,   24.8897,  2,  6,  0.4371,  0.8183,  2.6107, -0.3863,  0.9934, -0.3270, 18.50,   2.1
2161,359568.600,  22.330475956, 114.180731967,   21.7560,  1,  6,  0.0255,  0.0454,  0.1669, -0.0223,  0.0501, -0.0433, 18.60,   3.6
2161,359568.700,  22.330475396, 114.180734374,   21.8706,  1,  6,  0.0256,  0.0456,  0.1677, -0.0224,  0.0504, -0.0435, 18.70,   6.0
2161,359568.800,  22.330474731, 114.180736887,   22.1393,  1,  6,  0.0162,  0.0289,  0.1081, -0.0141,  0.0321, -0.0272,-11.20,   8.6
2161,359568.900,  22.330474087, 114.180738300,   20.0522,  2,  6,  0.4371,  0.8183,  2.6107, -0.3863,  0.9934, -0.3269, 18.90,   1.0
2161,359569.000,  22.330473190, 114.180739529,   17.8712,  1,  6,  0.0260,  0.0463,  0.1701, -0.0228,  0.0511, -0.0442, 19.00,  16.0
2161,359569.100,  22.330472184, 114.180741654,   19.0702,  2,  6,  0.4371,  0.8183,  2.6108, -0.3863,  0.9934, -0.3268, 19.10,   1.6
2161,359569.200,  22.330470640, 114.180744306,   19.3329,  1,  6,  0.0157,  0.0280,  0.1051, -0.0137,  0.0311, -0.0263,-10.80,   5.1
2161,359569.300,  22.330469161, 114.180744370,   18.4020,  1,  6,  0.0264,  0.0470,  0.1726, -0.0231,  0.0518, -0.0448, 19.30,   8.0
2161,359569.400,  22.330468187, 114.180745614,   19.3145,  1,  6,  0.0155,  0.0276,  0.1036, -0.0135,  0.0307, -0.0259,-10.60,   9.3
2161,359569.500,  22.330466900, 114.180747204,   19.4714,  2,  6,  0.4372,  0.8184,  2.6108, -0.3863,  0.9934, -0.3267, 19.50,   1.4
2161,359569.600,  22.330463990, 114.180746450,   21.6893,  1,  6,  0.5261,  0.7907,  2.1614, -0.6444,  1.3050, -1.0649, 19.60,   5.3
2161,359569.700,  22.330464421, 114.180750505,   19.4755,  2,  6,  0.4372,  0.8184,  2.6109, -0.3863,  0.9935, -0.3267, 19.70,   1.0
2161,359569.800,  22.330462872, 114.180750312,   19.7914,  1,  6,  0.5261,  0.7908,  2.1614, -0.6444,  1.3051, -1.0649, 19.80, 120.7
2161,359569.900,  22.330463967, 114.180754095,   18.0579,  1,  6,  0.5258,  0.7896,  2.1581, -0.6441,  1.3047, -1.0647,-10.10,   5.7
2161,359570.000,  22.330462240, 114.180754578,   17.3374,  1,  6,  0.5261,  0.7908,  2.1615, -0.6445,  1.3051, -1.0649, 20.00,   3.7
2161,359570.100,  22.330461321, 114.180753713,   17.6179,  2,  6,  0.4372,  0.8184,  2.6110, -0.3863,  0.9935, -0.3266, 20.10,   2.5
2161,359570.200,  22.330460803, 114.180755265,   18.5714,  1,  6,  0.5258,  0.7897,  2.1580, -0.6442,  1.3047, -1.0647, -9.80,   4.1
2161,359570.300,  22.330461775, 114.180762988,   15.6818,  2,  9,  0.4187,  0.5601,  2.1611, -0.3420,  0.6267,  0.2536, 20.30,   1.4
2161,359570.400,  22.330463097, 114.180754654,   12.5794,  1,  9,  0.4291,  0.6447,  1.7628, -0.5252,  1.0630, -0.8677, 20.40,   7.0
2161,359570.500,  22.330457891, 114.180773929,   17.9555,  1,  9,  0.4291,  0.6447,  1.7628, -0.5252,  1.0630, -0.8677, 20.50,   9.2
2161,359570.600,  22.330454676, 114.180766453,   19.8999,  1,  9,  0.4285,  0.6436,  1.7589, -0.5250,  1.0631, -0.8676, -9.40,   3.4
2161,359570.700,  22.330453183, 114.180771807,   18.7322,  1,  9,  0.3032,  0.4553,  1.2445, -0.3713,  0.7519, -0.6136, 20.70,  15.6
2161,359570.800,  22.330456329, 114.180778303,   14.2648,  2,  9,  0.4187,  0.5601,  2.1613, -0.3420,  0.6268,  0.2537, 20.80,   2.4
2161,359570.900,  22.330457611, 114.180774376,   12.2486,  1,  9,  0.4285,  0.6436,  1.7588, -0.5250,  1.0632, -0.8676, -9.10,   4.6
2161,359571.000,  22.330458142, 114.180762014,    9.1935,  1,  9,  0.4285,  0.6436,  1.7587, -0.5250,  1.0632, -0.8676, -9.00,  13.0
2161,359571.100,  22.330459068, 114.180778222,   18.5774,  1, 10,  0.3826,  0.5745,  1.5696, -0.4686,  0.9488, -0.7743, -8.90,   6.0
2161,359571.200,  22.330454231, 114.180755364,   11.1308,  1, 10,  0.2707,  0.4065,  1.1106, -0.3315,  0.6710, -0.5477, 21.20,  10.1
2161,359571.300,  22.330452744, 114.180755718,    8.3748,  1, 10,  0.2707,  0.4065,  1.1106, -0.3315,  0.6710, -0.5477, 21.30,  17.8
2161,359571.400,  22.330452506, 114.180766871,   14.9774,  1, 10,  0.3834,  0.5759,  1.5734, -0.4690,  0.9482, -0.7743, 21.40,   6.1
2161,359571.500,  22.330452014, 114.180768531,   20.8020,  1, 10,  0.3826,  0.5745,  1.5695, -0.4686,  0.9488, -0.7743, -8.50,  13.9
2161,359571.600,  22.330449966, 114.180764404,   19.6203,  1, 10,  0.2707,  0.4065,  1.1105, -0.3315,  0.6710, -0.5477, 21.60,   7.5
2161,359571.700,  22.330449947, 114.180772033,   21.3705,  1, 10,  0.3825,  0.5745,  1.5694, -0.4686,  0.9488, -0.7743, -8.30,   4.5
2161,359571.800,  22.330447631, 114.180770763,   20.2569,  2, 10,  0.4136,  0.5301,  1.6137, -0.3590,  0.3645, -0.1737, 21.80,   2.2
2161,359571.900,  22.330447338, 114.180770349,   17.7920,  2,  9,  0.4223,  0.5324,  1.8350, -0.3532,  0.3006, -0.3234, 21.90,   1.7
2161,359572.000,  22.330444405, 114.180769975,   20.0252,  2,  9,  0.4223,  0.5324,  1.8350, -0.3532,  0.3006, -0.3234, 22.00,   2.0
2161,359572.100,  22.330445253, 114.180759116,   12.6352,  1, 10,  0.3828,  0.5749,  1.5704, -0.4689,  0.9495, -0.7748, -7.90,  40.6
2161,359572.200,  22.330444460, 114.180768512,   17.7754,  2, 10,  0.4115,  0.5308,  1.7338, -0.3477,  0.2567, -0.2180, 22.20,   1.8
2161,359572.300,  22.330449081, 114.180766719,   15.5276,  1, 10,  0.2709,  0.4068,  1.1113, -0.3317,  0.6715, -0.5481, 22.30,  79.2
2161,359572.400,  22.330440045, 114.180755280,   22.5498,  2, 10,  0.5239,  0.7777,  1.6296, -0.5604, -0.4133,  0.4096, 22.40,   1.5
2161,359572.500,  22.330443914, 114.180750228,   15.9925,  1,  9,  0.4168,  0.6264,  1.7081, -0.5100,  1.0307, -0.8414, 22.50,   4.2
2161,359572.600,  22.330442708, 114.180746895,   14.6710,  1,  9,  0.4168,  0.6265,  1.7081, -0.5100,  1.0307, -0.8414, 22.60,   5.6
2161,359572.700,  22.330433306, 114.180760430,   17.2340,  2,  9,  0.5250,  0.8137,  1.8916, -0.5674, -0.6329,  0.4461, 22.70,   1.1
2161,359572.800,  22.330428286, 114.180760940,   21.3237,  1,  9,  0.4156,  0.6243,  1.7045, -0.5092,  1.0310, -0.8412, -7.20,  12.9
2161,359572.900,  22.330433043, 114.180752490,   19.7899,  2,  9,  0.5250,  0.8137,  1.8915, -0.5674, -0.6329,  0.4462, 22.90,   2.0
2161,359573.000,  22.330432366, 114.180746393,   16.8326,  1,  9,  0.2941,  0.4419,  1.2060, -0.3603,  0.7293, -0.5951, 23.00,   7.8
2161,359573.100,  22.330434403, 114.180758045,   20.2412,  1,  8,  0.5248,  0.7872,  2.1504, -0.6420,  1.2980, -1.0604, 23.10,  10.7
2161,359573.200,  22.330432418, 114.180758507,   17.6985,  1,  8,  0.3702,  0.5559,  1.5179, -0.4535,  0.9181, -0.7492, 23.20,   4.5
2161,359573.300,  22.330435176, 114.180743820,   16.3945,  1,  8,  0.5231,  0.7857,  2.1451, -0.6409,  1.2978, -1.0589, -6.70,  16.5
2161,359573.400,  22.330435913, 114.180737837,   16.8928,  2,  8,  0.6779,  0.8269,  2.3802, -0.6206, -0.4333, -0.6486, 23.40,   1.7
2161,359573.500,  22.330432893, 114.180745032,   15.6109,  1,  8,  0.5230,  0.7857,  2.1450, -0.6409,  1.2977, -1.0589, -6.50,   7.4
2161,359573.600,  22.330437004, 114.180739890,   19.1949,  1,  8,  0.3702,  0.5559,  1.5178, -0.4535,  0.9181, -0.7492, 23.60,  10.0
2161,359573.700,  22.330444780, 114.180729007,   19.0281,  1,  8,  0.5249,  0.7874,  2.1504, -0.6421,  1.2980, -1.0603, 23.70, 105.6
2161,359573.800,  22.330440429, 114.180740880,   23.6015,  1,  8,  0.5249,  0.7874,  2.1504, -0.6421,  1.2980, -1.0603, 23.80,   5.6
2161,359573.900,  22.330439417, 114.180732273,   21.8653,  1,  9,  0.4958,  0.7448,  2.0329, -0.6075,  1.2300, -1.0036, -6.10,  10.2
2161,359574.000,  22.330426613, 114.180742562,   17.7741,  1,  9,  0.3509,  0.5270,  1.4385, -0.4299,  0.8702, -0.7101, 24.00,   3.5
2161,359574.100,  22.330430151, 114.180734260,   19.6684,  1,  9,  0.4957,  0.7448,  2.0328, -0.6075,  1.2300, -1.0036, -5.90,  24.6
2161,359574.200,  22.330432636, 114.180730854,   18.2333,  1,  9,  0.4957,  0.7448,  2.0328, -0.6075,  1.2300, -1.0036, -5.80, 178.5
2161,359574.300,  22.330382746, 114.180775800,   21.8349,  2, 10,  0.4356,  0.6063,  1.9483, -0.3119, -0.6949, -0.1997, 24.30,   1.7
2161,359574.400,  22.330378681, 114.180778490,   19.7969,  1, 10,  0.2338,  0.3512,  0.9588, -0.2864,  0.5796, -0.4730, 24.40,  16.1
2161,359574.500,  22.330385423, 114.180771869,   21.3461,  1, 10,  0.2338,  0.3512,  0.9588, -0.2864,  0.5796, -0.4730, 24.50,   4.9
2161,359574.600,  22.330376476, 114.180793116,   33.7165,  1,  8,  1.0795,  1.6210,  4.4234, -1.3224,  2.6760, -2.1841, 24.60, 150.7
2161,359574.700,  22.330373366, 114.180793074,   29.7678,  1,  8,  0.7619,  1.1448,  3.1242, -0.9339,  1.8910, -1.5427, 24.70,  25.0
2161,359574.800,  22.330412746, 114.180739871,   18.1154,  2, 10,  0.6689,  0.7994,  1.9156, -0.6038, -0.4851, -0.5716, 24.80,   2.0
2161,359574.900,  22.330416050, 114.180727033,   19.8591,  1, 10,  0.4340,  0.6507,  1.7747, -0.5303,  1.0703, -0.8749, 24.90,  14.8
2161,359575.000,  22.330409805, 114.180732375,   16.8041,  2, 10,  0.6689,  0.7994,  1.9156, -0.6038, -0.4850, -0.5716, 25.00,   1.4
2161,359575.100,  22.330419285, 114.180726751,   17.1547,  1, 10,  0.4316,  0.6485,  1.7695, -0.5290,  1.0708, -0.8736, -4.90,   3.2
2161,359575.200,  22.330406984, 114.180733678,   20.2699,  1, 10,  0.4316,  0.6485,  1.7695, -0.5290,  1.0709, -0.8736, -4.80,   5.8
2161,359575.300,  22.330408088, 114.180731030,   19.8876,  1, 10,  0.4316,  0.6485,  1.7694, -0.5290,  1.0709, -0.8736, -4.70,   9.2
2161,359575.400,  22.330383433, 114.180770630,   25.7628,  2,  9,  0.8775,  1.0689,  2.4528, -0.8761,  0.9229, -1.0939, 25.40,   1.7
2161,359575.500,  22.330387063, 114.180759466,   22.2146,  1,  9,  0.6800,  1.0219,  2.7882, -0.8336,  1.6878, -1.3768, -4.50,  10.4
2161,359575.600,  22.330386498, 114.180755321,   24.2828,  2, 10,  0.5220,  0.6793,  2.3010, -0.4306,  0.3892, -0.7734, 25.60,   2.7
2161,359575.700,  22.330357450, 114.180781113,   26.4030,  2, 11,  0.4069,  0.5979,  1.4634, -0.2828, -0.6488, -0.1327, 25.70,   1.5
2161,359575.800,  22.330360155, 114.180772509,   23.4136,  2, 11,  0.4069,  0.5979,  1.4634, -0.2828, -0.6488, -0.1327, 25.80,   1.2
2161,359575.900,  22.330357810, 114.180771877,   23.2887,  1, 12,  0.1639,  0.2463,  0.6722, -0.2008,  0.4061, -0.3314, 25.90,  16.5
2161,359576.000,  22.330362724, 114.180758924,   26.1775,  1, 12,  0.1639,  0.2463,  0.6721, -0.2008,  0.4061, -0.3314, 26.00,  82.7
2161,359576.100,  22.330363853, 114.180762359,   23.4607,  1, 12,  0.1639,  0.2463,  0.6721, -0.2008,  0.4061, -0.3314, 26.10,  39.9
2161,359576.200,  22.330361609, 114.180763267,   24.3539,  1, 12,  0.2316,  0.3481,  0.9495, -0.2838,  0.5743, -0.4685, -3.80,   4.2
2161,359576.300,  22.330356461, 114.180770254,   21.1884,  1, 12,  0.2338,  0.3510,  0.9579, -0.2842,  0.5709, -0.4676, 26.30,  42.4
2161,359576.400,  22.330354890, 114.180775873,   17.7075,  2, 12,  0.3574,  0.5427,  1.4625, -0.1765, -0.6583, -0.0892, 26.40,   1.7
2161,359576.500,  22.330349041, 114.180783621,   11.7145,  2, 12,  0.3574,  0.5427,  1.4625, -0.1765, -0.6583, -0.0893, 26.50,   1.3
2161,359576.600,  22.330352218, 114.180769915,   13.5027,  2, 14,  0.3504,  0.4125,  1.3757, -0.1043, -0.5461, -0.2063, 26.60,   2.5
2161,359576.700,  22.330355137, 114.180762779,   15.3568,  2, 13,  0.3645,  0.4126,  1.7793, -0.0983, -0.5585, -0.3944, 26.70,   1.1
2161,359576.800,  22.330352414, 114.180777596,    8.8614,  2, 14,  0.3144,  0.3893,  1.4670, -0.1867, -0.4174,  0.1732, 26.80,   1.0
2161,359576.900,  22.330347887, 114.180765287,   19.0047,  2, 15,  0.3042,  0.3289,  1.3489, -0.1353, -0.2325, -0.1258, 26.90,   2.8
2161,359577.000,  22.330343419, 114.180773305,   20.7224,  2, 15,  0.3042,  0.3289,  1.3489, -0.1353, -0.2325, -0.1258, 27.00,   1.3
2161,359577.100,  22.330336395, 114.180770049,   22.0747,  2, 15,  0.3042,  0.3289,  1.3489, -0.1353, -0.2325, -0.1258, 27.10,   1.6
2161,359577.200,  22.330338932, 114.180776244,   20.2589,  2, 15,  0.3042,  0.3289,  1.3489, -0.1353, -0.2325, -0.1258, 27.20,   1.1
2161,359577.300,  22.330347253, 114.180768123,   19.9289,  2, 15,  0.3042,  0.3289,  1.3489, -0.1353, -0.2325, -0.1258, 27.30,   1.0
2161,359577.400,  22.330342663, 114.180763276,   20.1119,  2, 15,  0.3042,  0.3289,  1.3489, -0.1353, -0.2325, -0.1258, 27.40,   2.3
2161,359577.500,  22.330335388, 114.180769155,   21.1813,  2, 17,  0.2786,  0.3231,  1.1593, -0.1063, -0.1290, -0.2684, 27.50,   2.3
2161,359577.600,  22.330332967, 114.180764132,   19.8494,  2, 17,  0.2786,  0.3231,  1.1593, -0.1063, -0.1290, -0.2684, 27.60,   1.0
2161,359577.700,  22.330335407, 114.180762220,   16.5277,  2, 17,  0.2786,  0.3231,  1.1593, -0.1063, -0.1290, -0.2684, 27.70,   1.4
2161,359577.800,  22.330336444, 114.180768948,   17.0362,  2, 17,  0.2786,  0.3231,  1.1593, -0.1063, -0.1290, -0.2684, 27.80,   1.0
2161,359577.900,  22.330339821, 114.180764772,   18.4658,  2, 17,  0.2786,  0.3231,  1.1593, -0.1063, -0.1290, -0.2684, 27.90,   1.3
2161,359578.000,  22.330340139, 114.180767633,   20.8210,  2, 17,  0.2786,  0.3231,  1.1593, -0.1063, -0.1290, -0.2684, 28.00,   1.1
2161,359578.100,  22.330343113, 114.180765833,   17.6341,  2, 17,  0.2787,  0.3231,  1.1593, -0.1063, -0.1290, -0.2684, 28.10,   2.0
2161,359578.200,  22.330347419, 114.180758559,   20.6730,  2, 18,  0.2740,  0.3119,  0.9988, -0.0839, -0.2573, -0.2056, 28.20,   1.1
2161,359578.300,  22.330349825, 114.180760498,   18.3212,  2, 18,  0.2740,  0.3119,  0.9988, -0.0839, -0.2573, -0.2056, 28.30,   1.1
2161,359578.400,  22.330352194, 114.180761916,   14.8923,  1, 18,  0.1234,  0.1812,  0.5195, -0.1445,  0.2872, -0.2408, 28.40,   5.4
2161,359578.500,  22.330344417, 114.180769217,   14.1625,  2, 18,  0.2740,  0.3119,  0.9988, -0.0839, -0.2573, -0.2056, 28.50,   1.4
2161,359578.600,  22.330345438, 114.180764723,   16.4034,  2, 19,  0.2738,  0.2787,  0.9025, -0.0729, -0.0792, -0.2180, 28.60,   1.0
2161,359578.700,  22.330346791, 114.180771578,   18.1342,  2, 18,  0.2740,  0.3119,  0.9988, -0.0839, -0.2573, -0.2056, 28.70,   1.1
2161,359578.800,  22.330344748, 114.180763620,   20.5901,  1, 18,  0.0246,  0.0359,  0.1051, -0.0289,  0.0576, -0.0479, 28.80,   4.0
2161,359578.900,  22.330342809, 114.180767114,   21.3086,  2, 18,  0.2740,  0.3119,  0.9987, -0.0839, -0.2573, -0.2056, 28.90,   1.1
2161,359579.000,  22.330345475, 114.180766416,   18.6545,  1, 18,  0.1250,  0.1835,  0.5262, -0.1463,  0.2906, -0.2437, 29.00,   3.9
2161,359579.100,  22.330345911, 114.180772612,   16.2586,  2, 18,  0.2741,  0.3119,  0.9987, -0.0840, -0.2573, -0.2056, 29.10,   1.1
2161,359579.200,  22.330343617, 114.180771038,   17.5280,  2, 18,  0.2741,  0.3119,  0.9987, -0.0840, -0.2573, -0.2056, 29.20,   1.0
2161,359579.300,  22.330339000, 114.180770539,   17.3278,  2, 18,  0.2741,  0.3119,  0.9987, -0.0840, -0.2573, -0.2056, 29.30,   1.1
2161,359579.400,  22.330334376, 114.180773279,   16.9184,  1, 18,  0.0245,  0.0357,  0.1047, -0.0287,  0.0573, -0.0475, -0.60,   3.2
2161,359579.500,  22.330335802, 114.180768916,   17.4034,  2, 18,  0.2741,  0.3119,  0.9987, -0.0840, -0.2573, -0.2056, 29.50,   1.1
2161,359579.600,  22.330339311, 114.180763824,   17.9706,  1, 18,  0.0244,  0.0355,  0.1042, -0.0286,  0.0570, -0.0473, -0.40, 103.1
2161,359579.700,  22.330339535, 114.180763322,   16.3747,  2, 18,  0.2741,  0.3119,  0.9987, -0.0840, -0.2573, -0.2056, 29.70,   1.0
2161,359579.800,  22.330335962, 114.180766642,   16.8871,  2, 18,  0.2741,  0.3119,  0.9987, -0.0840, -0.2573, -0.2056, 29.80,   1.0
2161,359579.900,  22.330330024, 114.180767071,   13.0034,  2, 18,  0.2741,  0.3119,  0.9987, -0.0840, -0.2573, -0.2056, 29.90,   1.8
2161,359580.000,  22.330323712, 114.180769839,   11.4392,  2, 18,  0.2738,  0.3117,  0.9978, -0.0839, -0.2569, -0.2054,  0.00,   1.0
2161,359580.100,  22.330325990, 114.180771057,   10.5158,  2, 18,  0.2741,  0.3119,  0.9987, -0.0840, -0.2573, -0.2056,  0.10,   1.0
2161,359580.200,  22.330324284, 114.180772979,   10.9490,  2, 18,  0.2741,  0.3119,  0.9987, -0.0840, -0.2572, -0.2056,  0.20,   1.3
2161,359580.300,  22.330320431, 114.180777723,   10.2432,  2, 18,  0.2741,  0.3119,  0.9986, -0.0840, -0.2572, -0.2056,  0.30,   1.2
2161,359580.400,  22.330325235, 114.180776137,   10.6168,  1, 18,  0.0244,  0.0355,  0.1042, -0.0286,  0.0570, -0.0473,  0.40,   5.8
2161,359580.500,  22.330327910, 114.180771143,   10.8112,  2, 18,  0.2741,  0.3119,  0.9986, -0.0840, -0.2572, -0.2056,  0.50,   1.0
2161,359580.600,  22.330324153, 114.180775797,   12.4076,  2, 18,  0.2741,  0.3119,  0.9986, -0.0840, -0.2572, -0.2056,  0.60,   1.7
2161,359580.700,  22.330328086, 114.180771360,   11.1402,  2, 18,  0.2741,  0.3119,  0.9986, -0.0840, -0.2572, -0.2056,  0.70,   1.1
2161,359580.800,  22.330324391, 114.180771678,   11.8251,  2, 18,  0.2741,  0.3119,  0.9986, -0.0840, -0.2572, -0.2056,  0.80,   1.1
2161,359580.900,  22.330326635, 114.180773738,   10.5224,  2, 18,  0.2741,  0.3119,  0.9986, -0.0840, -0.2572, -0.2056,  0.90,   1.0
2161,359581.000,  22.330327505, 114.180772706,   10.0053,  2, 18,  0.2741,  0.3119,  0.9985, -0.0840, -0.2572, -0.2056,  1.00,   1.1
2161,359581.100,  22.330329022, 114.180774505,   14.0501,  2, 18,  0.2741,  0.3119,  0.9985, -0.0840, -0.2572, -0.2056,  1.10,   1.1
2161,359581.200,  22.330325507, 114.180779223,   13.5542,  2, 18,  0.2741,  0.3119,  0.9985, -0.0840, -0.2572, -0.2056,  1.20,   1.0
2161,359581.300,  22.330326313, 114.180782580,   12.3708,  2, 18,  0.2741,  0.3119,  0.9985, -0.0840, -0.2572, -0.2056,  1.30,   1.1
2161,359581.400,  22.330326645, 114.180778644,   13.7666,  2, 18,  0.2741,  0.3119,  0.9985, -0.0840, -0.2572, -0.2056,  1.40,   1.0
2161,359581.500,  22.330327307, 114.180776947,   10.9314,  2, 18,  0.2741,  0.3119,  0.9985, -0.0841, -0.2571, -0.2056,  1.50,   2.0
2161,359581.600,  22.330331325, 114.180772234,   12.6896,  2, 19,  0.2738,  0.2787,  0.9023, -0.0731, -0.0789, -0.2180,  1.60,   1.1
2161,359581.700,  22.330328421, 114.180775052,   14.7531,  2, 19,  0.2738,  0.2787,  0.9023, -0.0731, -0.0789, -0.2180,  1.70,   1.3
2161,359581.800,  22.330328856, 114.180777242,   14.6239,  2, 18,  0.2741,  0.3119,  0.9984, -0.0841, -0.2571, -0.2056,  1.80,   1.0
2161,359581.900,  22.330330266, 114.180780918,   14.7291,  2, 18,  0.2741,  0.3119,  0.9984, -0.0841, -0.2571, -0.2056,  1.90,   1.1
2161,359582.000,  22.330333227, 114.180773874,   15.8369,  1, 18,  0.0266,  0.0388,  0.1133, -0.0312,  0.0624, -0.0518,  2.00,  32.6
2161,359582.100,  22.330332378, 114.180770496,   16.6648,  2, 19,  0.2738,  0.2786,  0.9022, -0.0731, -0.0789, -0.2180,  2.10,   1.0
2161,359582.200,  22.330330812, 114.180770511,   14.9142,  2, 19,  0.2738,  0.2786,  0.9022, -0.0731, -0.0789, -0.2180,  2.20,   1.1
2161,359582.300,  22.330332266, 114.180770432,   14.6116,  2, 19,  0.2738,  0.2786,  0.9022, -0.0731, -0.0789, -0.2180,  2.30,   1.0
2161,359582.400,  22.330330222, 114.180773344,   15.6990,  2, 19,  0.2738,  0.2786,  0.9022, -0.0731, -0.0789, -0.2180,  2.40,   1.3
2161,359582.500,  22.330328721, 114.180773395,   14.6475,  2, 19,  0.2738,  0.2786,  0.9022, -0.0731, -0.0789, -0.2180,  2.50,   1.1
2161,359582.600,  22.330331133, 114.180774431,   15.4872,  2, 19,  0.2738,  0.2786,  0.9022, -0.0731, -0.0788, -0.2180,  2.60,   1.0
2161,359582.700,  22.330333245, 114.180774507,   15.2943,  2, 19,  0.2738,  0.2786,  0.9022, -0.0731, -0.0788, -0.2180,  2.70,   1.5
2161,359582.800,  22.330332452, 114.180774107,   14.6188,  1, 19,  0.0356,  0.0510,  0.1667, -0.0266, -0.0303, -0.0393,-27.20,   3.2
2161,359582.900,  22.330333321, 114.180773319,   15.2175,  2, 19,  0.2738,  0.2786,  0.9022, -0.0731, -0.0788, -0.2180,  2.90,   1.6
2161,359583.000,  22.330332893, 114.180770324,   15.7380,  2, 19,  0.2738,  0.2786,  0.9022, -0.0731, -0.0788, -0.2180,  3.00,   1.1
2161,359583.100,  22.330337547, 114.180768100,   15.4308,  2, 19,  0.2738,  0.2786,  0.9021, -0.0731, -0.0788, -0.2180,  3.10,   1.1
2161,359583.200,  22.330335780, 114.180770700,   16.3544,  2, 19,  0.2738,  0.2786,  0.9021, -0.0731, -0.0788, -0.2180,  3.20,   1.1
2161,359583.300,  22.330333294, 114.180770426,   15.7676,  2, 18,  0.2787,  0.2973,  1.0412, -0.1036,  0.2185, -0.2730,  3.30,   1.2
2161,359583.400,  22.330334496, 114.180772268,   16.1936,  2, 19,  0.2738,  0.2786,  0.9021, -0.0731, -0.0788, -0.2180,  3.40,   1.2
2161,359583.500,  22.330335358, 114.180770748,   15.2190,  2, 19,  0.2738,  0.2786,  0.9021, -0.0731, -0.0788, -0.2180,  3.50,   1.2
2161,359583.600,  22.330334991, 114.180771481,   15.3397,  2, 19,  0.2738,  0.2786,  0.9021, -0.0731, -0.0788, -0.2180,  3.60,   1.1
2161,359583.700,  22.330333979, 114.180773069,   15.5038,  2, 19,  0.2738,  0.2786,  0.9021, -0.0731, -0.0787, -0.2180,  3.70,   1.4
2161,359583.800,  22.330334726, 114.180773675,   14.9295,  2, 19,  0.2738,  0.2786,  0.9021, -0.0731, -0.0787, -0.2180,  3.80,   1.0
2161,359583.900,  22.330333211, 114.180774434,   13.9353,  2, 19,  0.2738,  0.2786,  0.9021, -0.0732, -0.0787, -0.2180,  3.90,   1.0
2161,359584.000,  22.330332455, 114.180774107,   14.5998,  1, 19,  0.0341,  0.0489,  0.1597, -0.0255, -0.0290, -0.0376,-26.00,   5.9
2161,359584.100,  22.330331159, 114.180772687,   13.8204,  2, 19,  0.2738,  0.2786,  0.9020, -0.0732, -0.0787, -0.2180,  4.10,   1.0
2161,359584.200,  22.330336176, 114.180771539,   14.8588,  2, 19,  0.2738,  0.2786,  0.9020, -0.0732, -0.0787, -0.2180,  4.20,   1.1
2161,359584.300,  22.330336171, 114.180776000,   12.6338,  2, 18,  0.2741,  0.3118,  0.9981, -0.0842, -0.2569, -0.2056,  4.30,   1.3
2161,359584.400,  22.330337941, 114.180770950,   12.7239,  2, 17,  0.2796,  0.3633,  1.0464, -0.1321, -0.3530, -0.1575,  4.40,   1.1
2161,359584.500,  22.330334314, 114.180773525,   12.0840,  2, 17,  0.2796,  0.3633,  1.0464, -0.1321, -0.3530, -0.1575,  4.50,   1.1
2161,359584.600,  22.330336849, 114.180772118,   12.1983,  2, 17,  0.2796,  0.3633,  1.0464, -0.1321, -0.3530, -0.1575,  4.60,   1.0
2161,359584.700,  22.330334307, 114.180771035,   11.8427,  2, 17,  0.2796,  0.3633,  1.0463, -0.1321, -0.3530, -0.1575,  4.70,   1.0
2161,359584.800,  22.330331469, 114.180775565,    9.8549,  2, 17,  0.2796,  0.3633,  1.0463, -0.1321, -0.3529, -0.1575,  4.80,   1.0
2161,359584.900,  22.330328892, 114.180778146,    8.2669,  2, 17,  0.2796,  0.3633,  1.0463, -0.1321, -0.3529, -0.1575,  4.90,   1.1
2161,359585.000,  22.330330420, 114.180775804,    9.5546,  2, 18,  0.2741,  0.3118,  0.9980, -0.0842, -0.2569, -0.2056,  5.00,   1.1
2161,359585.100,  22.330331841, 114.180773374,   11.8287,  2, 18,  0.2741,  0.3118,  0.9979, -0.0842, -0.2569, -0.2056,  5.10,   1.1
2161,359585.200,  22.330332658, 114.180771551,   12.3083,  2, 18,  0.2741,  0.3118,  0.9979, -0.0842, -0.2569, -0.2056,  5.20,   1.1
2161,359585.300,  22.330332717, 114.180765774,   13.0552,  2, 19,  0.2738,  0.2786,  0.9019, -0.0732, -0.0786, -0.2180,  5.30,   1.0
2161,359585.400,  22.330332853, 114.180764592,   13.1948,  2, 19,  0.2738,  0.2786,  0.9019, -0.0732, -0.0786, -0.2180,  5.40,   1.0
2161,359585.500,  22.330333461, 114.180763399,   13.2541,  2, 19,  0.2738,  0.2786,  0.9019, -0.0732, -0.0786, -0.2180,  5.50,   1.0
2161,359585.600,  22.330335833, 114.180763609,   12.4011,  2, 18,  0.2741,  0.3118,  0.9979, -0.0842, -0.2568, -0.2056,  5.60,   1.1
2161,359585.700,  22.330335727, 114.180765379,   13.9884,  2, 18,  0.2741,  0.3118,  0.9979, -0.0842, -0.2568, -0.2056,  5.70,   1.3
2161,359585.800,  22.330336327, 114.180764640,   15.5848,  2, 18,  0.2741,  0.3118,  0.9978, -0.0842, -0.2568, -0.2056,  5.80,   1.0
2161,359585.900,  22.330335727, 114.180763816,   15.3315,  2, 18,  0.2741,  0.3118,  0.9978, -0.0842, -0.2568, -0.2056,  5.90,   1.0
2161,359586.000,  22.330336081, 114.180763151,   16.8013,  2, 18,  0.2741,  0.3118,  0.9978, -0.0842, -0.2568, -0.2056,  6.00,   1.0
2161,359586.100,  22.330334773, 114.180767341,   16.2094,  2, 18,  0.2741,  0.3118,  0.9978, -0.0842, -0.2568, -0.2056,  6.10,   1.3
2161,359586.200,  22.330330385, 114.180768507,   18.3257,  2, 17,  0.2782,  0.3156,  1.0405, -0.0689, -0.2269, -0.1675,  6.20,   1.9
2161,359586.300,  22.330323985, 114.180766362,   15.3030,  2, 17,  0.2782,  0.3156,  1.0405, -0.0689, -0.2269, -0.1675,  6.30,   1.5
2161,359586.400,  22.330326880, 114.180762047,   16.5036,  2, 17,  0.2782,  0.3156,  1.0405, -0.0689, -0.2269, -0.1675,  6.40,   2.0
2161,359586.500,  22.330333036, 114.180765637,   14.8619,  2, 17,  0.2782,  0.3156,  1.0405, -0.0689, -0.2269, -0.1675,  6.50,   1.0
2161,359586.600,  22.330327351, 114.180767704,   13.2670,  2, 17,  0.2782,  0.3156,  1.0404, -0.0689, -0.2269, -0.1675,  6.60,   1.4
2161,359586.700,  22.330326545, 114.180767729,   12.6942,  2, 17,  0.2782,  0.3156,  1.0404, -0.0689, -0.2269, -0.1675,  6.70,   1.2
2161,359586.800,  22.330322941, 114.180767403,   14.0988,  2, 17,  0.2782,  0.3156,  1.0404, -0.0689, -0.2269, -0.1675,  6.80,   1.0
2161,359586.900,  22.330323275, 114.180769296,   17.1078,  2, 17,  0.2782,  0.3156,  1.0404, -0.0689, -0.2269, -0.1675,  6.90,   1.3
2161,359587.000,  22.330321875, 114.180770163,   15.9731,  2, 17,  0.2782,  0.3156,  1.0404, -0.0689, -0.2269, -0.1675,  7.00,   1.1
2161,359587.100,  22.330318094, 114.180769249,   16.6086,  2, 17,  0.2782,  0.3156,  1.0404, -0.0689, -0.2269, -0.1675,  7.10,   1.1
2161,359587.200,  22.330319345, 114.180769729,   15.2234,  2, 17,  0.2782,  0.3156,  1.0403, -0.0689, -0.2268, -0.1675,  7.20,   1.1
2161,359587.300,  22.330320232, 114.180772074,   14.2798,  2, 17,  0.2782,  0.3156,  1.0403, -0.0689, -0.2268, -0.1675,  7.30,   1.2
2161,359587.400,  22.330326574, 114.180772961,   12.7374,  2, 17,  0.2782,  0.3156,  1.0403, -0.0689, -0.2268, -0.1675,  7.40,   1.2
2161,359587.500,  22.330326915, 114.180771057,   12.5681,  2, 17,  0.2782,  0.3156,  1.0403, -0.0689, -0.2268, -0.1675,  7.50,   1.0
2161,359587.600,  22.330329328, 114.180770698,   12.8460,  2, 17,  0.2782,  0.3156,  1.0403, -0.0689, -0.2268, -0.1675,  7.60,   1.4
2161,359587.700,  22.330327031, 114.180775074,   15.5076,  2, 17,  0.2782,  0.3156,  1.0403, -0.0689, -0.2268, -0.1675,  7.70,   1.0
2161,359587.800,  22.330325419, 114.180777061,   15.5522,  2, 17,  0.2782,  0.3156,  1.0403, -0.0689, -0.2268, -0.1675,  7.80,   1.1
2161,359587.900,  22.330324040, 114.180771604,   15.5191,  2, 17,  0.2782,  0.3156,  1.0402, -0.0689, -0.2268, -0.1675,  7.90,   1.3
2161,359588.000,  22.330321726, 114.180769621,   15.7022,  2, 17,  0.2782,  0.3156,  1.0402, -0.0689, -0.2268, -0.1675,  8.00,   1.2
2161,359588.100,  22.330319779, 114.180768733,   18.0671,  2, 17,  0.2782,  0.3156,  1.0402, -0.0689, -0.2268, -0.1675,  8.10,   1.6
2161,359588.200,  22.330320275, 114.180765693,   18.4803,  2, 17,  0.2783,  0.3156,  1.0402, -0.0689, -0.2268, -0.1675,  8.20,   1.9
2161,359588.300,  22.330322900, 114.180765724,   16.7398,  2, 17,  0.2783,  0.3156,  1.0402, -0.0689, -0.2268, -0.1675,  8.30,   1.6
2161,359588.400,  22.330318191, 114.180764775,   17.0341,  2, 17,  0.2783,  0.3156,  1.0402, -0.0689, -0.2268, -0.1675,  8.40,   2.0
2161,359588.500,  22.330316505, 114.180765676,   18.0960,  2, 16,  0.2922,  0.3296,  1.0581,  0.0612, -0.2643, -0.2129,  8.50,   2.5
2161,359588.600,  22.330317403, 114.180772048,   18.0285,  2, 16,  0.2922,  0.3296,  1.0581,  0.0611, -0.2643, -0.2130,  8.60,   1.1
2161,359588.700,  22.330314766, 114.180765523,   19.6619,  2, 16,  0.2922,  0.3296,  1.0580,  0.0611, -0.2643, -0.2130,  8.70,   1.7
2161,359588.800,  22.330315232, 114.180761989,   19.6050,  2, 16,  0.2922,  0.3296,  1.0580,  0.0611, -0.2643, -0.2130,  8.80,   2.0
2161,359588.900,  22.330314471, 114.180762093,   19.9592,  2, 16,  0.2922,  0.3296,  1.0580,  0.0611, -0.2643, -0.2130,  8.90,   1.6
2161,359589.000,  22.330314362, 114.180765028,   18.2693,  2, 16,  0.2922,  0.3296,  1.0580,  0.0611, -0.2643, -0.2130,  9.00,   1.6
2161,359589.100,  22.330309913, 114.180763708,   18.8679,  2, 16,  0.2922,  0.3296,  1.0580,  0.0611, -0.2643, -0.2130,  9.10,   1.0
2161,359589.200,  22.330306233, 114.180754962,   20.1589,  2, 16,  0.2922,  0.3296,  1.0580,  0.0611, -0.2643, -0.2130,  9.20,   1.1
2161,359589.300,  22.330296053, 114.180759104,   20.7953,  2, 18,  0.2688,  0.3111,  1.0394, -0.0307, -0.2307, -0.1599,  9.30,   1.2
2161,359589.400,  22.330297475, 114.180758742,   21.0958,  2, 18,  0.2688,  0.3111,  1.0394, -0.0307, -0.2307, -0.1599,  9.40,   1.3
2161,359589.500,  22.330293953, 114.180757933,   22.1419,  2, 18,  0.2688,  0.3111,  1.0394, -0.0307, -0.2307, -0.1599,  9.50,   1.1
2161,359589.600,  22.330299201, 114.180756231,   21.2326,  2, 18,  0.2689,  0.3111,  1.0394, -0.0308, -0.2307, -0.1599,  9.60,   1.4
2161,359589.700,  22.330301331, 114.180751432,   21.0223,  2, 18,  0.2689,  0.3111,  1.0393, -0.0308, -0.2307, -0.1599,  9.70,   1.6
2161,359589.800,  22.330302252, 114.180753799,   19.7497,  2, 18,  0.2689,  0.3111,  1.0393, -0.0308, -0.2307, -0.1599,  9.80,   1.4
2161,359589.900,  22.330299581, 114.180747995,   20.2751,  2, 18,  0.2689,  0.3111,  1.0393, -0.0308, -0.2307, -0.1599,  9.90,   1.0
2161,359590.000,  22.330301781, 114.180744983,   17.5192,  2, 17,  0.2819,  0.3254,  0.9964, -0.0986, -0.2566, -0.1579, 10.00,   1.0
2161,359590.100,  22.330303371, 114.180743398,   18.6740,  1, 16,  0.0113,  0.0152,  0.0443, -0.0079,  0.0134, -0.0140, 10.10,   4.8
2161,359590.200,  22.330304848, 114.180741160,   16.1704,  2, 17,  0.2819,  0.3254,  0.9964, -0.0986, -0.2566, -0.1579, 10.20,   1.1
2161,359590.300,  22.330310115, 114.180741104,   14.9338,  2, 17,  0.2819,  0.3254,  0.9963, -0.0986, -0.2566, -0.1579, 10.30,   1.2
2161,359590.400,  22.330308175, 114.180738849,   15.3684,  2, 17,  0.2819,  0.3254,  0.9963, -0.0986, -0.2566, -0.1579, 10.40,   1.0
2161,359590.500,  22.330306563, 114.180742023,   16.1041,  2, 17,  0.2819,  0.3254,  0.9963, -0.0986, -0.2566, -0.1579, 10.50,   1.1
2161,359590.600,  22.330306048, 114.180742778,   15.9539,  2, 17,  0.2819,  0.3254,  0.9963, -0.0986, -0.2566, -0.1579, 10.60,   1.2
2161,359590.700,  22.330304310, 114.180736416,   17.2465,  2, 15,  0.3440,  0.3388,  1.0803, -0.0784, -0.3016, -0.3117, 10.70,   1.2
2161,359590.800,  22.330307402, 114.180733166,   16.1742,  2, 16,  0.3238,  0.3327,  1.0789,  0.0360, -0.3073, -0.3015, 10.80,   1.0
2161,359590.900,  22.330304252, 114.180737326,   15.8094,  2, 17,  0.3086,  0.3229,  1.0690,  0.0956, -0.3257, -0.2768, 10.90,   1.1
2161,359591.000,  22.330302533, 114.180732966,   17.0732,  2, 17,  0.3086,  0.3229,  1.0690,  0.0956, -0.3257, -0.2768, 11.00,   1.1
2161,359591.100,  22.330299071, 114.180725235,   18.6427,  2, 17,  0.3086,  0.3229,  1.0690,  0.0956, -0.3257, -0.2768, 11.10,   1.3
2161,359591.200,  22.330299841, 114.180726172,   17.7090,  2, 18,  0.3138,  0.2867,  0.9375,  0.0473, -0.1323, -0.2671, 11.20,   1.2
2161,359591.300,  22.330300956, 114.180724995,   18.0894,  2, 18,  0.3138,  0.2867,  0.9375,  0.0473, -0.1322, -0.2671, 11.30,   1.4
2161,359591.400,  22.330293802, 114.180721893,   17.8873,  2, 18,  0.3078,  0.2815,  0.9317,  0.0746, -0.1523, -0.2546, 11.40,   1.0
2161,359591.500,  22.330293490, 114.180720853,   17.2800,  2, 17,  0.3239,  0.2844,  0.9340,  0.0386, -0.1434, -0.2670, 11.50,   1.9
2161,359591.600,  22.330300539, 114.180718659,   16.1638,  2, 17,  0.3239,  0.2844,  0.9340,  0.0386, -0.1434, -0.2670, 11.60,   1.0
2161,359591.700,  22.330309586, 114.180715952,   15.9131,  2, 17,  0.3239,  0.2844,  0.9340,  0.0386, -0.1434, -0.2670, 11.70,   1.3
2161,359591.800,  22.330315010, 114.180714134,   15.8580,  2, 16,  0.3243,  0.3269,  1.0694,  0.0640, -0.3233, -0.2823, 11.80,   1.3
2161,359591.900,  22.330308200, 114.180710996,   17.2656,  2, 15,  0.3440,  0.3388,  1.0802, -0.0784, -0.3016, -0.3117, 11.90,   1.0
2161,359592.000,  22.330309597, 114.180709842,   17.4428,  2, 16,  0.3238,  0.3327,  1.0788,  0.0360, -0.3073, -0.3015, 12.00,   1.0
2161,359592.100,  22.330309500, 114.180704747,   16.2397,  2, 15,  0.3440,  0.3388,  1.0802, -0.0784, -0.3016, -0.3117, 12.10,   1.1
2161,359592.200,  22.330305488, 114.180703562,   16.7822,  2, 15,  0.3440,  0.3388,  1.0802, -0.0784, -0.3016, -0.3117, 12.20,   1.1
2161,359592.300,  22.330304442, 114.180701011,   15.8023,  2, 16,  0.3402,  0.3351,  1.0558, -0.0932, -0.3199, -0.3299, 12.30,   1.2
2161,359592.400,  22.330296309, 114.180700195,   17.5552,  2, 15,  0.3568,  0.3486,  1.1132, -0.1379, -0.2616, -0.3830, 12.40,   1.1
2161,359592.500,  22.330292702, 114.180698640,   19.2400,  2, 15,  0.3568,  0.3486,  1.1132, -0.1379, -0.2616, -0.3830, 12.50,   1.5
2161,359592.600,  22.330291166, 114.180699960,   18.2120,  2, 14,  0.3919,  0.3536,  1.2262, -0.1585, -0.3965, -0.2020, 12.60,   1.0
2161,359592.700,  22.330281528, 114.180700326,   19.8527,  2, 13,  0.3952,  0.3594,  1.2597, -0.1477, -0.3723, -0.1614, 12.70,   2.0
2161,359592.800,  22.330289322, 114.180692227,   19.9619,  1, 13,  0.1065,  0.0504,  0.2684, -0.0674,  0.1003, -0.1610,-17.20,   3.3
2161,359592.900,  22.330291588, 114.180696096,   16.7457,  2, 12,  0.5198,  0.3645,  1.2317, -0.0739, -0.4392, -0.2263, 12.90,   1.3
2161,359593.000,  22.330286921, 114.180703919,   16.1546,  2, 13,  0.4093,  0.3527,  1.2297,  0.1547, -0.4320, -0.2703, 13.00,   1.0
2161,359593.100,  22.330291679, 114.180701744,   15.9202,  2, 13,  0.4093,  0.3527,  1.2297,  0.1547, -0.4320, -0.2703, 13.10,   1.6
2161,359593.200,  22.330300077, 114.180696706,   18.5259,  2, 14,  0.4023,  0.3506,  1.2027,  0.1450, -0.4433, -0.3038, 13.20,   1.2
2161,359593.300,  22.330298798, 114.180693145,   15.8194,  2, 12,  0.4095,  0.3534,  1.4239,  0.1538, -0.4143, -0.2871, 13.30,   1.4
2161,359593.400,  22.330293242, 114.180685270,   21.3341,  2, 14,  0.3562,  0.3333,  1.2558,  0.0352, -0.3540, -0.2075, 13.40,   1.2
2161,359593.500,  22.330295074, 114.180673905,   17.4963,  2, 14,  0.3555,  0.3805,  1.2263, -0.0697, -0.4194, -0.1355, 13.50,   2.9
2161,359593.600,  22.330296327, 114.180679604,   16.2850,  2, 13,  0.4015,  0.4528,  1.2447,  0.2024, -0.4776, -0.2409, 13.60,   1.0
2161,359593.700,  22.330284048, 114.180685769,   17.5243,  2, 12,  0.4132,  0.4531,  1.2966,  0.1984, -0.4714, -0.3057, 13.70,   2.9
2161,359593.800,  22.330289160, 114.180681049,   16.2151,  2, 13,  0.4131,  0.4496,  1.1590,  0.1993, -0.5050, -0.2993, 13.80,   1.0
2161,359593.900,  22.330291830, 114.180671577,   15.5201,  2, 14,  0.3773,  0.3433,  1.0733, -0.0828, -0.3460,  0.0373, 13.90,   1.0
2161,359594.000,  22.330291737, 114.180668459,   17.2202,  2, 15,  0.4045,  0.3400,  1.0006, -0.0544, -0.3264, -0.0754, 14.00,   1.1
2161,359594.100,  22.330283160, 114.180667684,   17.1410,  1, 15,  0.1665,  0.2138,  1.3846,  0.0678, -0.4668, -0.4132,-15.90,  20.7
2161,359594.200,  22.330277313, 114.180663300,   20.6124,  2, 16,  0.3538,  0.3398,  0.9939, -0.0248, -0.3243, -0.1676, 14.20,   1.4
2161,359594.300,  22.330288337, 114.180655548,   21.9644,  2, 13,  0.4869,  0.3611,  1.0020, -0.1871, -0.3212, -0.1253, 14.30,   1.2
2161,359594.400,  22.330286674, 114.180651312,   21.0342,  2, 13,  0.4448,  0.3442,  1.0909, -0.1129, -0.3529,  0.2173, 14.40,   1.1
2161,359594.500,  22.330284174, 114.180642501,   23.3094,  1, 12,  0.0759,  0.1812,  0.3902, -0.1075, -0.2641,  0.1581,-15.50,  10.9
2161,359594.600,  22.330287174, 114.180647309,   21.3859,  2, 12,  0.4509,  0.3519,  1.1019, -0.0857, -0.3365,  0.2422, 14.60,   1.0
2161,359594.700,  22.330288587, 114.180647605,   18.8715,  2, 13,  0.4437,  0.3136,  1.0925,  0.0742, -0.3005,  0.2170, 14.70,   1.0
2161,359594.800,  22.330283812, 114.180648742,   18.0031,  2, 14,  0.4054,  0.3083,  1.0830,  0.1259, -0.2864,  0.1455, 14.80,   1.4
2161,359594.900,  22.330276120, 114.180642219,   18.0130,  1, 16,  0.0724,  0.1722,  0.3709, -0.1019, -0.2509,  0.1500,-15.10,  19.2
2161,359595.000,  22.330288204, 114.180634029,   20.2529,  2, 16,  0.3985,  0.2962,  1.0454,  0.1103, -0.3247,  0.1172, 15.00,   1.0
