     3.03           OBSERVATION DATA    M: Mixed            RINEX VERSION / TYPE
Geo++ RINEX Logger  Geo++               20210912 101446 UTC PGM / RUN BY / DATE
************************************************************COMMENT
This file was generated by the Geo++ RINEX Logger App       COMMENT
for Android devices (Version 2.1.6). If you encounter       COMMENT
any issues, please send an email to android@geopp.de        COMMENT
Filtering Mode: MORE                                        COMMENT
************************************************************COMMENT
Geo++                                                       MARKER NAME
GEODETIC                                                    MARKER TYPE
Geo++               Geo++                                   OBSERVER / AGENCY
unknown             HUAWEI              ELS-AN00            REC # / TYPE / VERS
unknown             ELS-AN00                                ANT # / TYPE
 -2417110.6960  5385881.0742  2406618.4039                  APPROX POSITION XYZ
        0.0000        0.0000        0.0000                  ANTENNA: DELTA H/E/N
G    8 C1C L1C D1C S1C C5Q L5Q D5Q S5Q                      SYS / # / OBS TYPES
R    4 C1C L1C D1C S1C                                      SYS / # / OBS TYPES
E   12 C1B L1B D1B S1B C1C L1C D1C S1C C5Q L5Q D5Q S5Q      SYS / # / OBS TYPES
C    4 C2I L2I D2I S2I                                      SYS / # / OBS TYPES
J    8 C1C L1C D1C S1C C5Q L5Q D5Q S5Q                      SYS / # / OBS TYPES
  2021     9    12    10    15    4.9999867     GPS         TIME OF FIRST OBS
 24 R01  1 R02 -4 R03  5 R04  6 R05  1 R06 -4 R07  5 R08  6 GLONASS SLOT / FRQ #
    R09 -2 R10 -5 R11  0 R12 -1 R13 -2 R14 -7 R15  0 R16 -1 GLONASS SLOT / FRQ #
    R17  4 R18 -3 R19  3 R20  2 R21  4 R22 -3 R23  3 R24  2 GLONASS SLOT / FRQ #
G L1C                                                       SYS / PHASE SHIFT
G L5Q -0.25000                                              SYS / PHASE SHIFT
R L1C                                                       SYS / PHASE SHIFT
E L1B                                                       SYS / PHASE SHIFT
E L1C +0.50000                                              SYS / PHASE SHIFT
E L5Q -0.25000                                              SYS / PHASE SHIFT
C L2I                                                       SYS / PHASE SHIFT
J L1C                                                       SYS / PHASE SHIFT
J L5Q -0.25000                                              SYS / PHASE SHIFT
 C1C    0.000 C1P    0.000 C2C    0.000 C2P    0.000        GLONASS COD/PHS/BIS
                                                            END OF HEADER
> 2021  9 12 10 15  4.9999867  2  0
> 2021  9 12 10 15  4.9999867  0  6
C06  36666214.608   190930600.4561      -1479.948          24.000  
C25  21816917.063   113606412.2591       -992.467          27.000  
G10  20240772.305   106365976.1711       -540.631          27.000  
G31  22202071.226   116672671.2561        870.076          13.000  
G32  22062769.063                         -94.568          31.000  
J01  38273479.022   201128488.9301       -188.755          24.000    38273485.917   150193379.2321       -142.012          26.000  
> 2021  9 12 10 15  5.9999859  0  8
C06  36666259.577   190930831.935       -1482.766          20.000  
C25  21816867.597   113606156.793        -994.117          26.000  
C33  22233436.712   115775339.2601      -1184.594          18.000  
G10  20240633.801   106365257.008        -542.157          31.000  
G12  22187866.759   116598026.3831      -2147.418          22.000  
G31  22201656.613   116670538.206         869.229          12.000  
G32  22062552.013   115939465.5481        -92.421          35.000  
J01  38273274.264   201127418.906        -191.959          25.000    38273281.758   150192577.741        -138.940          19.000  
> 2021  9 12 10 15  6.9999849  0  7
C06  36666245.486   190930753.742       -1482.568          21.000  
C25  21816757.873   113605590.896        -996.211          29.000  
G10  20240438.336   106364224.134        -543.154          30.000  
G12  22187976.783   116598598.448       -2147.959          32.000  
G31  22201183.540   116668094.435         867.038          10.000  
G32  22062269.009   115937983.829         -94.437          33.000  
J01  38273013.744   201126035.410        -192.334          24.000  
> 2021  9 12 10 15  7.9999844  0  7
C06  36666380.693   190931455.521       -1482.841          26.000  
C25  21816800.443   113605807.085        -997.226          29.000  
G10  20240394.566   106363980.296        -544.706          29.000  
G12  22188234.905   116599959.400       -2149.792          34.000  
G31  22200867.859   116666440.224         865.978          15.000  
G32  22062135.901   115937290.383         -95.811          35.000  
J01  38272899.223   201125439.584        -192.430          25.000  
> 2021  9 12 10 15  8.9999834  0  8
C06  36666365.703   190931377.045       -1482.799          29.000  
C25  21816692.818   113605243.194        -998.242          29.000  
C33  22233375.554   115774994.1851      -1188.018          17.000  
G10  20240200.001   106362949.921        -545.597          28.000  
G12  22188349.126   116600534.166       -2151.326          33.000  
G31  22200404.680   116663999.536         864.348          18.000  
G32  22061852.297   115935809.768         -96.329          33.000  
J01  38272635.406   201124057.659        -193.961          23.000  
> 2021  9 12 10 15  9.9999826  0  7
C06  36666410.372   190931611.556       -1483.893          29.000  
C25  21816643.652   113604993.850       -1002.278          29.000  
C33  22233363.563   115774934.987       -1192.342          18.000  
G10  20240063.895   106362236.630        -548.376          27.000  
G12  22188517.009                       -2153.151          35.000  
G32  22061631.051   115934646.236         -94.382          34.000  
J01  38272434.245   201122991.445        -194.463          26.000  
> 2021  9 12 10 15 10.9999818  0  6
C06  36666455.341   190931846.662       -1485.143          25.000  
C25  21816593.886   113604746.165       -1001.118          24.000  
C33  22233352.171   115774880.907       -1195.819          25.000  
G10  20239928.089   106361525.542        -549.747          28.000  
G12  22188685.193   116602334.9011      -2148.700          31.000  
G32  22061408.005   115933480.855         -93.617          31.000  
> 2021  9 12 10 15 11.9999808  0  6
C25  21816485.361   113604185.252        -999.098          23.000  
C33  22233280.820   115774515.323       -1195.198          23.000  
G10  20239734.124   106360498.212        -546.469          29.000  
G12  22188792.818   116602910.889       -2152.969          30.000  
G32  22061124.701   115931999.425         -93.755          29.000  
J01  38271968.368   201120544.2321       -192.920          22.000  
> 2021  9 12 10 15 12.9999803  0  4
C06  36666577.956   190932475.1341      -1482.970          21.000  
C25  21816527.932   113604404.211        -999.922          29.000  
C33  22233360.865   115774930.273       -1196.116          27.000  
J01  38271852.348   201119949.404        -193.174          31.000    38271859.543   150186996.5661       -144.219          32.000  
> 2021  9 12 10 15 13.9999793  0  7
C06  36666566.264   190932396.106       -1482.002          15.000  
C25  21816419.407   113603843.902       -1001.536          34.000  
C33  22233291.612   115774565.383       -1196.506          30.000  
G10  20239495.489   106359232.1031       -550.362          38.000  
G31  22198357.397   116653228.0511        860.139          18.000  
G32  22060710.988   115929828.2951        -96.815          25.000  
J01  38271589.730   201118568.199        -194.120          31.000    38271596.325   150185962.924        -142.974          20.000  
> 2021  9 12 10 15 14.9999785  0  8
C06  36666611.833   190932628.473       -1480.342          16.000  
C25  21816371.440   113603594.623        -998.360          33.000  
C33  22233280.820   115774512.839       -1195.099          28.000  
G10  20239359.083   106358524.154        -553.484          26.000  
G12  22189333.944   116605758.7121      -2160.737          25.000  
G31  22197952.677   116651112.841         853.688          17.000  
G32  22060491.540   115928664.906         -96.464          31.000  
J01                                                                  38271393.965   150185168.037        -147.045          25.000  
> 2021  9 12 10 15 15.9999775  0  5
G10  20239162.419   106357501.414        -552.386          27.000  
G12  22189445.467   116606342.271       -2157.817          29.000  
G31  22197489.798   116648682.475         856.184          15.000  
G32  22060210.634   115927185.849         -96.650          28.000  
J01  38271121.154   201116117.7821       -193.095          23.000    38271131.347   150184137.737        -146.282          22.000  
> 2021  9 12 10 15 16.9999770  0  6
C06  36666729.052   190933247.0251      -1480.944          18.000  
C25  21816302.188   113603254.2111      -1003.093          23.000  
G10  20239115.652   106357265.790        -551.729          26.000  
G12  22189706.286   116607710.994       -2156.159          27.000  
G31  22197174.416   116647037.642         858.349          17.000  
J01  38271010.231   201115523.521        -194.180          26.000    38271018.026   150183693.969        -144.792          22.000  
> 2021  9 12 10 15 17.9999759  0  7
C06  36666682.884   190933011.378       -1481.869          25.000  
C25  21816164.284   113602540.511       -1004.385          27.000  
G10  20238889.908   106356084.640        -552.029          29.000  
G12  22189786.630   116608134.583       -2157.000          28.000  
G31  22196680.658   116644445.968         858.781          18.000  
G32  22059767.841   115924858.3891        -96.663          34.000  
J01  38270718.233   201113984.967        -194.530          27.000    38270725.728   150182542.487        -141.592          20.000  
> 2021  9 12 10 15 18.9999752  0  6
C06  36666756.333   190933401.282       -1483.311          25.000  
C25  21816148.395   113602452.015       -1004.966          26.000  
G10  20238783.782   106355533.828        -551.933          32.000  
G12  22189987.491   116609189.564       -2158.831          27.000  
G32  22059580.770   115923852.577         -97.521          34.000  
J01  38270548.251   201113076.743        -194.311          26.000  
> 2021  9 12 10 15 19.9999741  0  6
C06  36666708.666   190933167.456       -1483.663          24.000  
C25  21816011.390   113601740.196       -1006.581          28.000  
G10  20238558.937   106354353.274        -552.900          29.000  
G12  22190068.435   116609616.482       -2160.467          27.000  
G32  22059269.585                         -99.252          34.000  
J01  38270256.852   201111537.510        -194.144          24.000  
> 2021  9 12 10 15 20.9999736  0  8
C06  36666842.673   190933870.806       -1484.693          25.000  
C25  21816053.960   113601966.691       -1007.586          26.000  
G10  20238512.769   106354119.189        -553.416          26.000  
G12  22190328.955   116610988.387       -2159.961          25.000  
G32  22059141.874   115921552.9671        -96.176          34.000  
J01  38270143.831   201110944.292        -195.091          26.000  
R02  21500922.321   114733041.1881       1360.632          30.000  
R12  19079314.865   101918275.3531       -918.310          25.000  
> 2021  9 12 10 15 21.9999726  0  9
C06  36666827.983   190933794.056       -1484.078          26.000  
C23  52206707.948                        -899.728          20.000  
C25  21815948.133   113601412.628       -1006.624          26.000  
G10  20238317.304   106353097.289        -553.759          24.000  
G12  22190442.576   116611574.353       -2163.722          27.000  
G32  22058859.769   115920074.488         -97.255          35.000  
J01  38269882.112   201109563.173        -193.577          26.000  
R02  21500368.005   114730081.049        1360.023          30.000  
R12  19079187.453   101917594.403        -919.221          26.000  
> 2021  9 12 10 15 22.9999718  0  7
C06  36666872.652   190934028.477       -1484.343          25.000  
C25  21815902.865   113601169.649       -1005.510          24.000  
G10  20238184.796   106352390.961        -554.992          26.000  
G32  22058630.428   115918911.055         -96.837          34.000  
J01  38269677.054   201108496.348        -195.103          26.000  
R02  21499871.549   114727440.815        1360.467          31.000  
R12  19079119.101   101917229.651        -918.579          26.000  
> 2021  9 12 10 15 23.9999708  0  9
C06  36666860.361   190933952.112       -1485.091          24.000  
C23  52206168.322                        -899.728          21.000  
C25  21815796.139   113600613.555       -1003.812          25.000  
G10  20237989.032   106351370.366        -554.391          23.000  
G12  22190725.880   116613065.6111      -2165.194          23.000  
G32  22058349.822   115917432.420         -95.768          34.000  
J01  38269414.136   201107115.719        -194.432          25.000  
R02  21499315.434   114724479.603        1362.210          33.000  
R12  19078988.691   101916532.961        -917.920          27.000  
> 2021  9 12 10 15 24.9999703  0  9
C06  36666994.968   190934655.799       -1483.687          23.000  
C23  52206018.426                        -899.728          25.000  
C25  21815840.208   113600838.201       -1005.929          22.000  
G10                                                                  20237962.950    79418112.9081       -416.308          27.000  
G12  22190989.698   116614442.554       -2164.997          26.000  
G32  22058224.809   115916741.575         -97.664          34.000  
J01  38269301.714   201106522.851        -195.358          26.000  
R02  21498909.814   114722317.960        1361.434          31.000  
R12  19079012.674   101916660.728        -920.404          26.000  
> 2021  9 12 10 15 25.9999693  0  8
C06  36666979.678   190934577.697       -1483.637          25.000  
C25  21815734.981   113600284.252       -1007.883          27.000  
G10  20237758.491   106350120.1881       -557.678          30.000    20237769.584    79417353.276        -418.046          28.000  
G12  22191104.218   116615032.125       -2165.438          25.000  
G32  22057941.505   115915263.106         -95.539          35.000  
J01  38269042.093   201105142.167        -194.337          25.000  
R02  21498350.402   114719356.538        1361.712          32.000  
R12  19078885.263   101915979.849        -921.472          27.000  
> 2021  9 12 10 15 26.9999685  0  7
C06  36667022.848   190934812.389       -1484.089          25.000  
C25  21815689.712   113600043.409       -1008.407          26.000  
G10  20237627.782   106349417.638        -557.674          31.000    20237635.876    79416829.234        -416.778          28.000  
G12  22191275.700   116615936.510       -2164.178          27.000  
G32  22057721.757   115914099.681         -96.917          35.000  
R02  21497853.646   114716714.938        1360.306          31.000  
R12  19078816.310   101915612.216        -921.459          28.000  
> 2021  9 12 10 15 27.9999675  0  8
C06  36667006.959   190934734.796       -1483.802          26.000  
C23  52205179.007                        -145.762          17.000  
C25  21815584.785   113599490.422       -1007.355          28.000  
G10  20237435.915   106348400.208        -558.094          30.000    20237442.210    79416069.758        -416.923          28.000  
G32  22057439.053   115912621.504         -96.873          36.000  
J01  38268577.415   201102695.9721       -195.412          26.000  
R02  21497297.231   114713754.355        1360.940          32.000  
R12  19078685.901   101914914.885        -922.914          28.000  
> 2021  9 12 10 15 28.9999670  0  9
C06  36667141.866   190935438.837       -1483.575          28.000  
C23  52205029.110                        -899.728          23.000  
C25  21815629.754   113599717.922       -1008.984          29.000  
C33  22233064.969   115773327.0801      -1200.241          23.000  
G10  20237390.946   106348171.058        -559.439          29.000    20237399.040    79415899.008        -416.505          27.000  
G31  22192182.871   116620944.1091        857.120          17.000  
G32  22057308.343   115911931.174         -97.582          36.000  
R02  21496888.913   114711593.954        1360.775          32.000  
R12  19078704.488   101915014.290        -925.761          28.000  
> 2021  9 12 10 15 29.9999660  0  8
C06  36667125.977   190935360.984       -1482.989          27.000  
C23  52204729.318                        -899.728          24.000  
C25  21815524.527   113599166.823       -1010.906          26.000  
C33  22233000.214   115772965.957       -1200.130          22.000  
G10  20237198.479   106347155.931        -560.890          28.000    20237205.374    79415140.416        -419.672          26.000  
G32  22057026.538   115910452.905         -97.085          34.000  
R02  21496331.599   114708633.632        1360.221          31.000  
R12  19078576.476   101914330.445        -924.029          27.000  
> 2021  9 12 10 15 30.9999652  0  9
C06  36667172.745   190935594.514       -1482.409          26.000  
C23  52204489.484                        -899.728          23.000  
C25  21815480.457   113598929.206       -1011.832          26.000  
C33  22232991.820   115772917.511       -1201.368          25.000  
G10  20237065.071   106346456.428        -561.510          30.000    20237071.967    79414618.728        -419.977          26.000  
G12  22191943.637   116619401.3031      -2168.222          26.000  
G32  22056802.893   115909289.734         -97.424          34.000  
R02  21495832.145   114705993.571        1360.130          31.000  
R12  19078508.423   101913967.205        -923.230          28.000  
> 2021  9 12 10 15 31.9999642  0 10
C06  36667156.556   190935515.667       -1482.383          26.000  
C23  52204189.692                        -899.728          23.000  
C25  21815374.331   113598379.762       -1011.556          29.000  
C33  22232925.266   115772557.936       -1202.520          24.000  
G10  20236871.405   106345442.837        -562.112          31.000    20236878.900    79413861.302        -418.176          27.000  
G31  22190858.388   116613979.5101        849.961          16.000  
G32  22056526.484   115907811.433         -98.112          34.000  
J01  38267730.202   201098277.6001       -194.249          23.000  
R02  21495276.330   114703032.636        1361.153          30.000  
R12  19078381.611   101913289.858        -923.960          28.000  
> 2021  9 12 10 15 32.9999636  0 10
C06  36667261.483   190936061.114       -1482.541          26.000  
C23  24418628.735                        1328.351          23.000  
C25  21815389.320   113598454.536       -1010.980          29.000  
C33  22232975.032   115772823.659       -1203.226          23.000  
G10  20236797.956   106345059.792        -562.466          29.000    20236806.950    79413573.064        -417.184          27.000  
G31  22190514.826   116612185.975         848.553          16.000  
G32  22056363.697   115906963.297         -97.693          36.000  
J01  38267591.398   201097526.141        -193.524          26.000  
R02  21494841.931   114700712.026        1361.213          29.000  
R12  19078371.119   101913233.881        -926.941          28.000  
> 2021  9 12 10 15 33.9999626  0 10
C06  36667246.194   190935981.897       -1481.228          27.000  
C23  24418072.320                        1328.690          23.000  
C25  21815284.093   113597904.936       -1012.691          28.000  
G10  20236603.391   106344046.829        -562.459          28.000    20236613.584    79412813.963        -417.909          26.000  
G12  22192408.315   116621811.0241      -2169.441          26.000  
G31  22190051.347   116609759.735         851.304          16.000  
G32  22056081.293   115905484.845         -98.174          35.000  
J01  38267328.180   201096143.988        -192.896          23.000  
R02  21494284.017   114697750.731        1360.533          29.000  
R12  19078246.705   101912568.962        -929.145          28.000  
> 2021  9 12 10 15 34.9999619  0  9
C06  36667322.641   190936370.556       -1481.752          24.000  
C23  24417607.042   127148888.9541       1326.756          24.000  
C25  21815268.204   113597824.564       -1012.766          28.000  
C33  22232929.463   115772573.8061      -1200.619          21.000  
G10  20236499.663   106343506.481        -562.627          28.000    20236510.455    79412409.438        -419.540          25.000  
G12  22192613.973   116622877.873       -2170.803          24.000  
G32  22055892.124   115904479.273         -97.365          35.000  
J01  38267154.001   201095233.929        -193.159          24.000  
R12  19078208.931   101912367.431        -930.027          28.000  
> 2021  9 12 10 15 35.9999608  0 10
C06  36667278.271   190936136.112       -1483.494          26.000  
C23  24417020.948   127145845.675        1327.187          23.000  
C25  21815133.597   113597120.106       -1013.352          28.000  
C33  22232829.333   115772056.117       -1200.025          23.000  
G10  20236277.217   106342336.392        -563.313          30.000    20236287.710    79411534.899        -420.263          27.000  
G12  22192696.116   116623316.250       -2171.725          27.000  
G31  22189193.641   116605213.6791        861.033          15.000  
G32  22055578.241   115902843.641         -98.414          33.000  
J01  38266862.302   201093694.668        -193.486          26.000  
R12  19078051.540   101911526.866        -929.887          26.000  
> 2021  9 12 10 15 36.9999601  0 10
C06  36667354.119   190936527.359       -1484.412          25.000  
C23  24416555.071   127143424.346        1329.713          20.000  
C25  21815118.308   113597040.652       -1013.927          28.000  
G10                                                                  20236185.780    79411132.923        -423.054          25.000  
G12  22192899.675   116624385.236       -2172.972          31.000  
G31  22188818.001   116603253.385         854.402          14.000  
G32  22055381.877   115901838.313         -98.723          32.000  
J01  38266688.123   201092785.626        -193.720          27.000  
R02  21492771.264   114689667.6691       1360.764          29.000  
R12  19078017.663   101911345.192        -930.808          27.000  
> 2021  9 12 10 15 37.9999593  0  9
C06  36667398.188   190936762.591       -1483.615          25.000  
C23  24416058.914   127140845.482        1329.847          22.000  
C25  21815073.339   113596805.400       -1014.056          28.000  
C33  22232838.626   115772117.0541      -1203.653          25.000  
G10  20236043.079   106341102.1121       -565.560          28.000    20236053.871    79410614.282        -424.259          24.000  
G12  22193073.255   116625297.807       -2173.048          30.000  
G32  22055161.829   115900675.525         -97.504          33.000  
J01  38266483.665   201091719.589        -194.487          25.000  
R02  21492274.808   114687027.536        1360.075          31.000  
> 2021  9 12 10 15 38.9999585  0 10
C06  36667441.958   190936997.483       -1483.490          25.000  
C23  24415562.158   127138267.305        1329.172          21.000  
C25  21815028.670   113596571.246       -1015.879          27.000  
C33  22232829.932   115772072.659       -1205.250          24.000  
G10  20235911.470   106340407.495        -566.146          27.000    20235921.963    79410097.797        -424.306          23.000  
G12  22193246.235   116626210.692       -2173.010          30.000  
G32  22054943.280   115899512.886         -98.928          33.000  
J01  38266279.506   201090654.321        -196.077          23.000  
R02  21491780.450   114684387.245        1360.927          31.000  
R12  19077897.446   101910703.0851       -932.598          26.000  
> 2021  9 12 10 15 39.9999575  0  9
C06  36667428.467   190936919.330       -1481.803          25.000  
C25  21814923.743   113596025.481       -1014.702          28.000  
G10  20235721.402   106339398.491        -567.060          31.000    20235730.096    79409346.396        -424.999          26.000  
G12  22193358.658   116626808.607       -2174.064          31.000  
G31  22187554.076   116596606.1141        846.656          16.000  
G32  22054663.874   115898035.366         -98.375          31.000  
J01  38266018.387   201089274.891        -196.458          25.000  
R02  21491228.232   114681427.116        1359.976          31.000  
R12  19077777.529   101910062.249        -933.932          26.000  
> 2021  9 12 10 15 40.9999567  0 10
C06  36667472.837   190937152.813       -1482.508          26.000  
C23  24414515.283   127132804.0811       1327.041          22.000  
C25  21814879.373   113595791.047       -1014.839          28.000  
C33  22232747.789   115771675.6191      -1207.350          23.000  
G10  20235590.692   106338705.474        -567.629          29.000    20235597.587    79408830.172        -425.056          24.000  
G12  22193531.638   116627723.034       -2175.517          29.000  
G32  22054441.428   115896873.174         -98.144          32.000  
J01  38265815.127   201088211.031        -196.112          26.000  
R02  21490734.774   114678786.672        1360.428          31.000  
R12  19077717.871   101909744.055        -936.298          29.000  
> 2021  9 12 10 15 41.9999560  0 10
C06  36667547.485   190937542.724       -1482.340          27.000  
C23  24414048.506   127130384.539        1325.583          19.000  
C25  21814864.384   113595714.647       -1017.418          27.000  
C33  22232769.074   115771791.534       -1208.506          23.000  
G10  20235490.561   106338170.565        -568.106          29.000    20235495.958    79408431.195        -422.891          23.000  
G12  22193733.398   116628796.395       -2176.696          30.000  
G32  22054252.259   115895868.583         -98.742          33.000  
J01  38265641.548   201087304.082        -195.081          26.000  
R02  21490271.295   114676306.331        1359.568          32.000  
R12  19077684.894   101909568.140        -935.153          28.000  
> 2021  9 12 10 15 42.9999552  0 10
C06  36667591.555   190937776.375       -1483.028          26.000  
C23  24413555.347   127127809.977        1326.322          21.000  
C25  21814819.415   113595483.595       -1018.867          28.000  
C33  22232760.380   115771750.270       -1207.487          25.000  
G10  20235358.653   106337478.592        -568.696          30.000    20235364.049    79407912.672        -421.719          24.000  
G12  22193906.378   116629713.582       -2177.910          31.000  
G32  22054029.213   115894706.602         -99.952          33.000  
J01  38265436.190   201086240.243        -196.626          26.000  
R02  21489777.537   114673667.026        1358.744          32.000  
R12  19077618.939   101909215.586        -936.157          27.000  
> 2021  9 12 10 15 43.9999542  0 10
C06  36667575.965   190937699.218       -1484.905          25.000  
C23  24413001.631   127124923.509        1324.252          21.000  
C25  21814714.188   113594940.896       -1018.446          28.000  
C33  22232692.327   115771396.050       -1207.325          26.000  
G10  20235167.385   106336472.461        -569.932          24.000    20235172.781    79407161.535        -425.676          24.000  
G12  22194020.599   116630316.900       -2179.183          28.000  
G32  22053750.706   115893229.904         -98.933          36.000  
J01  38265173.871   201084861.601        -196.735          26.000  
R02  21489222.321   114670708.416        1359.103          32.000  
R12  19077493.326   101908544.687        -936.809          27.000  
> 2021  9 12 10 15 44.9999534  0 10
C06  36667620.335   190937934.835       -1484.044          26.000  
C23  24412508.472   127122350.476        1324.378          22.000  
C25  21814670.418   113594710.901       -1019.515          27.000  
G10  20235036.975   106335782.371        -570.725          25.000    20235040.873    79406645.700        -424.456          23.000  
G12  22194195.678   116631235.294       -2179.369          29.000  
G31  22185528.378   116585914.2931        851.701          16.000  
G32  22053531.258   115892068.291         -97.369          34.000  
J01  38264971.511   201083798.551        -197.491          23.000  
R02  21488729.162   114668068.808        1360.597          31.000  
R12  19077427.372   101908192.606        -937.897          25.000  
> 2021  9 12 10 15 45.9999526  0 10
C06  36667666.203   190938169.380       -1483.761          26.000  
C23  24412014.114   127119776.615        1325.049          22.000  
C25  21814625.749   113594481.185       -1019.417          26.000  
C33  22232678.537   115771310.1691      -1206.366          20.000  
G10  20234906.865   106335092.622        -570.958          24.000    20234909.863    79406129.554        -426.054          23.000  
G12  22194370.757   116632154.774       -2179.851          30.000  
G32  22053309.412   115890906.716         -99.012          35.000  
J01  38264768.852   201082734.719        -196.307          24.000  
R02  21488237.803   114665428.573        1359.912          29.000  
R12  19077359.919   101907831.691        -939.073          24.000  
> 2021  9 12 10 15 46.9999519  0 10
C06  36667740.551   190938560.005       -1483.819          26.000  
C23  24411549.436   127117358.498        1325.051          25.000  
C25  21814610.759   113594407.641       -1019.608          26.000  
G10  20234804.037   106334561.264        -572.472          25.000    20234808.234    79405731.344        -424.042          22.000  
G12  22194574.916   116633232.006       -2180.162          31.000  
G31  22184744.421   116581847.0351        852.417          13.000  
G32  22053115.446   115889903.002         -98.440          36.000  
J01  38264594.972   201081828.877        -199.337          23.000  
R02  21487774.923   114662949.662        1358.752          29.000  
R12  19077325.742   101907649.478        -939.435          24.000  
> 2021  9 12 10 15 47.9999508  0 10
C06  36667694.084   190938326.073       -1483.568          24.000  
C23  24410965.740   127114318.133        1322.667          23.000  
C25  21814477.052   113593710.643       -1020.692          25.000  
C33  22232600.591   115770917.4061      -1210.892          19.000  
G10  20234580.991   106333400.973        -573.207          28.000    20234586.987    79404862.192        -427.027          21.000  
G12  22194659.457   116633679.813       -2181.720          31.000  
G32  22052804.261   115888269.319         -98.810          35.000  
J01  38264301.775   201080295.360        -198.837          25.000  
R02  21487191.227   114659830.775        1359.398          29.000  
R12  19077169.850   101906817.055        -941.336          23.000  
> 2021  9 12 10 15 48.9999501  0 10
C06  36667769.931   190938716.189       -1482.616          26.000  
C23  24410503.760   127111903.728        1321.432          24.000  
C25  21814462.062   113593638.815       -1020.728          29.000  
C33  22232622.776   115771034.966       -1210.271          24.000  
G10  20234479.661   106332871.599        -573.656          31.000    20234486.556    79404466.920        -428.009          23.000  
G31  22183886.415   116577316.5951        844.127          13.000  
G32  22052612.694   115887265.993         -99.232          34.000  
J01  38264128.195   201079390.186        -196.853          27.000  
R02  21486727.748   114657351.529        1359.198          30.000  
R12  19077129.678   101906601.831        -940.923          23.000  
> 2021  9 12 10 15 49.9999496  0  9
C06  36667905.137   190939416.967       -1481.824          27.000  
C23  24410101.139   127109802.674        1320.898          21.000  
C25  21814507.930   113593879.358       -1020.734          29.000  
G10  20234438.889   106332657.797        -574.149          28.000    20234446.084    79404308.162        -431.765          23.000  
G12  22195128.033   116636153.5741      -2182.763          32.000  
G32  22052479.586   115886577.796         -99.166          32.000  
J01  38264015.473   201078798.699        -196.090          28.000  
R02  21486322.728   114655192.579        1359.154          31.000  
R12  19077153.661   101906729.991        -943.350          22.000  
> 2021  9 12 10 17  6.6110344  0  0
> 2021  9 12 10 17  7.6110344  0  2
G10  20391568.511                       -2648.881          34.000  
G32  22202258.296                       -2126.736          39.000  
> 2021  9 12 10 17  8.8104735  0  3
G10  20223638.267                        -645.545          33.000  
G12  22208474.493                       -2258.220          31.000  
G32  22034206.336                        -125.767          39.000  
> 2021  9 12 10 17  9.8104735  0  3
G10  20223759.683                        -647.376          34.000  
G12  22208902.896                       -2257.824          27.000  
G32  22034237.515                        -123.825          33.000  
> 2021  9 12 10 17 10.9999982  0  2
G10  20223376.248                        -649.930          38.000  
G32  22033730.566                        -125.352          31.000  
> 2021  9 12 10 17 11.9999974  0  3
G10  20223262.926   106273949.3871       -649.529          38.000  
G12  22209072.879   116709466.0231      -2262.034          35.000  
G32  22033503.923   115786902.5261       -126.490          34.000  
> 2021  9 12 10 17 12.9999964  0  3
G10  20223084.850   106273023.926        -649.166          35.000  
G12  22209205.087   116710154.735       -2264.912          29.000  
G32  22033231.411   115785453.324        -126.416          34.000  
> 2021  9 12 10 17 13.9999956  0  2
G10  20222968.530   106272414.595        -650.929          32.000  
G32  22033017.359   115784319.583        -126.644          34.000  
> 2021  9 12 10 17 14.9999949  0  2
G10  20222880.391   106271963.546        -652.488          35.000  
G12  22209617.002   116712319.1181      -2263.648          19.000  
> 2021  9 12 10 17 15.9999941  0  6
C06  36670854.795   190954764.1891      -1504.371          30.000  
C25  21810234.989   113571617.7051      -1089.947          32.000  
C33  22231431.400   115764897.8671      -1267.411          28.000  
G10  20222765.571   106271355.846        -653.703          36.000  
G12  22209804.972   116713321.865       -2263.637          26.000  
G32  22032622.833   115782210.2281       -125.459          31.000  
> 2021  9 12 10 17 16.9999931  0  6
C06  36670843.703   190954706.712       -1503.533          28.000  
C25  21810142.952   113571146.919       -1090.879          28.000  
C33  22231376.238   115764604.506       -1267.747          27.000  
G10  20222590.192   106270433.658        -653.824          36.000  
G12  22209935.082   116714011.484       -2265.504          32.000  
G32  22032343.126   115780761.824        -126.716          36.000  
> 2021  9 12 10 17 17.9999923  0  6
C06  36670894.668   190954961.550       -1503.917          32.000  
C25  21810112.973   113570989.378       -1091.890          33.000  
C33  22231378.337   115764624.394       -1269.546          25.000  
G10  20222474.772   106269827.158        -654.264          37.000  
G12  22210125.450   116715017.836       -2267.825          33.000  
G32  22032125.477   115779627.574        -126.216          32.000  
> 2021  9 12 10 17 18.9999913  0  6
C06  36670883.576   190954904.552       -1504.285          29.000  
C25  21810025.434   113570520.593       -1093.068          33.000  
C33  22231320.477   115764332.656       -1268.746          26.000  
G10  20222301.792   106268906.516        -655.637          38.000  
G12  22210256.759   116715710.108       -2267.933          29.000  
G32  22031848.469   115778179.318        -128.674          29.000  
> 2021  9 12 10 17 19.9999905  0  6
C06  36670933.641   190955160.369       -1505.931          32.000  
C25  21809995.155   113570364.636       -1092.409          26.000  
C33  22231324.674   115764352.654       -1268.393          29.000  
G10  20222178.277   106268301.373        -654.866          36.000  
G12  22210447.427   116716717.071       -2267.719          31.000  
G32  22031631.419   115777047.609        -128.789          35.000  
> 2021  9 12 10 17 20.9999898  0  6
C06  36671013.985   190955573.066       -1505.811          30.000  
C25  21809995.454   113570363.698       -1092.319          26.000  
C33  22231357.951   115764528.607       -1269.248          24.000  
G10  20222098.532   106267854.197        -656.056          32.000  
G12  22210672.272   116717882.228       -2268.620          28.000  
G32  22031444.049   115776073.312        -127.730          31.000  
> 2021  9 12 10 17 21.9999887  0  6
C06  36670973.513   190955360.447       -1503.967          28.000  
C25  21809876.737   113569739.073       -1093.049          30.000  
C33  22231274.009   115764081.204       -1270.319          27.000  
G10  20221892.575   106266777.649        -655.970          32.000  
G12  22210776.899   116718418.601       -2269.908          31.000  
G32  22031137.361   115774467.859        -127.492          32.000  
> 2021  9 12 10 17 22.9999880  0  6
C06  36671053.258   190955770.924       -1503.002          29.000  
C25  21809878.535   113569739.218       -1093.972          29.000  
C33  22231308.485   115764259.144       -1270.909          28.000  
G10  20221813.130   106266331.853        -657.437          33.000  
G12  22210999.645   116719586.272       -2271.117          27.000  
G32  22030950.590   115773492.311        -126.957          35.000  
> 2021  9 12 10 17 23.9999872  0  6
C06  36671101.525   190956024.760       -1503.085          29.000  
C25  21809849.455   113569584.668       -1094.665          29.000  
C33  22231313.882   115764281.463       -1271.124          27.000  
G10  20221695.611   106265729.278        -659.991          31.000  
G12  22211188.814   116720597.268       -2271.793          24.000  
G32  22030740.136   115772359.157        -127.916          34.000  
> 2021  9 12 10 17 24.9999864  0  5
C06  36671150.391   190956278.817       -1503.461          30.000  
C25  21809821.275   113569431.081       -1096.034          29.000  
C33  22231318.978   115764304.012       -1271.214          28.000  
G10  20221584.988   106265127.620        -657.971          30.000    20221583.789    79353838.2121       -492.385          28.000  
G12  22211379.782   116721607.361       -2269.592          23.000  
> 2021  9 12 10 17 25.9999854  0  6
C06  36671139.898   190956220.600       -1502.910          30.000  
C25  21809731.637   113568965.567       -1096.081          29.000  
C33  22231265.315   115764013.497       -1270.199          28.000  
G10  20221411.708   106264211.343        -660.781          30.000    20221409.909    79353154.909        -494.471          29.000  
G32  22030244.879   115769719.0281       -127.459          34.000  
J01  38243526.158                        -222.534          26.000  
> 2021  9 12 10 17 26.9999844  0  7
C06  36671129.705   190956162.506       -1503.964          30.000  
C25  21809643.798   113568501.817       -1097.970          30.000  
C33  22231210.753   115763722.773       -1270.713          26.000  
G10  20221233.032   106263295.781        -657.894          33.000    20221235.430    79352470.896        -492.812          28.000  
G12  22211641.501   116722998.5871      -2272.819          21.000  
G32  22029970.269   115768271.296        -128.326          34.000  
J01  38243269.835                        -222.101          26.000  
> 2021  9 12 10 17 27.9999839  0  7
C06  36671268.809   190956885.430       -1503.311          30.000  
C25  21809706.754   113568819.442       -1098.147          29.000  
C33  22231305.487   115764213.653       -1273.057          25.000  
G10  20221207.250   106263168.629        -662.342          31.000    20221210.847    79352375.382        -493.074          29.000  
G12  22211925.104   116724484.494       -2274.917          23.000  
G32  22029845.255   115767611.394        -127.930          35.000  
J01  38243163.709   200968945.4021       -222.550          26.000  
> 2021  9 12 10 17 28.9999828  0  7
C06  36671228.337   190956671.729       -1503.939          31.000  
C25  21809588.936   113568200.620       -1098.697          29.000  
C33  22231220.047   115763769.826       -1274.850          24.000  
G10  20221004.590   106262096.806        -660.816          31.000    20221006.988    79351574.029        -492.954          29.000  
G12  22212028.233   116725026.194       -2274.968          23.000  
G32  22029540.067   115766006.191        -126.605          35.000  
J01  38242876.807   200967435.043        -222.022          27.000  
> 2021  9 12 10 17 29.9999821  0  6
C06  36671307.182   190957083.227       -1504.655          30.000  
C25  21809590.135   113568206.580       -1098.935          30.000  
G10  20220917.050   106261655.711        -661.987          31.000    20220923.046    79351244.158        -494.757          29.000  
G12  22212251.278   116726198.479       -2276.570          26.000  
G32  22029352.097   115765031.152        -127.799          34.000  
J01  38242710.123   200966553.495        -220.739          27.000  
> 2021  9 12 10 17 30.9999811  0  5
C06  36671296.090   190957026.535       -1504.551          30.000  
C25  21809502.895   113567744.808       -1099.314          31.000  
G10  20220747.967   106260742.732        -661.607          30.000    20220749.766    79350562.379        -494.832          29.000  
G32  22029079.586   115763583.534        -128.309          35.000  
J01  38242454.400   200965198.724        -221.084          26.000  
> 2021  9 12 10 17 31.9999803  0  7
C06  36671345.256   190957281.718       -1504.262          30.000  
C25  21809476.214   113567595.290       -1099.758          30.000  
C33  22231199.661   115763691.7191      -1274.859          25.000  
G10  20220631.048   106260145.406        -662.886          30.000    20220636.145    79350116.963        -496.269          29.000  
G12  22212578.652   116727916.8271      -2277.865          27.000  
G32  22028867.932   115762451.051        -128.579          35.000  
J01  38242258.335   200964424.210        -222.501          27.000  
> 2021  9 12 10 17 32.9999795  0  7
C06  36671393.822   190957536.583       -1504.374          30.000  
C25  21809448.333   113567446.501       -1100.274          31.000  
C33  22231203.558   115763717.379       -1274.714          26.000  
G10  20220519.526   106259548.777        -663.719          30.000    20220523.423    79349671.849        -495.305          29.000  
G12  22212772.618   116728935.172       -2278.662          25.000  
G32  22028651.782   115761318.680        -128.258          35.000  
J01  38242059.273   200963385.216        -220.939          26.000  
> 2021  9 12 10 17 33.9999785  0  6
C06  36671382.430   190957478.774       -1502.709          31.000  
C25  21809361.093   113566985.957       -1100.699          28.000  
C33  22231147.197   115763430.610       -1273.958          24.000  
G10  20220354.640   106258637.782        -665.477          31.000    20220349.244    79348990.571        -495.562          30.000  
G32  22028376.572   115759871.370        -128.232          36.000  
J01  38241799.953   200962030.239        -220.486          24.000  
> 2021  9 12 10 17 34.9999777  0  5
C06  36671430.697   190957733.031       -1504.072          31.000  
C25  21809333.213   113566838.555       -1101.909          28.000  
G10  20220243.117   106258042.444        -663.488          30.000    20220235.622    79348546.240        -498.126          28.000  
G32  22028156.525   115758739.091        -128.860          36.000  
J01  38241600.591   200960990.311        -220.170          26.000  
> 2021  9 12 10 17 35.9999770  0  6
C06  36671509.242   190958144.331       -1504.515          30.000  
C25  21809334.112   113566847.941       -1102.304          28.000  
C33  22231181.673   115763639.5251      -1276.300          20.000  
G10  20220158.576   106257605.515        -665.893          31.000    20220152.580    79348220.317        -498.444          29.000  
G32  22027973.651   115757764.473        -127.274          36.000  
J01  38241433.007   200960108.583        -221.550          25.000  
> 2021  9 12 10 17 36.9999762  0  5
C06  36671557.809   190958399.208       -1503.487          30.000  
C25  21809305.332   113566701.700       -1103.021          30.000  
G10  20220043.755   106257011.369        -666.350          32.000    20220039.558    79347777.275        -498.234          29.000  
G32  22027762.897   115756632.272        -128.391          36.000  
J01  38241234.844   200959070.556        -223.298          24.000  
> 2021  9 12 10 17 37.9999752  0  5
C06  36671546.117   190958341.138       -1502.817          31.000  
C25  21809216.594   113566242.964       -1102.691          30.000  
G10  20219867.477   106256102.541        -666.933          33.000    20219865.978    79347096.842        -495.424          28.000  
G32  22027483.490   115755184.699        -128.198          36.000  
J01  38240978.222   200957718.240        -222.348          24.000  
> 2021  9 12 10 17 38.9999741  0  7
C06  36671504.446   190958127.296       -1502.524          31.000  
C25  21809098.775   113565628.933       -1103.531          31.000  
C33  22231043.769   115762937.8221      -1275.535          25.000  
G10  20219666.916   106255037.047        -667.847          31.000    20219662.719    79346299.719        -498.072          28.000  
G12  22213752.039   116734110.6161      -2275.166          13.000  
G32  22027178.602   115753579.892        -128.465          35.000  
J01  38240693.119   200956207.208        -222.622          23.000  
> 2021  9 12 10 17 39.9999736  0  6
C06  36671642.350   190958849.546       -1503.247          31.000  
C25  21809160.532   113565952.198       -1104.660          31.000  
C33  22231140.002   115763432.989       -1276.104          26.000  
G10  20219639.335   106254917.470        -666.606          32.000    20219640.534    79346209.964        -498.900          28.000  
G12  22214034.144   116735600.319       -2280.861          11.000  
J01  38240585.194   200955641.771        -222.183          26.000  
> 2021  9 12 10 17 40.9999726  0  6
C06  36671631.558   190958791.446       -1503.409          31.000  
C25  21809072.693   113565495.594       -1104.626          31.000  
C33  22231087.239   115763148.204       -1276.372          26.000  
G10  20219469.652   106254010.748        -668.364          32.000    20219468.153    79345533.041        -499.653          28.000  
G32  22026780.177   115751473.1111       -128.432          34.000  
J01  38240328.871   200954288.791        -222.562          25.000  
> 2021  9 12 10 17 41.9999716  0  7
C06  36671619.866   190958733.296       -1503.679          31.000  
C25  21808984.254   113565039.693       -1105.227          31.000  
C33  22231033.875   115762863.359       -1276.200          24.000  
G10  20219293.974   106253104.539        -669.934          32.000    20219296.672    79344857.319        -500.904          28.000  
G12  22214301.859   116737021.1271      -2291.203          11.000  
G32  22026502.869   115750025.728        -129.048          35.000  
J01  38240072.549   200952935.356        -220.765          25.000  
> 2021  9 12 10 17 42.9999708  0  6
C06  36671669.032                       -1503.307          31.000  
C25  21808952.476   113564894.034       -1103.986          30.000  
C33  22231039.272   115762890.207       -1275.160          25.000  
G10                                                                  20219184.250    79344415.982        -499.521          29.000  
G32  22026289.717   115748893.436        -128.031          36.000    22026291.516    86435899.6631        -93.847          25.000  
J01  38239875.885   200951895.922        -221.572          24.000  
> 2021  9 12 10 17 43.9999700  0  5
C06  36671720.296   190959258.4091      -1503.598          31.000  
C25  21808924.895   113564750.291       -1106.450          30.000  
C33  22231045.567   115762918.210       -1276.188          24.000  
G10  20219075.425   106251923.9081       -673.884          32.000    20219072.128    79343976.025        -502.203          28.000  
G32  22026072.367   115747761.093        -127.841          36.000    22026075.665    86435052.897         -95.059          24.000  
> 2021  9 12 10 17 44.9999693  0  7
C06  36671797.643   190959668.403       -1501.623          31.000  
C25  21808927.294   113564764.350       -1106.494          30.000  
C33  22231080.643   115763102.156       -1277.835          24.000  
G10  20218987.586   106251492.122        -672.481          31.000    20218989.085    79343652.479        -499.795          28.000  
G12  22214917.633   116740276.1321      -2288.544          17.000  
G32  22025889.494   115746786.329        -127.741          36.000    22025890.693    86434325.438         -95.453          25.000  
J01  38239509.838   200949973.9011       -220.666          24.000  
> 2021  9 12 10 17 45.9999683  0  6
C06  36671786.251   190959610.004       -1503.820          32.000  
C25  21808840.054   113564310.043       -1107.984          30.000  
C33  22231026.081   115762819.562       -1279.358          25.000  
G10  20218813.707   106250588.288        -673.053          31.000    20218816.405    79342976.976        -500.380          28.000  
G32  22025613.985   115745338.933        -128.468          36.000    22025616.683    86433243.933         -95.105          24.000  
J01  38239253.216   200948619.386        -221.633          26.000  
> 2021  9 12 10 17 46.9999675  0  5
C06  36671834.517   190959863.794       -1504.433          31.000  
C25  21808813.672   113564169.327       -1108.356          30.000  
G10  20218704.582   106250000.184        -673.640          31.000    20218705.182    79342537.290        -502.285          29.000  
G32  22025396.036   115744206.701        -127.308          37.000    22025401.732    86432398.780         -96.209          24.000  
J01  38239055.653   200947580.885        -221.836          22.000  
> 2021  9 12 10 17 47.9999667  0  6
C06  36671883.084   190960117.431       -1503.747          30.000  
C25  21808787.591   113564028.801       -1108.392          31.000  
C33  22231036.274   115762879.4921      -1279.053          26.000  
G10  20218594.558   106249412.622        -673.156          30.000    20218593.659    79342098.231        -502.303          29.000  
G32  22025182.284   115743074.371        -129.335          37.000    22025186.481    86431553.844         -97.688          25.000  
J01  38238856.890   200946541.808        -222.332          24.000  
> 2021  9 12 10 17 48.9999657  0  6
C06  36671871.692   190960058.845       -1502.565          30.000  
C25  21808701.250   113563576.150       -1109.048          29.000  
C33  22230984.110   115762597.895       -1279.690          26.000  
G10  20218423.976   106248510.523        -674.171          31.000    20218421.878    79341424.413        -502.600          28.000  
G32  22024905.275   115741627.027        -128.687          37.000  
J01  38238599.968   200945188.387        -220.966          24.000  
> 2021  9 12 10 17 49.9999649  0  6
C06  36671922.356   190960312.216       -1502.249          30.000  
C25  21808674.269   113563436.461       -1109.517          29.000  
C33  22230990.406   115762629.285       -1280.686          26.000  
G10  20218316.351   106247924.206        -670.965          29.000    20218310.355    79340985.948        -502.376          29.000  
G12  22215776.538   116744752.6401      -2286.116          17.000  
G32  22024688.825   115740494.632        -128.233          36.000  
> 2021  9 12 10 17 50.9999639  0  6
C06  36671913.962   190960253.161       -1501.817          30.000  
C25  21808587.329   113562985.014       -1110.201          30.000  
C33  22230935.544   115762349.093       -1280.875          27.000  
G10  20218142.171   106247022.193        -675.181          23.000    20218138.274    79340312.554        -503.905          29.000  
G32  22024413.916   115739046.996        -127.283          38.000  
J01  38238152.978   200942793.0271       -220.065          20.000  
> 2021  9 12 10 17 51.9999634  0  7
C06  36672049.169   190960974.583       -1502.167          30.000  
C25  21808650.585   113563314.547       -1109.946          31.000  
C33  22231032.976   115762849.392       -1281.688          27.000  
G10  20218119.687   106246909.503        -675.135          30.000    20218117.289    79340228.407        -503.856          30.000  
G12  22216204.642   116746966.4281      -2289.879          25.000  
G32  22024286.204   115738386.933        -128.542          38.000  
J01  38238044.153   200942224.140        -219.255          24.000  
> 2021  9 12 10 17 52.9999624  0  7
C06  36672035.678   190960915.605       -1499.911          30.000  
C25  21808562.446   113562863.019       -1109.047          31.000  
C33  22230982.611   115762569.804       -1281.492          22.000  
G10                                                                  20217946.407    79339557.024        -504.706          27.000  
G12  22216341.947   116747681.493       -2290.778          30.000  
G32  22024011.294   115736939.439        -128.645          37.000  
J01  38237785.132   200940868.117        -219.620          26.000  
> 2021  9 12 10 17 53.9999616  0  5
C06  36672089.940   190961168.586       -1500.294          29.000  
C25  21808532.767   113562723.440       -1110.664          32.000  
G10  20217833.085   106245425.2281       -676.671          33.000    20217835.484    79339120.149        -504.347          28.000  
G12  22216539.510   116748711.627       -2290.575          29.000  
G32  22023797.242   115735806.902        -127.911          36.000  
> 2021  9 12 10 17 54.9999606  0  6
C06  36672075.251   190961109.347       -1503.815          29.000  
C25  21808446.726                       -1110.907          32.000  
G10  20217666.701   106244526.885        -677.131          32.000    20217664.002    79338447.936        -505.053          27.000  
G12  22216678.913   116749427.245       -2291.441          30.000  
G32  22023525.031   115734359.444        -127.455          35.000  
J01  38237327.649   200938475.3961       -222.918          27.000  
> 2021  9 12 10 17 55.9999598  0  6
C06  36672126.215   190961362.339       -1501.264          27.000  
C25  21808420.944   113562168.1981      -1109.934          33.000  
G10  20217552.180                        -677.961          33.000    20217553.079    79338013.353        -507.044          27.000  
G12  22216878.875   116750458.159       -2291.747          30.000  
G32  22023304.384   115733227.069        -129.308          34.000  
J01  38237129.486   200937438.294        -223.334          27.000  
> 2021  9 12 10 17 56.9999590  0  7
C06  36672175.981   190961615.212       -1502.501          29.000  
C25  21808396.361   113562031.050       -1110.568          32.000  
C33  22230955.929   115762396.7011      -1281.790          19.000  
G10  20217440.057   106243371.8301       -678.950          32.000    20217442.156    79337579.231        -504.654          26.000  
G12  22217077.937   116751490.305       -2293.057          31.000  
G32  22023090.931   115732094.752        -128.481          34.000  
J01  38236930.724   200936401.051        -223.044          26.000  
> 2021  9 12 10 17 57.9999580  0  6
C06  36672160.092   190961555.778       -1502.890          28.000  
C25  21808306.124   113561582.149       -1113.539          32.000  
G10  20217268.576   106242475.099        -677.584          32.000    20217270.675    79336907.870        -504.727          26.000  
G12  22217215.542   116752208.011       -2292.696          29.000  
G32  22022813.923   115730647.288        -127.128          35.000  
J01  38236672.003   200935048.724        -222.370          26.000  
> 2021  9 12 10 17 58.9999572  0  6
C06  36672205.061   190961808.629       -1502.733          28.000  
C25  21808282.440   113561446.151       -1112.015          32.000  
C33  22230907.363   115762152.9961      -1283.552          24.000  
G10  20217162.150   106241894.112        -679.841          31.000    20217160.951    79336474.092        -507.889          26.000  
G12  22217408.908   116753240.641       -2293.134          28.000  
G32  22022596.873   115729515.092        -127.364          35.000  
> 2021  9 12 10 17 59.9999565  0  7
C06  36672287.204   190962217.487       -1505.118          29.000  
C25  21808284.839   113561466.741       -1113.964          32.000  
C33  22230943.638   115762343.523       -1283.458          21.000  
G10  20217079.407   106241471.438        -681.123          32.000    20217080.606    79336159.351        -508.429          26.000  
G12  22217633.752   116754431.280       -2294.302          29.000  
G32  22022411.602   115728540.367        -129.224          32.000  
J01  38236305.956   200933130.7341       -223.461          23.000  
> 2021  9 12 10 18  0.9999557  0  7
C06  36672336.670   190962470.170       -1499.691          28.000  
C25  21808259.056   113561331.618       -1115.726          31.000  
C33  22230948.435   115762378.854       -1286.097          22.000  
G10  20216965.786   106240891.687        -680.699          32.000    20216971.182    79335727.707        -510.444          26.000  
G12  22217828.917   116755465.650       -2295.690          29.000  
G32  22022200.248   115727408.167        -127.190          30.000  
J01  38236108.093   200932093.387        -222.955          24.000  
> 2021  9 12 10 18  1.9999547  0  6
C06  36672324.378   190962410.524       -1505.568          28.000  
C25  21808169.718   113560884.725       -1112.909          31.000  
G10  20216801.799   106239997.378        -682.195          30.000    20216800.300    79335059.603        -506.907          26.000  
G12  22217965.023   116756186.119       -2296.589          29.000  
G32  22021921.741   115725960.746        -127.917          31.000  
J01  38235852.070   200930740.911        -222.164          23.000  
> 2021  9 12 10 18  2.9999537  0  5
C06  36672316.284   190962350.492       -1501.931          29.000  
C25  21808082.778   113560438.261       -1115.851          31.000  
G10  20216629.419   106239103.638        -682.732          31.000    20216629.718    79334390.249        -508.347          27.000  
G32  22021649.829   115724513.294        -128.186          30.000  
J01  38235593.649   200929386.526        -220.350          26.000  
> 2021  9 12 10 18  3.9999532  0  6
C06  36672452.689   190963071.753       -1501.738          28.000  
C25  21808148.733   113560773.068       -1114.043          31.000  
G10  20216608.433   106238998.403        -684.956          31.000    20216610.232    79334312.641        -512.301          26.000  
G12  22218388.030   116758416.5031      -2298.144          29.000  
G32  22021522.717   115723857.785        -132.812          27.000  
J01  38235488.422   200928818.116        -219.142          25.000  
> 2021  9 12 10 18  4.9999521  0  4
C06  36672407.720   190962855.154       -1500.975          28.000  
C25  21808036.610   113560171.535       -1115.350          31.000  
G10  20216411.769   106237948.348        -683.001          31.000    20216410.270    79333529.257        -509.512          27.000  
J01  38235201.221   200927305.165        -219.934          25.000  
> 2021  9 12 10 18  5.9999514  0  6
C06  36672485.966   190963262.964       -1501.102          26.000  
C25  21808040.508   113560194.860       -1117.175          31.000  
G10  20216332.924   106237529.050        -681.829          31.000    20216329.926    79333215.227        -508.879          27.000  
G12  22218723.798   116760178.4811      -2298.635          30.000  
G32  22021028.359   115721281.4051       -127.107          22.000  
J01  38235035.436   200926423.114        -219.935          27.000  
