     3.04           OBSERVATION DATA    M: Mixed            RINEX VERSION / TYPE
Higeo_Hi1105        Huawei CBG          20220123 112130 UTC PGM / RUN BY / DATE 
************************************************************COMMENT             
* If you have any problem,                                 *COMMENT             
*     please contact with LBS Technology Group, thanks.    *COMMENT             
*                                                          *COMMENT             
* Version Higeo2RinexV1.1 2020.07.21                       *COMMENT             
* Fuction:  Convert Higeo Log to Rinex file                *COMMENT             
*                                                          *COMMENT             
* Note that the verision support B1C B2A signal            *COMMENT             
*     BDS: C1D L1D D1D S1D indicate BDS B1C                *COMMENT             
*     BDS: C5D L5D D5D S5D indicate BDS B2A                *COMMENT             
*     Reference: RINEX V3.04                               *COMMENT             
*                                                          *COMMENT             
* Copyright(C) Huawei Technologies Co., Ltd. 2019 - 2020   *COMMENT             
*     All rights reserved.                                 *COMMENT             
************************************************************COMMENT             
                                                            MARKER NAME         
                                                            MARKER NUMBER       
                                                            MARKER TYPE         
                                                            OBSERVER / AGENCY   
                                                            REC # / TYPE / VERS 
                                                            ANT # / TYPE        
        0.0000        0.0000        0.0000                  APPROX POSITION XYZ 
        0.0000        0.0000        0.0000                  ANTENNA: DELTA H/E/N
G    8 C1C L1C D1C S1C C5I L5I D5I S5I                      SYS / # / OBS TYPES 
R    4 C1C L1C D1C S1C                                      SYS / # / OBS TYPES 
E    8 C1C L1C D1C S1C C5I L5I D5I S5I                      SYS / # / OBS TYPES 
J    8 C1C L1C D1C S1C C5I L5I D5I S5I                      SYS / # / OBS TYPES 
C   12 C2I L2I D2I S2I C1D L1D D1D S1D C5D L5D D5D S5D      SYS / # / OBS TYPES 
  2021    12     7     4    24    6.0000000     GPS         TIME OF FIRST OBS   
  2021    12     7     4    45   37.0000000     GPS         TIME OF LAST OBS    
G                                                           SYS / PHASE SHIFT   
R                                                           SYS / PHASE SHIFT   
E                                                           SYS / PHASE SHIFT   
J                                                           SYS / PHASE SHIFT   
C                                                           SYS / PHASE SHIFT   
  0                                                         GLONASS SLOT / FRQ #
 C1C    0.000 C1P    0.000 C2C    0.000 C2P    0.000        GLONASS COD/PHS/BIS 
                                                            END OF HEADER       
> 2021 12  7  4 24  6.0000000  0  3                     
G10                      4906.191         481.951          20.000                                                                  
G32                     -8724.778       -1018.587          29.000                                                                  
C21                       668.601         119.411          26.000                                                                                                                                  
> 2021 12  7  4 24  7.0000000  0  3                     
G10                      7438.063         481.172          24.000                                                                  
G32                    -14075.254       -1019.302          29.000                                                                  
C21                      1255.837         114.516          29.000                                                                                                                                  
> 2021 12  7  4 24  8.0000000  0  6                     
G10                      9953.428         476.052          28.000                                                                  
G25                     -8028.685       -1883.497          24.000                                                                  
G31                    -11739.633       -2781.867          21.000                                                                  
G32                    -19443.737       -1021.190          28.000                                                                  
R 8                                                        22.000  
C21                      1798.054         115.193          27.000                                                                                                                                  
> 2021 12  7  4 24  9.0000000  0  6                     
G10                     12450.101         475.222          29.000                                                                  
G25                    -17930.598       -1881.870          20.000                                                                  
G31                    -26380.660       -2787.390          24.000                                                                  
G32                    -24807.149       -1021.316          28.000                                                                  
R 8                                                        23.000  
C21                      2353.516         102.051          28.000                                                                                                                                  
> 2021 12  7  4 24 10.0000000  0  7                     
G10                     14953.014         476.937          29.000                                                                  
G21                     -5775.852        -718.472          18.000                                                                  
G25                    -27826.459       -1882.642          17.000                                                                  
G31                    -41035.991       -2789.430          29.000                                                                  
G32                    -30189.151       -1025.160          30.000                                                                  
R 8                                                        22.000  
C21                      2877.213          98.569          27.000                                                                                                                                  
> 2021 12  7  4 24 11.0000000  0  8                     
G10                     17447.083         474.042          30.000                                                                  
G21                     -9560.764        -720.943          18.000                                                                  
G25                    -37725.238       -1884.310          16.000                                                                  
G31                    -55702.332       -2791.542          30.000                                                                  
G32                    -35580.229       -1023.936          30.000                                                                  
R 8                                                        25.000  
R 9                                                        19.000  
C21                      3387.942          96.240          29.000                                                                                                                                  
> 2021 12  7  4 24 12.0000000  0  8                     
G10                     19935.283         472.181          32.000                                                                  
G21                    -13345.548        -720.906          18.000                                                                  
G25                    -47648.122       -1888.511          20.000                                                                  
G31                    -70373.389       -2792.852          28.000                                                                  
G32                    -40972.027       -1027.534          35.000                                                                  
R 8                                                        29.000  
R 9                                                        20.000  
C21                      3880.229          94.063          30.000                                                                                                                                  
> 2021 12  7  4 24 13.0000000  0  8                     
G10                     22418.677         470.683          29.000                                                                  
G21                    -17146.910        -727.090          22.000                                                                  
G25                    -57578.089       -1891.726          20.000                                                                  
G31                    -85048.827       -2795.199          25.000                                                                  
G32                    -46374.189       -1028.059          35.000                                                                  
R 8                                                        29.000  
R 9                                                        20.000  
C21                      4373.101          94.016          27.000                                                                                                                                  
> 2021 12  7  4 24 14.0000000  0  7                     
G10                     24885.246         469.967          28.000                                                                  
G21                    -20960.201        -725.503          21.000                                                                  
G25                    -67516.070       -1892.326          20.000                                                                  
G31                    -99735.695       -2792.386          19.000                                                                  
G32                    -51786.527       -1031.609          33.000                                                                  
R 8                                                        29.000  
C21                      4849.198          89.454          26.000                                                                                                                                  
> 2021 12  7  4 24 15.0000000  0  7                     
G10                     27358.693         468.472          27.000                                                                  
G21                    -24774.981        -726.706          22.000                                                                  
G25                    -77460.619       -1892.719          22.000                      -18279.587       -1400.810          19.000  
G31                   -114422.652       -2794.711          22.000                                                                  
G32                    -57202.760       -1032.059          34.000                                                                  
R 8                                                        30.000  
C21                      5317.902          91.293          27.000                                                                                                                                  
> 2021 12  7  4 24 16.0000000  0  8                     
G10                     31824.698         466.734          27.000                                                                  
G21                    -31714.577        -725.402          20.000                                                                  
G25                    -95558.416       -1895.373          24.000                      -28348.957       -1416.193          23.000  
G31                   -141133.543       -2796.521          18.000                                                                  
G32                    -67076.145       -1034.259          33.000                                                                  
R 8                                                        25.000  
C13                      9243.585        1699.118          27.000                                                                                                                                  
C21                      6180.943          90.911          28.000                                                                                                                                  
> 2021 12  7  4 24 17.0000000  0  9                     
G10                     34280.003         467.419          26.000                                                                  
G21                    -35536.631        -727.768          20.000                                                                  
G25                   -105517.969       -1893.946          19.000                      -33906.319       -1416.411          23.000  
G31                   -155838.040       -2797.720          28.000                                                                  
G32                    -72517.379       -1036.280          35.000                                                                  
R 8                                                        27.000  
C 6                      1420.811         186.209          24.000                                                                                                                                  
C13                     18092.358        1700.594          30.000                                                                                                                                  
C21                      6646.804          87.669          27.000                                                                                                                                  
> 2021 12  7  4 24 18.0000000  0 12                     
G10                     36733.323         465.783          29.000                                                                  
G21                    -39359.308        -726.733          19.000                                                                  
G25                   -115475.238       -1894.858          19.000                      -39464.161       -1416.188          19.000  
G31                   -170547.458       -2800.897          28.000                                                                  
G32                    -77960.175       -1037.043          32.000                                                                  
R 8                                                        20.000  
R 9                                                        20.000  
C 6                      2383.547         182.992          26.000                                                                                                                                  
C 8                     14995.550        1863.058          20.000                                                                                                                                  
C 9                      1192.322         145.378          23.000                                                                                                                                  
C13                     26936.364        1696.675          25.000                                                                                                                                  
C21                      7104.987          87.870          30.000                                                                                                                                  
> 2021 12  7  4 24 19.0000000  0 13                     
G10                     39180.844         467.232          29.000                                                                  
G21                    -43180.498        -729.035          15.000                                                                  
G25                   -125446.911       -1897.847          27.000                      -45016.041       -1412.979          17.000  
G31                   -185272.159       -2801.920          30.000                                                                  
G32                    -83420.046       -1038.095          30.000                                                                  
R 8                                                        19.000  
R 9                                                        23.000  
E 9                    -21161.000        -878.531          26.000                                                                  
C 6                      3332.446         182.250          23.000                                                                                                                                  
C 8                     24690.795        1863.425          17.000                                                                                                                                  
C 9                      1958.377         147.614          18.000                                                                                                                                  
C13                     35772.472        1696.973          19.000                                                                                                                                  
C21                      7557.162          84.558          29.000                                                                                                                                  
> 2021 12  7  4 24 20.0000000  0 14                     
G10                     41628.665         464.053          32.000                                                                  
G21                    -47018.365        -733.825          17.000                                                                  
G25                   -135423.800       -1899.014          30.000                      -50565.207       -1419.474          20.000  
G31                   -199999.142       -2803.604          30.000                                                                  
G32                    -88869.465       -1036.319          21.000                                                                  
R 8                                                        17.000  
R 9                                                        18.000  
E 9                    -25768.788        -877.622          22.000                                                                  
E36                      3982.620        1636.499          20.000                                                                  
C 6                      4277.579         181.616          22.000                                                                                                                                  
C 8                     34376.962        1859.221          20.000                                                                                                                                  
C 9                      2732.493         149.160          17.000                                                                                                                                  
C13                     44599.704        1693.766          21.000                                                                                                                                  
C21                      8001.851          84.913          26.000                                                                                                                                  
> 2021 12  7  4 24 21.0000000  0 13                     
G10                     44067.794         463.632          32.000                        1763.944         348.364          21.000  
G21                    -50866.217           0.014          14.000                                                                  
G25                   -145408.475       -1899.030          34.000                      -56133.419       -1419.050          28.000  
G31                   -214738.178       -2805.412          24.000                                                                  
G32                    -94322.811       -1039.128          30.000                                                                  
R 8                                                        18.000  
R 9                                                        20.000  
E 9                    -30388.703        -879.953          25.000                                                                  
C 6                      5216.021         178.006          23.000                                                                                                                                  
C 8                     44045.270        1855.847          20.000                                                                                                                                  
C 9                      3496.253         145.121          22.000                                                                                                                                  
C13                     53420.637        1694.023          23.000                                                                                                                                  
C21                      8446.555          84.699          28.000                                                                                                                                  
> 2021 12  7  4 24 22.0000000  0 16                     
G10                     46496.507         461.168          34.000                        3121.091         345.692          21.000  
G21                    -54711.868           0.014          17.000                                                                  
G25                   -155398.208       -1900.790          33.000                      -61705.166       -1419.870          27.000  
G31                   -229486.882       -2806.804          25.000                                                                  
G32                    -99797.602       -1043.931          24.000                                                                  
R 8                                                        17.000  
R 9                                                        25.000  
E 9                    -35016.603        -881.276          26.000                                                                  
E36                                                                                      7406.220        1218.311          22.000  
C 3                       658.871         120.375          32.000                                                                                                                                  
C 6                      6141.344         177.818          23.000                                                                                                                                  
C 8                     53707.238        1854.548          19.000                                                                                                                                  
C 9                      4244.098         140.945          22.000                                                                                                                                  
C13                     62240.490        1694.428          20.000                                                                                                                                  
C21                      8880.371          84.508          25.000                                                                                         749.561          64.766          18.000  
C26                     -9404.422       -2000.255          29.000                                                                                                                                  
> 2021 12  7  4 24 23.0000000  0 17                     
G10                     48923.918         460.611          32.000                        4475.737         345.680          22.000  
G21                    -58566.890        -732.714          17.000                                                                  
G25                   -165389.513       -1901.018          34.000                      -67278.321       -1420.736          30.000  
G31                   -244229.619       -2804.650          23.000                                                                  
G32                   -105281.942       -1043.761          27.000                                                                  
R 8                                                        18.000  
R 9                                                        22.000  
E 9                    -39652.430        -882.887          24.000                                                                  
E24                    -13193.532       -3036.717          22.000                                                                  
E36                      9330.711        1633.827          20.000                       12187.323        1218.526          25.000  
C 3                      1288.591         123.015          30.000                                                                                                                                  
C 6                      7060.181         176.129          22.000                                                                                                                                  
C 8                     63365.684        1854.391          20.000                                                                                                                                  
C 9                      4968.441         137.999          22.000                                                                                                                                  
C13                     71055.327        1691.724          25.000                                                                                                                                  
C21                      9315.434          82.184          27.000                                                                                         994.479          62.088          19.000  
C26                    -19827.070       -2001.943          30.000                                                                                                                                  
> 2021 12  7  4 24 24.0000000  0 18                     
G10                     51343.075         461.412          33.000                        5827.692         344.878          22.000  
G12                       140.957         -15.429          18.000                                                                  
G21                    -62422.449        -733.870          20.000                                                                  
G25                   -175394.809       -1905.061          32.000                      -72854.786       -1420.431          29.000  
G31                   -258974.256       -2806.585          27.000                                                                  
G32                   -110770.276       -1043.628          23.000                                                                  
R 8                                                        18.000  
R 9                                                        21.000  
E 4                      7292.232         982.685          16.000                                                                  
E 9                    -44294.737        -884.057          25.000                                                                  
E24                    -29156.260       -3037.530          22.000                                                                  
E36                     17913.852        1632.093          17.000                       16966.107        1218.084          25.000  
C 3                      1910.971         121.521          31.000                                                                                                                                  
C 8                     73026.510        1856.090          20.000                                                                                                                                  
C 9                      5686.540         137.899          20.000                                                                                                                                  
C13                     79867.496        1692.155          22.000                                                                                                                                  
C21                      9739.153          80.981          22.000                                                                                        1234.497          61.294          20.000  
C26                    -30250.128       -2004.266          27.000                                                                                                                                  
> 2021 12  7  4 24 25.0000000  0 19                     
G10                     53764.952         460.496          34.000                        7177.660         343.264          22.000  
G12                        54.657         -13.525          17.000                                                                  
G21                    -66276.879        -734.249          18.000                                                                  
G25                   -185400.314       -1902.617          33.000                      -78433.512       -1421.127          29.000  
G31                   -273724.215       -2807.197          29.000                                                                  
G32                   -116258.455       -1044.049          27.000                                                                  
R 8                                                        20.000  
R 9                                                        21.000  
E 9                    -48944.339        -885.322          23.000                                                                  
E24                    -45128.592       -3041.909          18.000                                                                  
E36                                                                                     21741.898        1217.400          24.000  
C 3                      2570.029         135.342          30.000                                                                                                                                  
C 6                      1211.851         173.373          22.000                                                                                                                                  
C 8                     82686.056        1854.204          21.000                                                                                                                                  
C 9                      6399.795         134.553          24.000                                                                                                                                  
C13                     88666.912        1687.721          20.000                                                                                                                                  
C21                     10160.155          79.775          25.000                                                                                        1472.943          60.940          17.000  
C22                     18184.845        2333.116          17.000                                                                                                                                  
C26                    -40683.803       -2003.515          27.000                                                                                                                                  
> 2021 12  7  4 24 26.0000000  0 20                     
G10                     56188.195         462.668          27.000                        8527.906         344.813          19.000  
G12                       -42.694         -17.749          17.000                                                                  
G21                    -70138.122        -735.702          17.000                                                                  
G25                   -195404.955       -1905.504          30.000                      -84013.297       -1422.344          29.000  
G31                   -288476.759       -2808.704          26.000                                                                  
G32                   -121751.921       -1044.786          25.000                       -3786.925        -783.267          23.000  
R 8                                                        22.000  
R 9                                                        20.000  
E 9                    -53601.427        -884.345          19.000                                                                  
E24                    -61105.703       -3039.620          20.000                                                                  
E36                     11268.345        1628.793          20.000                       26511.965        1214.631          25.000  
J 2                     30794.414         299.966          29.000                                                                  
C 3                      3304.825         139.775          23.000                                                                                                                                  
C 6                      2105.749         171.862          19.000                                                                                                                                  
C 8                     92332.743        1851.169          24.000                                                                                                                                  
C 9                      7090.386         132.022          26.000                                                                                                                                  
C13                     97447.698        1685.391          21.000                                                                                                                                  
C21                     10582.572          81.481          23.000                                                                                        1712.420          61.699          19.000  
C22                     30323.746        2329.520          13.000                                                                                                                                  
C26                    -51117.321       -2004.142          32.000                                                                                                                                  
> 2021 12  7  4 24 27.0000000  0 21                     
G10                     58603.513         458.414          27.000                        9874.665         342.156          22.000  
G12                      -136.100         -21.654          14.000                                                                  
G21                    -74005.945        -736.292          17.000                                                                  
G25                   -205416.113       -1905.565          33.000                      -89599.066       -1423.122          27.000  
G31                   -303241.510       -2809.833          26.000                                                                  
G32                   -127245.435       -1048.678          26.000                       -6858.984        -783.240          20.000  
R 8                                                        19.000  
R 9                                                        22.000  
E 4                     22795.408         977.464          15.000                                                                  
E 9                    -58247.802        -886.160          19.000                                                                  
E24                    -77084.463       -3041.514          22.000                                                                  
E36                     19821.927        1625.936          17.000                       31284.036        1215.763          27.000  
J 2                     32355.086         294.887          30.000                                                                  
C 3                      3992.730         140.875          26.000                                                                                                                                  
C 6                      2988.877         165.752          18.000                                                                                                                                  
C 8                    101971.037        1850.767          21.000                                                                                                                                  
C 9                      7777.359         132.103          21.000                                                                                                                                  
C13                    106227.335        1688.888          17.000                                                                                                                                  
C21                     10997.591          78.571          23.000                                                                                        1943.003          59.115          18.000  
C22                     42439.271        2327.114          16.000                                                                                                                                  
C26                    -61564.838       -2007.123          29.000                                                                                                                                  
> 2021 12  7  4 24 28.0000000  0 20                     
G10                     61009.247         457.560          28.000                       11213.850         342.328          19.000  
G12                      -247.649          -0.013          13.000                                                                  
G21                    -77873.209        -735.311          16.000                                                                  
G25                   -215431.504       -1906.226          33.000                      -95185.595       -1422.956          29.000  
G31                   -318013.719       -2813.150          30.000                                                                  
G32                   -132757.261       -1047.859          19.000                       -9933.213        -783.843          19.000  
R 8                                                        19.000  
R 9                                                        20.000  
E 4                     27936.329         976.963          17.000                                                                  
E24                    -93075.823       -3043.721          24.000                                                                  
E36                     28358.413        1623.770          19.000                       36050.556        1214.395          26.000  
J 2                     33913.278         296.653          30.000                                                                  
C 3                      4652.200         115.973          27.000                                                                                                                                  
C 6                      3852.926         167.064          21.000                                                                                                                                  
C 8                    111601.863        1848.795          23.000                                                                                                                                  
C 9                      8467.460          -0.046          18.000                                                                                                                                  
C13                    115014.523        1687.092          18.000                                                                                                                                  
C21                     11404.743          76.590          22.000                                                                                        2173.395          57.656          17.000  
C22                     54552.964        2328.249          17.000                                                                                                                                  
C26                    -72014.131       -2005.446          32.000                                                                                                                                  
> 2021 12  7  4 24 29.0000000  0 21                     
G10                     63422.513         458.064          29.000                       12553.523         339.052          21.000  
G12                      -352.283          -0.013          17.000                                                                  
G21                    -81742.711        -737.323          14.000                                                                  
G25                   -225454.415       -1907.452          33.000                     -100773.513       -1424.367          28.000  
G31                   -332799.291       -2812.879          27.000                                                                  
G32                   -138252.926       -1047.959          16.000                      -13005.188        -784.134          16.000  
R 8                                                        17.000  
R 9                                                        17.000  
E 4                     33063.380         975.461          13.000                                                                  
E 9                    -67573.135        -889.405          22.000                                                                  
E24                   -109074.107       -3044.949          24.000                                                                  
E36                     36897.142        1627.723          17.000                       40813.283        1214.376          25.000  
J 2                     35465.491         292.314          33.000                                                                  
C 3                      5203.811         114.223          25.000                                                                                                                                  
C 6                      4725.065         166.934          17.000                                                                                                                                  
C 8                    121226.373        1847.493          24.000                                                                                                                                  
C 9                      9151.339         132.836          18.000                                                                                                                                  
C13                    123789.508        1683.922          22.000                                                                                                                                  
C21                     11802.189          75.184          24.000                                                                                        2401.691          59.229          17.000  
C22                     66658.537        2320.868          18.000                                                                                                                                  
C26                    -82464.118       -2006.942          33.000                                                                                                                                  
> 2021 12  7  4 24 30.0000000  0 20                     
G10                     65822.667         455.622          28.000                       13886.111         339.931          18.000  
G12                      -476.282         -23.151          17.000                                                                  
G21                    -85614.747           0.014          17.000                                                                  
G25                   -235474.774       -1905.527          33.000                     -106365.284       -1423.569          28.000  
G31                   -347576.478       -2811.949          29.000                                                                  
G32                   -143761.010       -1049.435          17.000                      -16083.034        -782.097          14.000  
R 8                                                        18.000  
R 9                                                        18.000  
E 4                     38185.237         973.805          13.000                                                                  
E 9                    -72265.894        -895.660          18.000                                                                  
E24                   -125080.475       -3046.416          23.000                                                                  
E36                     45438.308        1627.870          16.000                       45574.455        1212.851          25.000  
J 2                     37014.251         294.989          31.000                                                                  
C 3                      5813.018         103.670          27.000                                                                                                                                  
C 6                      5594.336         165.662          20.000                                                                                                                                  
C 8                    130844.973        1847.400          22.000                                                                                                                                  
C 9                      9842.616         133.078          19.000                                                                                                                                  
C13                    132557.284        1685.011          17.000                                                                                                                                  
C21                     12191.278          74.184          22.000                                                                                        2635.522          60.035          17.000  
C26                    -92917.030       -2010.313          32.000                                                                                                                                  
> 2021 12  7  4 24 31.0000000  0 20                     
G10                     68214.123         454.713          28.000                       15218.976         338.994          20.000  
G12                      -601.847         -23.472          18.000                                                                  
G21                    -89503.156        -740.320          15.000                                                                  
G25                   -245497.201       -1910.334          33.000                     -111956.407       -1424.876          29.000  
G31                   -362369.399       -2815.258          28.000                                                                  
G32                   -149280.213       -1051.592          25.000                      -19155.842        -783.751          18.000  
R 8                                                        17.000  
R 9                                                        17.000  
E 4                     43299.236         972.284          14.000                                                                  
E 9                    -76969.383        -893.769          18.000                                                                  
E24                   -141090.950       -3047.761          18.000                                                                  
E36                     53994.246        1627.764          13.000                       50330.629        1211.809          27.000  
J 2                     38558.204         291.615          35.000                                                                  
C 3                      6315.616          90.844          23.000                                                                                                                                  
C 6                      6452.284         164.312          17.000                                                                                                                                  
C 8                    140455.959        1843.562          19.000                                                                                                                                  
C 9                     10524.716         128.977          19.000                                                                                                                                  
C13                    141323.101        1682.319          19.000                                                                                                                                  
C21                     12577.568          72.755          28.000                                                                                        2867.150          60.423          19.000  
C26                   -103378.923       -2009.537          35.000                                                                                                                                  
> 2021 12  7  4 24 32.0000000  0 22                     
G10                     70608.034         455.273          22.000                       16555.110         340.911          23.000  
G12                      -726.752         -23.371          18.000                                                                  
G21                    -93389.758        -739.981          16.000                                                                  
G25                   -255528.062       -1908.597          33.000                     -117550.914       -1424.940          27.000  
G31                   -377165.701       -2816.345          24.000                                                                  
G32                   -154825.576       -1055.980          29.000                      -22239.984        -784.502          20.000  
R 8                                                        18.000  
R 9                                                        16.000  
E 4                     48401.695         970.580          11.000                                                                  
E 9                    -81661.733        -894.352          15.000                                                                  
E24                   -157097.366       -3048.047          15.000                                                                  
E36                     62545.312        1625.640          13.000                       55086.163        1212.407          26.000  
J 1                    -31545.367        -763.295          27.000                                                                  
J 2                     40089.847         291.248          33.000                                                                  
C 3                      6766.929          88.354          25.000                                                                                                                                  
C 6                      7307.186         164.296          17.000                                                                                                                                  
C 8                    150056.590        1843.687          19.000                                                                                                                                  
C 9                     11195.146         127.638          20.000                                                                                                                                  
C13                    150071.005        1677.818          17.000                                                                                                                                  
C21                     12963.026          74.170          32.000                                                                                        3085.863          56.647          18.000  
C22                     25920.152        2320.286          22.000                                                                                                                                  
C26                   -113843.005       -2011.425          34.000                                                                                                                                  
> 2021 12  7  4 24 33.0000000  0 22                     
G10                     73002.335         454.880          24.000                       17887.647         340.149          25.000  
G12                      -849.137         -24.418          18.000                                                                  
G21                    -97275.036        -740.602          16.000                                                                  
G25                   -265570.258       -1910.337          34.000                     -123148.972       -1426.638          29.000  
G31                   -391959.323       -2815.071          25.000                                                                  
G32                   -160379.642       -1055.744          27.000                      -25313.876        -785.726          18.000  
R 8                                                        19.000  
R 9                                                        19.000  
E 4                     53497.994         969.022          12.000                                                                  
E 9                    -86360.713        -893.991          16.000                                                                  
E24                   -173123.169       -3050.905          17.000                                                                  
E36                     71085.774        1624.636          15.000                       59838.712        1211.625          26.000  
J 1                    -35558.343        -763.539          29.000                                                                  
J 2                     41614.553         289.389          34.000                                                                  
C 3                      7251.837         110.781          26.000                                                                                                                                  
C 6                      8156.652         163.719          15.000                                                                                                                                  
C 8                    159654.456        1841.963          18.000                                                                                                                                  
C 9                     11853.603         126.742          20.000                                                                                                                                  
C13                    158809.554        1678.469          17.000                                                                                                                                  
C21                     13338.041          71.405          28.000                                                                                        3306.316          55.251          18.000  
C22                     37995.092        2318.939          20.000                                                                                                                                  
C26                   -124319.383       -2012.505          34.000                                                                                                                                  
> 2021 12  7  4 24 34.0000000  0 23                     
G10                     75396.591         456.109          29.000                       19214.867         333.880          19.000  
G12                      -975.785         -24.154          16.000                                                                  
G21                   -101172.905        -743.074          15.000                                                                  
G25                   -275599.861       -1910.262          27.000                     -128746.436       -1430.033          21.000  
G31                   -406756.308       -2816.937          32.000                                                                  
G32                   -165915.094       -1053.442          25.000                      -28399.103        -785.927          17.000  
R 8                                                        19.000  
R 9                                                        21.000  
