$GPGGA,040753.000,3113.606815,N,12131.751171,E,1,19,0.8,6.8,M,,M,,*41
$GPRMC,040753.000,A,3113.606815,N,12131.751171,E,0.6,28.5574618,250122,,E,A*10
$GPGGA,040754.000,3113.606308,N,12131.754840,E,1,19,0.8,17.5,M,,M,,*72
$GPRMC,040754.000,A,3113.606308,N,12131.754840,E,0.3,29.020029537,250122,,E,A*1E
$GPGGA,040755.000,3113.601633,N,12131.752184,E,1,19,0.8,-33.7,M,,M,,*57
$GPRMC,040755.000,A,3113.601633,N,12131.752184,E,0.3,50.741581804,250122,,E,A*16
$GPGGA,040756.000,3113.600766,N,12131.752407,E,1,19,0.8,-31.1,M,,M,,*5E
$GPRMC,040756.000,A,3113.600766,N,12131.752407,E,0.3,55.308290733,250122,,E,A*1B
$GPGGA,040757.000,3113.601789,N,12131.752725,E,1,19,0.8,-22.2,M,,M,,*5D
$GPRMC,040757.000,A,3113.601789,N,12131.752725,E,0.1,36.304877164000004,250122,,E,A*11
$GPGGA,040758.000,3113.601813,N,12131.752852,E,1,19,0.8,-21.5,M,,M,,*55
$GPRMC,040758.000,A,3113.601813,N,12131.752852,E,0.1,4.530499961,250122,,E,A*28
$GPGGA,040759.000,3113.601628,N,12131.752910,E,1,19,0.8,-20.6,M,,M,,*57
$GPRMC,040759.000,A,3113.601628,N,12131.752910,E,0.1,159.196234203,250122,,E,A*27
$GPGGA,040800.000,3113.601088,N,12131.753116,E,1,19,0.8,-20.6,M,,M,,*57
$GPRMC,040800.000,A,3113.601088,N,12131.753116,E,0.3,151.452766688,250122,,E,A*25
$GPGGA,040801.000,3113.601021,N,12131.753590,E,1,19,0.8,-19.3,M,,M,,*50
$GPRMC,040801.000,A,3113.601021,N,12131.753590,E,0.3,137.83793189,250122,,E,A*19
$GPGGA,040802.000,3113.601227,N,12131.753370,E,1,19,0.8,-19.2,M,,M,,*5E
$GPRMC,040802.000,A,3113.601227,N,12131.753370,E,0.1,132.297132107,250122,,E,A*2D
$GPGGA,040803.000,3113.601150,N,12131.753249,E,1,19,0.8,-19.2,M,,M,,*57
$GPRMC,040803.000,A,3113.601150,N,12131.753249,E,0.2,133.480544357,250122,,E,A*24
$GPGGA,040804.000,3113.602925,N,12131.751911,E,1,19,0.8,-19.4,M,,M,,*5B
$GPRMC,040804.000,A,3113.602925,N,12131.751911,E,0.5,105.26036071600001,250122,,E,A*14
$GPGGA,040805.000,3113.603228,N,12131.751444,E,1,19,0.8,-22.3,M,,M,,*5F
$GPRMC,040805.000,A,3113.603228,N,12131.751444,E,0.6,211.284404893,250122,,E,A*26
$GPGGA,040806.000,3113.603010,N,12131.751418,E,1,19,0.8,-23.2,M,,M,,*5C
$GPRMC,040806.000,A,3113.603010,N,12131.751418,E,0.4,126.16974201,250122,,E,A*12
$GPGGA,040807.000,3113.603061,N,12131.751355,E,1,19,0.8,-23.1,M,,M,,*56
$GPRMC,040807.000,A,3113.603061,N,12131.751355,E,0.3,121.574814155,250122,,E,A*2F
$GPGGA,040808.000,3113.602978,N,12131.751339,E,1,19,0.8,-23.5,M,,M,,*57
$GPRMC,040808.000,A,3113.602978,N,12131.751339,E,0.3,110.854989221,250122,,E,A*22
$GPGGA,040809.000,3113.603043,N,12131.751230,E,1,19,0.8,-23.6,M,,M,,*5D
$GPRMC,040809.000,A,3113.603043,N,12131.751230,E,0.3,111.218389441,250122,,E,A*22
$GPGGA,040810.000,3113.602879,N,12131.751057,E,1,19,0.8,-23.6,M,,M,,*56
$GPRMC,040810.000,A,3113.602879,N,12131.751057,E,0.4,144.77538243200001,250122,,E,A*1E
$GPGGA,040811.000,3113.602113,N,12131.752158,E,1,19,0.8,-27.9,M,,M,,*54
$GPRMC,040811.000,A,3113.602113,N,12131.752158,E,0.2,228.4278384,250122,,E,A*26
$GPGGA,040812.000,3113.601926,N,12131.752271,E,1,19,0.8,-28.6,M,,M,,*52
$GPRMC,040812.000,A,3113.601926,N,12131.752271,E,0.1,193.463635178,250122,,E,A*29
$GPGGA,040813.000,3113.601839,N,12131.752349,E,1,19,0.8,-29.3,M,,M,,*52
$GPRMC,040813.000,A,3113.601839,N,12131.752349,E,0.1,171.544929498,250122,,E,A*2C
$GPGGA,040814.000,3113.601778,N,12131.752425,E,1,19,0.8,-29.9,M,,M,,*58
$GPRMC,040814.000,A,3113.601778,N,12131.752425,E,0.1,185.76836147900002,250122,,E,A*10
$GPGGA,040815.000,3113.601730,N,12131.752567,E,1,19,0.8,-29.9,M,,M,,*52
$GPRMC,040815.000,A,3113.601730,N,12131.752567,E,0.2,131.956756456,250122,,E,A*2A
$GPGGA,040816.000,3113.601723,N,12131.752480,E,1,19,0.8,-29.9,M,,M,,*5B
$GPRMC,040816.000,A,3113.601723,N,12131.752480,E,0.1,94.990597444,250122,,E,A*18
$GPGGA,040817.000,3113.601511,N,12131.752237,E,1,19,0.8,-30.0,M,,M,,*52
$GPRMC,040817.000,A,3113.601511,N,12131.752237,E,0.2,147.118656439,250122,,E,A*20
$GPGGA,040818.000,3113.601474,N,12131.751894,E,1,19,0.8,-29.9,M,,M,,*5E
$GPRMC,040818.000,A,3113.601474,N,12131.751894,E,0.3,182.634178877,250122,,E,A*21
$GPGGA,040819.000,3113.601279,N,12131.752515,E,1,19,0.8,-30.0,M,,M,,*52
$GPRMC,040819.000,A,3113.601279,N,12131.752515,E,0.3,146.416089512,250122,,E,A*27
$GPGGA,040820.000,3113.601372,N,12131.752271,E,1,19,0.8,-29.9,M,,M,,*56
$GPRMC,040820.000,A,3113.601372,N,12131.752271,E,0.2,161.905278504,250122,,E,A*22
$GPGGA,040821.000,3113.600835,N,12131.751869,E,1,19,0.8,-29.6,M,,M,,*51
$GPRMC,040821.000,A,3113.600835,N,12131.751869,E,0.3,115.58891825799999,250122,,E,A*14
$GPGGA,040822.000,3113.600849,N,12131.751714,E,1,19,0.8,-29.6,M,,M,,*5C
$GPRMC,040822.000,A,3113.600849,N,12131.751714,E,0.3,113.639834964,250122,,E,A*2B
$GPGGA,040823.000,3113.599588,N,12131.751442,E,1,19,0.8,-30.0,M,,M,,*50
$GPRMC,040823.000,A,3113.599588,N,12131.751442,E,0.5,108.847794676,250122,,E,A*2B
$GPGGA,040824.000,3113.599694,N,12131.751357,E,1,19,0.8,-29.9,M,,M,,*5B
$GPRMC,040824.000,A,3113.599694,N,12131.751357,E,0.4,239.029685475,250122,,E,A*21
$GPGGA,040825.000,3113.600093,N,12131.750882,E,1,19,0.8,-30.8,M,,M,,*53
$GPRMC,040825.000,A,3113.600093,N,12131.750882,E,0.3,261.86423757,250122,,E,A*12
$GPGGA,040826.000,3113.600249,N,12131.751150,E,1,19,0.8,-33.4,M,,M,,*5D
$GPRMC,040826.000,A,3113.600249,N,12131.751150,E,0.1,223.022098779,250122,,E,A*21
$GPGGA,040827.000,3113.599961,N,12131.751445,E,1,19,0.8,-35.3,M,,M,,*5E
$GPRMC,040827.000,A,3113.599961,N,12131.751445,E,0.1,216.556341107,250122,,E,A*2B
$GPGGA,040828.000,3113.599916,N,12131.751187,E,1,19,0.8,-35.7,M,,M,,*5E
$GPRMC,040828.000,A,3113.599916,N,12131.751187,E,0.1,188.88697124900003,250122,,E,A*18
$GPGGA,040829.000,3113.600094,N,12131.751224,E,1,19,0.8,-35.5,M,,M,,*57
$GPRMC,040829.000,A,3113.600094,N,12131.751224,E,0.1,142.72752777,250122,,E,A*12
$GPGGA,040830.000,3113.600199,N,12131.751437,E,1,19,0.8,-35.1,M,,M,,*53
$GPRMC,040830.000,A,3113.600199,N,12131.751437,E,0.1,108.26045987299999,250122,,E,A*16
$GPGGA,040831.000,3113.600506,N,12131.752129,E,1,19,0.8,-32.6,M,,M,,*59
$GPRMC,040831.000,A,3113.600506,N,12131.752129,E,0.3,117.942259964,250122,,E,A*22
$GPGGA,040832.000,3113.600759,N,12131.752484,E,1,19,0.8,-32.2,M,,M,,*54
$GPRMC,040832.000,A,3113.600759,N,12131.752484,E,0.5,211.57388197400002,250122,,E,A*1A
$GPGGA,040833.000,3113.600936,N,12131.752724,E,1,19,0.8,-31.4,M,,M,,*5E
$GPRMC,040833.000,A,3113.600936,N,12131.752724,E,0.5,219.71572710700002,250122,,E,A*10
$GPGGA,040834.000,3113.601111,N,12131.753083,E,1,19,0.8,-30.6,M,,M,,*5D
$GPRMC,040834.000,A,3113.601111,N,12131.753083,E,0.7,220.749407948,250122,,E,A*21
$GPGGA,040835.000,3113.601331,N,12131.753100,E,1,19,0.8,-30.0,M,,M,,*50
$GPRMC,040835.000,A,3113.601331,N,12131.753100,E,0.6,245.80154490799998,250122,,E,A*1E
$GPGGA,040836.000,3113.601416,N,12131.753089,E,1,19,0.8,-29.4,M,,M,,*5D
$GPRMC,040836.000,A,3113.601416,N,12131.753089,E,0.6,255.89088190200002,250122,,E,A*1D
$GPGGA,040837.000,3113.600999,N,12131.752578,E,1,19,0.8,-27.2,M,,M,,*55
$GPRMC,040837.000,A,3113.600999,N,12131.752578,E,0.3,234.994682873,250122,,E,A*22
$GPGGA,040838.000,3113.600734,N,12131.752310,E,1,19,0.8,-25.5,M,,M,,*5E
$GPRMC,040838.000,A,3113.600734,N,12131.752310,E,0.1,234.880345505,250122,,E,A*28
$GPGGA,040839.000,3113.601264,N,12131.752183,E,1,19,0.8,-25.0,M,,M,,*53
$GPRMC,040839.000,A,3113.601264,N,12131.752183,E,0.2,279.071342102,250122,,E,A*28
$GPGGA,040840.000,3113.601380,N,12131.752269,E,1,19,0.8,-25.1,M,,M,,*50
$GPRMC,040840.000,A,3113.601380,N,12131.752269,E,0.3,102.380158702,250122,,E,A*26
$GPGGA,040841.000,3113.601386,N,12131.752153,E,1,19,0.8,-25.1,M,,M,,*5D
$GPRMC,040841.000,A,3113.601386,N,12131.752153,E,0.2,178.13633533200002,250122,,E,A*14
$GPGGA,040842.000,3113.601416,N,12131.752026,E,1,19,0.8,-25.1,M,,M,,*53
$GPRMC,040842.000,A,3113.601416,N,12131.752026,E,0.2,123.249166747,250122,,E,A*2F
$GPGGA,040843.000,3113.601492,N,12131.752014,E,1,19,0.8,-25.0,M,,M,,*5E
$GPRMC,040843.000,A,3113.601492,N,12131.752014,E,0.2,102.36570602200001,250122,,E,A*1A
$GPGGA,040844.000,3113.601580,N,12131.751635,E,1,19,0.8,-25.2,M,,M,,*5F
$GPRMC,040844.000,A,3113.601580,N,12131.751635,E,0.3,85.02792631,250122,,E,A*2C
$GPGGA,040845.000,3113.601578,N,12131.751448,E,1,19,0.8,-25.2,M,,M,,*51
$GPRMC,040845.000,A,3113.601578,N,12131.751448,E,0.4,317.557409468,250122,,E,A*27
$GPGGA,040846.000,3113.600357,N,12131.748849,E,1,19,0.8,-25.7,M,,M,,*58
$GPRMC,040846.000,A,3113.600357,N,12131.748849,E,0.9,271.71484578900004,250122,,E,A*1E
$GPGGA,040847.000,3113.600414,N,12131.748703,E,1,19,0.8,-25.7,M,,M,,*58
$GPRMC,040847.000,A,3113.600414,N,12131.748703,E,0.7,140.519054378,250122,,E,A*28
$GPGGA,040848.000,3113.600216,N,12131.748471,E,1,19,0.8,-25.8,M,,M,,*5A
$GPRMC,040848.000,A,3113.600216,N,12131.748471,E,0.6,155.53627729299998,250122,,E,A*13
$GPGGA,040849.000,3113.599970,N,12131.748229,E,1,19,0.8,-25.8,M,,M,,*58
$GPRMC,040849.000,A,3113.599970,N,12131.748229,E,0.6,173.517447172,250122,,E,A*26
$GPGGA,040850.000,3113.599648,N,12131.748127,E,1,19,0.8,-25.8,M,,M,,*59
$GPRMC,040850.000,A,3113.599648,N,12131.748127,E,0.5,150.36910252200002,250122,,E,A*1D
$GPGGA,040851.000,3113.599426,N,12131.748044,E,1,19,0.8,-25.9,M,,M,,*57
$GPRMC,040851.000,A,3113.599426,N,12131.748044,E,0.5,334.016362389,250122,,E,A*28
$GPGGA,040852.000,3113.599254,N,12131.748003,E,1,19,0.8,-25.9,M,,M,,*54
$GPRMC,040852.000,A,3113.599254,N,12131.748003,E,0.5,214.95568625599998,250122,,E,A*11
$GPGGA,040853.000,3113.599200,N,12131.747780,E,1,19,0.8,-25.9,M,,M,,*57
$GPRMC,040853.000,A,3113.599200,N,12131.747780,E,0.5,26.821150853000002,250122,,E,A*19
$GPGGA,040854.000,3113.599201,N,12131.747673,E,1,19,0.8,-25.9,M,,M,,*5C
$GPRMC,040854.000,A,3113.599201,N,12131.747673,E,0.5,277.79150124,250122,,E,A*1A
$GPGGA,040855.000,3113.598900,N,12131.747340,E,1,19,0.8,-25.9,M,,M,,*53
$GPRMC,040855.000,A,3113.598900,N,12131.747340,E,0.6,204.488161684,250122,,E,A*27
$GPGGA,040856.000,3113.598746,N,12131.747261,E,1,19,0.8,-25.9,M,,M,,*5E
$GPRMC,040856.000,A,3113.598746,N,12131.747261,E,0.6,216.983337218,250122,,E,A*2F
$GPGGA,040857.000,3113.598458,N,12131.747209,E,1,19,0.8,-25.9,M,,M,,*5D
$GPRMC,040857.000,A,3113.598458,N,12131.747209,E,0.6,186.379554133,250122,,E,A*20
$GPGGA,040858.000,3113.598452,N,12131.747212,E,1,19,0.8,-25.9,M,,M,,*52
$GPRMC,040858.000,A,3113.598452,N,12131.747212,E,0.0,36.654050099,250122,,E,A*19
$GPGGA,040859.000,3113.598321,N,12131.747174,E,1,19,0.8,-25.8,M,,M,,*52
$GPRMC,040859.000,A,3113.598321,N,12131.747174,E,0.0,122.117868841,250122,,E,A*22
$GPGGA,040900.000,3113.598321,N,12131.747170,E,1,19,0.8,-25.8,M,,M,,*5B
$GPRMC,040900.000,A,3113.598321,N,12131.747170,E,0.0,255.791680233,250122,,E,A*27
$GPGGA,040901.000,3113.597879,N,12131.747105,E,1,19,0.8,-25.8,M,,M,,*51
$GPRMC,040901.000,A,3113.597879,N,12131.747105,E,0.0,342.501670419,250122,,E,A*20
$GPGGA,040902.000,3113.597501,N,12131.747043,E,1,19,0.8,-25.8,M,,M,,*53
$GPRMC,040902.000,A,3113.597501,N,12131.747043,E,0.0,141.25536244,250122,,E,A*1F
$GPGGA,040903.000,3113.597530,N,12131.747097,E,1,19,0.8,-25.8,M,,M,,*59
$GPRMC,040903.000,A,3113.597530,N,12131.747097,E,0.1,33.663602,250122,,E,A*22
$GPGGA,040904.000,3113.597527,N,12131.747094,E,1,19,0.8,-25.8,M,,M,,*5B
$GPRMC,040904.000,A,3113.597527,N,12131.747094,E,0.0,69.554125734,250122,,E,A*1B
$GPGGA,040905.000,3113.597510,N,12131.747019,E,1,19,0.8,-25.8,M,,M,,*5B
$GPRMC,040905.000,A,3113.597510,N,12131.747019,E,0.1,189.67076278599998,250122,,E,A*17
$GPGGA,040906.000,3113.597517,N,12131.747045,E,1,19,0.8,-25.8,M,,M,,*56
$GPRMC,040906.000,A,3113.597517,N,12131.747045,E,0.0,331.819636923,250122,,E,A*21
$GPGGA,040907.000,3113.597501,N,12131.747040,E,1,19,0.8,-25.8,M,,M,,*55
$GPRMC,040907.000,A,3113.597501,N,12131.747040,E,0.0,52.004350608,250122,,E,A*13
$GPGGA,040908.000,3113.597446,N,12131.746960,E,1,19,0.8,-25.8,M,,M,,*52
$GPRMC,040908.000,A,3113.597446,N,12131.746960,E,0.1,5.371110135,250122,,E,A*29
$GPGGA,040909.000,3113.597424,N,12131.747058,E,1,19,0.8,-25.7,M,,M,,*5B
$GPRMC,040909.000,A,3113.597424,N,12131.747058,E,0.1,335.822947446,250122,,E,A*29
$GPGGA,040910.000,3113.597730,N,12131.747656,E,1,19,0.8,-26.2,M,,M,,*5B
$GPRMC,040910.000,A,3113.597730,N,12131.747656,E,0.1,287.51277299599997,250122,,E,A*15
$GPGGA,040911.000,3113.597684,N,12131.747753,E,1,19,0.8,-26.1,M,,M,,*53
$GPRMC,040911.000,A,3113.597684,N,12131.747753,E,0.1,265.688323928,250122,,E,A*23
$GPGGA,040912.000,3113.597585,N,12131.747881,E,1,19,0.8,-26.2,M,,M,,*51
$GPRMC,040912.000,A,3113.597585,N,12131.747881,E,0.2,358.986796626,250122,,E,A*24
$GPGGA,040913.000,3113.597155,N,12131.748802,E,1,19,0.8,-26.3,M,,M,,*5C
$GPRMC,040913.000,A,3113.597155,N,12131.748802,E,0.3,265.084890368,250122,,E,A*2B
$GPGGA,040914.000,3113.597179,N,12131.748802,E,1,19,0.8,-26.3,M,,M,,*55
$GPRMC,040914.000,A,3113.597179,N,12131.748802,E,0.2,155.012183212,250122,,E,A*2B
$GPGGA,040915.000,3113.597155,N,12131.748820,E,1,19,0.8,-26.3,M,,M,,*5A
$GPRMC,040915.000,A,3113.597155,N,12131.748820,E,0.2,252.70828691900002,250122,,E,A*18
$GPGGA,040916.000,3113.597094,N,12131.748797,E,1,19,0.8,-26.3,M,,M,,*56
$GPRMC,040916.000,A,3113.597094,N,12131.748797,E,0.2,97.476369689,250122,,E,A*11
$GPGGA,040917.000,3113.597139,N,12131.748968,E,1,19,0.8,-26.4,M,,M,,*58
$GPRMC,040917.000,A,3113.597139,N,12131.748968,E,0.2,140.26540847,250122,,E,A*13
$GPGGA,040918.000,3113.597007,N,12131.748867,E,1,19,0.8,-26.4,M,,M,,*55
$GPRMC,040918.000,A,3113.597007,N,12131.748867,E,0.2,154.659212692,250122,,E,A*23
$GPGGA,040919.000,3113.597013,N,12131.748726,E,1,19,0.8,-26.4,M,,M,,*5B
$GPRMC,040919.000,A,3113.597013,N,12131.748726,E,0.2,196.98931056700002,250122,,E,A*19
$GPGGA,040920.000,3113.596924,N,12131.748878,E,1,19,0.8,-26.4,M,,M,,*59
$GPRMC,040920.000,A,3113.596924,N,12131.748878,E,0.2,200.181044343,250122,,E,A*27
$GPGGA,040921.000,3113.597055,N,12131.749095,E,1,19,0.8,-26.4,M,,M,,*5C
$GPRMC,040921.000,A,3113.597055,N,12131.749095,E,0.1,173.45551101599997,250122,,E,A*18
$GPGGA,040922.000,3113.597068,N,12131.749088,E,1,19,0.8,-26.4,M,,M,,*5D
$GPRMC,040922.000,A,3113.597068,N,12131.749088,E,0.1,187.454352714,250122,,E,A*23
$GPGGA,040923.000,3113.597094,N,12131.749200,E,1,19,0.8,-26.4,M,,M,,*5D
$GPRMC,040923.000,A,3113.597094,N,12131.749200,E,0.1,113.20738153100001,250122,,E,A*14
$GPGGA,040924.000,3113.597141,N,12131.749160,E,1,19,0.8,-26.4,M,,M,,*56
$GPRMC,040924.000,A,3113.597141,N,12131.749160,E,0.1,62.55016964,250122,,E,A*2D
$GPGGA,040925.000,3113.597274,N,12131.749434,E,1,19,0.8,-26.4,M,,M,,*56
$GPRMC,040925.000,A,3113.597274,N,12131.749434,E,0.1,80.487182345,250122,,E,A*1F
$GPGGA,040926.000,3113.597261,N,12131.749570,E,1,19,0.8,-26.4,M,,M,,*50
$GPRMC,040926.000,A,3113.597261,N,12131.749570,E,0.2,104.972741447,250122,,E,A*2C
$GPGGA,040927.000,3113.597272,N,12131.749656,E,1,19,0.8,-26.4,M,,M,,*54
$GPRMC,040927.000,A,3113.597272,N,12131.749656,E,0.2,28.052459805,250122,,E,A*1C
$GPGGA,040928.000,3113.597294,N,12131.749611,E,1,19,0.8,-26.4,M,,M,,*50
$GPRMC,040928.000,A,3113.597294,N,12131.749611,E,0.1,167.955159613,250122,,E,A*23
$GPGGA,040929.000,3113.597269,N,12131.749541,E,1,19,0.8,-26.4,M,,M,,*55
$GPRMC,040929.000,A,3113.597269,N,12131.749541,E,0.1,196.668250691,250122,,E,A*29
$GPGGA,040930.000,3113.597273,N,12131.749525,E,1,19,0.8,-26.4,M,,M,,*54
$GPRMC,040930.000,A,3113.597273,N,12131.749525,E,0.1,209.113948334,250122,,E,A*2E
$GPGGA,040931.000,3113.597204,N,12131.749308,E,1,19,0.8,-26.4,M,,M,,*5C
$GPRMC,040931.000,A,3113.597204,N,12131.749308,E,0.1,217.76805766099997,250122,,E,A*17
$GPGGA,040932.000,3113.597359,N,12131.749118,E,1,19,0.8,-26.4,M,,M,,*55
$GPRMC,040932.000,A,3113.597359,N,12131.749118,E,0.1,233.28202657900002,250122,,E,A*11
$GPGGA,040933.000,3113.599668,N,12131.750802,E,1,19,0.8,-28.2,M,,M,,*5F
$GPRMC,040933.000,A,3113.599668,N,12131.750802,E,0.3,237.150290601,250122,,E,A*28
$GPGGA,040934.000,3113.599644,N,12131.750872,E,1,19,0.8,-28.2,M,,M,,*51
$GPRMC,040934.000,A,3113.599644,N,12131.750872,E,0.3,255.74124611599999,250122,,E,A*14
$GPGGA,040935.000,3113.599698,N,12131.751069,E,1,19,0.8,-28.3,M,,M,,*53
$GPRMC,040935.000,A,3113.599698,N,12131.751069,E,0.3,211.29460919599998,250122,,E,A*1C
$GPGGA,040936.000,3113.599525,N,12131.751093,E,1,19,0.8,-28.3,M,,M,,*50
$GPRMC,040936.000,A,3113.599525,N,12131.751093,E,0.2,37.602582386,250122,,E,A*1B
$GPGGA,040937.000,3113.599689,N,12131.751194,E,1,19,0.8,-28.4,M,,M,,*55
$GPRMC,040937.000,A,3113.599689,N,12131.751194,E,0.2,277.435293211,250122,,E,A*21
$GPGGA,040938.000,3113.599736,N,12131.751254,E,1,19,0.8,-28.4,M,,M,,*50
$GPRMC,040938.000,A,3113.599736,N,12131.751254,E,0.2,220.350210707,250122,,E,A*2B
$GPGGA,040939.000,3113.599981,N,12131.751178,E,1,19,0.8,-28.3,M,,M,,*59
$GPRMC,040939.000,A,3113.599981,N,12131.751178,E,0.3,247.565181735,250122,,E,A*2F
$GPGGA,040940.000,3113.599947,N,12131.751155,E,1,19,0.8,-28.3,M,,M,,*52
$GPRMC,040940.000,A,3113.599947,N,12131.751155,E,0.2,210.215862766,250122,,E,A*25
$GPGGA,040941.000,3113.599813,N,12131.751207,E,1,19,0.8,-28.4,M,,M,,*50
$GPRMC,040941.000,A,3113.599813,N,12131.751207,E,0.2,200.25564367,250122,,E,A*1E
$GPGGA,040942.000,3113.599869,N,12131.751244,E,1,19,0.8,-28.4,M,,M,,*59
$GPRMC,040942.000,A,3113.599869,N,12131.751244,E,0.2,42.714200398,250122,,E,A*13
$GPGGA,040943.000,3113.599989,N,12131.751141,E,1,19,0.8,-28.4,M,,M,,*51
$GPRMC,040943.000,A,3113.599989,N,12131.751141,E,0.2,115.831321675,250122,,E,A*24
$GPGGA,040944.000,3113.599834,N,12131.751049,E,1,19,0.8,-28.4,M,,M,,*58
$GPRMC,040944.000,A,3113.599834,N,12131.751049,E,0.1,221.689938668,250122,,E,A*29
$GPGGA,040945.000,3113.599641,N,12131.751023,E,1,19,0.8,-28.6,M,,M,,*5B
$GPRMC,040945.000,A,3113.599641,N,12131.751023,E,0.0,117.68462522600001,250122,,E,A*1E
$GPGGA,040946.000,3113.599656,N,12131.750991,E,1,19,0.8,-28.6,M,,M,,*5F
$GPRMC,040946.000,A,3113.599656,N,12131.750991,E,0.0,67.034769448,250122,,E,A*17
$GPGGA,040947.000,3113.599638,N,12131.750980,E,1,19,0.8,-28.6,M,,M,,*56
$GPRMC,040947.000,A,3113.599638,N,12131.750980,E,0.0,158.82054647299998,250122,,E,A*10
$GPGGA,040948.000,3113.614975,N,12131.744095,E,1,19,0.8,-22.7,M,,M,,*5A
$GPRMC,040948.000,A,3113.614975,N,12131.744095,E,1.4,178.738785344,250122,,E,A*21
$GPGGA,040949.000,3113.617428,N,12131.743537,E,1,19,0.8,-18.6,M,,M,,*5F
$GPRMC,040949.000,A,3113.617428,N,12131.743537,E,1.5,215.86579531299998,250122,,E,A*18
$GPGGA,040950.000,3113.617813,N,12131.743373,E,1,19,0.8,-18.6,M,,M,,*55
$GPRMC,040950.000,A,3113.617813,N,12131.743373,E,1.5,190.12461520099998,250122,,E,A*1B
$GPGGA,040951.000,3113.617941,N,12131.743140,E,1,19,0.8,-18.6,M,,M,,*50
$GPRMC,040951.000,A,3113.617941,N,12131.743140,E,1.2,214.29702378599998,250122,,E,A*16
$GPGGA,040952.000,3113.618175,N,12131.743168,E,1,19,0.8,-18.4,M,,M,,*5B
$GPRMC,040952.000,A,3113.618175,N,12131.743168,E,1.0,203.973602546,250122,,E,A*2A
$GPGGA,040953.000,3113.618446,N,12131.743078,E,1,19,0.8,-18.4,M,,M,,*5F
$GPRMC,040953.000,A,3113.618446,N,12131.743078,E,1.0,228.88547474,250122,,E,A*18
$GPGGA,040954.000,3113.618618,N,12131.743048,E,1,19,0.8,-18.4,M,,M,,*52
$GPRMC,040954.000,A,3113.618618,N,12131.743048,E,0.9,15.388670804,250122,,E,A*1E
$GPGGA,040955.000,3113.618708,N,12131.742826,E,1,19,0.8,-18.3,M,,M,,*55
$GPRMC,040955.000,A,3113.618708,N,12131.742826,E,0.8,60.821769759,250122,,E,A*1B
$GPGGA,040956.000,3113.618883,N,12131.742907,E,1,19,0.8,-18.3,M,,M,,*58
$GPRMC,040956.000,A,3113.618883,N,12131.742907,E,0.8,68.25829539899999,250122,,E,A*2C
$GPGGA,040957.000,3113.618947,N,12131.742812,E,1,19,0.8,-18.2,M,,M,,*54
$GPRMC,040957.000,A,3113.618947,N,12131.742812,E,0.7,102.100243886,250122,,E,A*2B
$GPGGA,040958.000,3113.618901,N,12131.742817,E,1,19,0.8,-18.2,M,,M,,*5C
$GPRMC,040958.000,A,3113.618901,N,12131.742817,E,0.6,60.731659073,250122,,E,A*1E
$GPGGA,040959.000,3113.619116,N,12131.742755,E,1,19,0.8,-18.2,M,,M,,*5B
$GPRMC,040959.000,A,3113.619116,N,12131.742755,E,0.6,77.05206160600001,250122,,E,A*25
$GPGGA,041000.000,3113.619271,N,12131.742618,E,1,19,0.8,-18.0,M,,M,,*57
$GPRMC,041000.000,A,3113.619271,N,12131.742618,E,0.6,64.852312247,250122,,E,A*16
$GPGGA,041001.000,3113.619973,N,12131.742240,E,1,19,0.8,-17.0,M,,M,,*59
$GPRMC,041001.000,A,3113.619973,N,12131.742240,E,0.7,67.88231397199999,250122,,E,A*2E
$GPGGA,041002.000,3113.620066,N,12131.742245,E,1,19,0.8,-16.8,M,,M,,*51
$GPRMC,041002.000,A,3113.620066,N,12131.742245,E,0.6,69.709089068,250122,,E,A*14
$GPGGA,041003.000,3113.620132,N,12131.742187,E,1,19,0.8,-16.5,M,,M,,*50
$GPRMC,041003.000,A,3113.620132,N,12131.742187,E,0.6,45.59413945,250122,,E,A*25
$GPGGA,041004.000,3113.620235,N,12131.742162,E,1,19,0.8,-16.3,M,,M,,*5E
$GPRMC,041004.000,A,3113.620235,N,12131.742162,E,0.5,49.384580295,250122,,E,A*1C
$GPGGA,041005.000,3113.620623,N,12131.742143,E,1,19,0.8,-16.1,M,,M,,*5D
$GPRMC,041005.000,A,3113.620623,N,12131.742143,E,0.5,3.570489968,250122,,E,A*2F
$GPGGA,041006.000,3113.620742,N,12131.742215,E,1,19,0.8,-16.2,M,,M,,*5B
$GPRMC,041006.000,A,3113.620742,N,12131.742215,E,0.5,191.936596107,250122,,E,A*20
$GPGGA,041007.000,3113.620943,N,12131.741126,E,1,19,0.8,-8.8,M,,M,,*60
$GPRMC,041007.000,A,3113.620943,N,12131.741126,E,0.5,172.35057764099997,250122,,E,A*15
$GPGGA,041008.000,3113.620770,N,12131.741100,E,1,19,0.8,-8.6,M,,M,,*6B
$GPRMC,041008.000,A,3113.620770,N,12131.741100,E,0.4,217.675945729,250122,,E,A*27
$GPGGA,041009.000,3113.620653,N,12131.741056,E,1,19,0.8,-8.4,M,,M,,*6A
$GPRMC,041009.000,A,3113.620653,N,12131.741056,E,0.3,162.679412154,250122,,E,A*2D
$GPGGA,041010.000,3113.620459,N,12131.741076,E,1,19,0.8,-8.1,M,,M,,*6D
$GPRMC,041010.000,A,3113.620459,N,12131.741076,E,0.3,192.08307634599998,250122,,E,A*1F
$GPGGA,041011.000,3113.621000,N,12131.741357,E,1,19,0.8,-8.2,M,,M,,*66
$GPRMC,041011.000,A,3113.621000,N,12131.741357,E,0.3,86.227703693,250122,,E,A*1C
$GPGGA,041056.000,3113.625866,N,12131.741137,E,1,19,0.8,34.3,M,,M,,*7E
$GPRMC,041056.000,A,3113.625866,N,12131.741137,E,0.5,59.257232949,250122,,E,A*1B
$GPGGA,041057.000,3113.626373,N,12131.740357,E,1,19,0.8,32.2,M,,M,,*71
$GPRMC,041057.000,A,3113.626373,N,12131.740357,E,0.3,110.51593179700001,250122,,E,A*1C
$GPGGA,041058.000,3113.626603,N,12131.740294,E,1,19,0.8,32.7,M,,M,,*77
$GPRMC,041058.000,A,3113.626603,N,12131.740294,E,0.2,139.91818897,250122,,E,A*18
$GPGGA,041059.000,3113.625919,N,12131.740404,E,1,19,0.8,32.1,M,,M,,*78
$GPRMC,041059.000,A,3113.625919,N,12131.740404,E,0.3,150.123803105,250122,,E,A*2F
$GPGGA,041100.000,3113.625030,N,12131.740527,E,1,19,0.8,31.5,M,,M,,*70
$GPRMC,041100.000,A,3113.625030,N,12131.740527,E,0.4,188.726612065,250122,,E,A*28
$GPGGA,041101.000,3113.624609,N,12131.740395,E,1,19,0.8,31.1,M,,M,,*77
$GPRMC,041101.000,A,3113.624609,N,12131.740395,E,0.5,212.826784569,250122,,E,A*22
$GPGGA,041102.000,3113.624238,N,12131.740451,E,1,19,0.8,30.6,M,,M,,*7B
$GPRMC,041102.000,A,3113.624238,N,12131.740451,E,0.5,181.047553235,250122,,E,A*28
$GPGGA,041103.000,3113.623215,N,12131.740666,E,1,19,0.8,30.6,M,,M,,*74
$GPRMC,041103.000,A,3113.623215,N,12131.740666,E,0.7,205.628256873,250122,,E,A*2F
$GPGGA,041104.000,3113.622396,N,12131.740717,E,1,19,0.8,30.9,M,,M,,*70
$GPRMC,041104.000,A,3113.622396,N,12131.740717,E,0.8,212.115584283,250122,,E,A*29
$GPGGA,041105.000,3113.622128,N,12131.740200,E,1,19,0.8,27.0,M,,M,,*7A
$GPRMC,041105.000,A,3113.622128,N,12131.740200,E,0.6,188.324122673,250122,,E,A*21
$GPGGA,041106.000,3113.622036,N,12131.740156,E,1,19,0.8,27.0,M,,M,,*77
$GPRMC,041106.000,A,3113.622036,N,12131.740156,E,0.6,202.79917882599997,250122,,E,A*1A
$GPGGA,041107.000,3113.621742,N,12131.740107,E,1,19,0.8,24.9,M,,M,,*7F
$GPRMC,041107.000,A,3113.621742,N,12131.740107,E,0.6,209.288760198,250122,,E,A*21
$GPGGA,041108.000,3113.621348,N,12131.740089,E,1,19,0.8,22.5,M,,M,,*73
$GPRMC,041108.000,A,3113.621348,N,12131.740089,E,0.5,150.796863614,250122,,E,A*2E
$GPGGA,041109.000,3113.620832,N,12131.740091,E,1,19,0.8,21.3,M,,M,,*79
$GPRMC,041109.000,A,3113.620832,N,12131.740091,E,0.6,179.843814342,250122,,E,A*28
$GPGGA,041110.000,3113.620724,N,12131.740083,E,1,19,0.8,21.3,M,,M,,*7A
$GPRMC,041110.000,A,3113.620724,N,12131.740083,E,0.5,203.808749099,250122,,E,A*2B
$GPGGA,041111.000,3113.620306,N,12131.739896,E,1,19,0.8,20.0,M,,M,,*7F
$GPRMC,041111.000,A,3113.620306,N,12131.739896,E,0.6,319.73667697,250122,,E,A*14
$GPGGA,041112.000,3113.619735,N,12131.739936,E,1,19,0.8,19.8,M,,M,,*7B
$GPRMC,041112.000,A,3113.619735,N,12131.739936,E,0.6,248.19052654200001,250122,,E,A*17
$GPGGA,041113.000,3113.619227,N,12131.739939,E,1,19,0.8,19.4,M,,M,,*7F
$GPRMC,041113.000,A,3113.619227,N,12131.739939,E,0.7,194.732206227,250122,,E,A*22
$GPGGA,041114.000,3113.618772,N,12131.739983,E,1,19,0.8,18.8,M,,M,,*70
$GPRMC,041114.000,A,3113.618772,N,12131.739983,E,0.7,188.011764458,250122,,E,A*24
$GPGGA,041115.000,3113.618287,N,12131.740037,E,1,19,0.8,18.5,M,,M,,*7B
$GPRMC,041115.000,A,3113.618287,N,12131.740037,E,0.7,179.270829766,250122,,E,A*21
$GPGGA,041116.000,3113.617711,N,12131.740012,E,1,19,0.8,17.7,M,,M,,*77
$GPRMC,041116.000,A,3113.617711,N,12131.740012,E,0.7,207.873790872,250122,,E,A*24
$GPGGA,041117.000,3113.617044,N,12131.740010,E,1,19,0.8,16.7,M,,M,,*72
$GPRMC,041117.000,A,3113.617044,N,12131.740010,E,0.8,223.673671513,250122,,E,A*23
$GPGGA,041118.000,3113.616370,N,12131.739832,E,1,19,0.8,13.2,M,,M,,*7E
$GPRMC,041118.000,A,3113.616370,N,12131.739832,E,0.8,94.92333374,250122,,E,A*2C
$GPGGA,041119.000,3113.614305,N,12131.740335,E,1,19,0.8,7.2,M,,M,,*48
$GPRMC,041119.000,A,3113.614305,N,12131.740335,E,1.0,73.289487933,250122,,E,A*16
$GPGGA,041120.000,3113.614077,N,12131.740031,E,1,19,0.8,3.0,M,,M,,*45
$GPRMC,041120.000,A,3113.614077,N,12131.740031,E,1.0,248.61899797400002,250122,,E,A*16
$GPGGA,041121.000,3113.613869,N,12131.740014,E,1,19,0.8,2.7,M,,M,,*45
$GPRMC,041121.000,A,3113.613869,N,12131.740014,E,0.9,170.752477281,250122,,E,A*2F
$GPGGA,041122.000,3113.613875,N,12131.739910,E,1,19,0.8,1.5,M,,M,,*49
$GPRMC,041122.000,A,3113.613875,N,12131.739910,E,0.8,174.41724264400003,250122,,E,A*1B
$GPGGA,041123.000,3113.613922,N,12131.739886,E,1,19,0.8,-0.1,M,,M,,*6D
$GPRMC,041123.000,A,3113.613922,N,12131.739886,E,0.7,163.28628812899998,250122,,E,A*10
$GPGGA,041124.000,3113.613908,N,12131.739858,E,1,19,0.8,-1.4,M,,M,,*65
$GPRMC,041124.000,A,3113.613908,N,12131.739858,E,0.7,143.355550012,250122,,E,A*23
$GPGGA,041125.000,3113.613774,N,12131.740253,E,1,19,0.8,-2.3,M,,M,,*6A
$GPRMC,041125.000,A,3113.613774,N,12131.740253,E,0.6,130.184431628,250122,,E,A*2A
$GPGGA,041126.000,3113.613255,N,12131.740807,E,1,19,0.8,-3.7,M,,M,,*61
$GPRMC,041126.000,A,3113.613255,N,12131.740807,E,0.7,117.880651657,250122,,E,A*21
$GPGGA,041127.000,3113.613160,N,12131.741227,E,1,19,0.8,-4.9,M,,M,,*65
$GPRMC,041127.000,A,3113.613160,N,12131.741227,E,0.6,173.66727420400002,250122,,E,A*1B
$GPGGA,041128.000,3113.612794,N,12131.741495,E,1,19,0.8,-5.6,M,,M,,*67
$GPRMC,041128.000,A,3113.612794,N,12131.741495,E,0.7,239.96979272299998,250122,,E,A*1C
$GPGGA,041129.000,3113.612607,N,12131.741541,E,1,19,0.8,-5.6,M,,M,,*65
$GPRMC,041129.000,A,3113.612607,N,12131.741541,E,0.7,185.188300826,250122,,E,A*21
$GPGGA,041130.000,3113.612190,N,12131.742279,E,1,19,0.8,-6.9,M,,M,,*67
$GPRMC,041130.000,A,3113.612190,N,12131.742279,E,0.7,14.22645007,250122,,E,A*28
$GPGGA,041131.000,3113.611957,N,12131.742491,E,1,19,0.8,-7.1,M,,M,,*6F
$GPRMC,041131.000,A,3113.611957,N,12131.742491,E,0.7,184.886283518,250122,,E,A*22
$GPGGA,041132.000,3113.611757,N,12131.742582,E,1,19,0.8,-7.2,M,,M,,*62
$GPRMC,041132.000,A,3113.611757,N,12131.742582,E,0.7,280.976418488,250122,,E,A*29
$GPGGA,041133.000,3113.611624,N,12131.742818,E,1,19,0.8,-7.2,M,,M,,*68
$GPRMC,041133.000,A,3113.611624,N,12131.742818,E,0.7,32.196917897,250122,,E,A*1E
$GPGGA,041134.000,3113.611394,N,12131.743402,E,1,19,0.8,-8.5,M,,M,,*6F
$GPRMC,041134.000,A,3113.611394,N,12131.743402,E,0.8,77.216846751,250122,,E,A*14
$GPGGA,041135.000,3113.611147,N,12131.744068,E,1,19,0.8,-9.6,M,,M,,*6F
$GPRMC,041135.000,A,3113.611147,N,12131.744068,E,0.8,125.50536950200001,250122,,E,A*16
$GPGGA,041136.000,3113.611028,N,12131.744257,E,1,19,0.8,-9.6,M,,M,,*6A
$GPRMC,041136.000,A,3113.611028,N,12131.744257,E,0.8,208.687020525,250122,,E,A*2C
$GPGGA,041137.000,3113.610895,N,12131.744422,E,1,19,0.8,-9.7,M,,M,,*61
$GPRMC,041137.000,A,3113.610895,N,12131.744422,E,0.8,218.104949915,250122,,E,A*22
$GPGGA,041138.000,3113.610687,N,12131.744605,E,1,19,0.8,-9.7,M,,M,,*64
$GPRMC,041138.000,A,3113.610687,N,12131.744605,E,0.8,223.54802335099998,250122,,E,A*15
$GPGGA,041139.000,3113.609955,N,12131.745547,E,1,19,0.8,-10.4,M,,M,,*52
$GPRMC,041139.000,A,3113.609955,N,12131.745547,E,0.9,176.272294723,250122,,E,A*22
$GPGGA,041140.000,3113.609086,N,12131.746157,E,1,19,0.8,-11.0,M,,M,,*58
$GPRMC,041140.000,A,3113.609086,N,12131.746157,E,1.1,160.161872698,250122,,E,A*21
$GPGGA,041141.000,3113.608880,N,12131.746398,E,1,19,0.8,-11.0,M,,M,,*57
$GPRMC,041141.000,A,3113.608880,N,12131.746398,E,1.1,193.402177135,250122,,E,A*2E
$GPGGA,041142.000,3113.607648,N,12131.747468,E,1,19,0.8,-12.0,M,,M,,*5B
$GPRMC,041142.000,A,3113.607648,N,12131.747468,E,1.2,73.564724069,250122,,E,A*14
$GPGGA,041143.000,3113.607304,N,12131.747567,E,1,19,0.8,-12.0,M,,M,,*59
$GPRMC,041143.000,A,3113.607304,N,12131.747567,E,1.2,134.719759253,250122,,E,A*2D
$GPGGA,041144.000,3113.605489,N,12131.748911,E,1,19,0.8,-13.0,M,,M,,*5D
$GPRMC,041144.000,A,3113.605489,N,12131.748911,E,1.5,151.26460863399998,250122,,E,A*1C
$GPGGA,041145.000,3113.605157,N,12131.749174,E,1,19,0.8,-13.0,M,,M,,*50
$GPRMC,041145.000,A,3113.605157,N,12131.749174,E,1.5,154.95225513100002,250122,,E,A*19
$GPGGA,041146.000,3113.603126,N,12131.750016,E,1,19,0.8,-13.8,M,,M,,*56
$GPRMC,041146.000,A,3113.603126,N,12131.750016,E,1.8,173.369874103,250122,,E,A*27
$GPGGA,041147.000,3113.602698,N,12131.750290,E,1,19,0.8,-13.8,M,,M,,*58
$GPRMC,041147.000,A,3113.602698,N,12131.750290,E,1.7,207.969413522,250122,,E,A*26
$GPGGA,041148.000,3113.599279,N,12131.751168,E,1,19,0.8,-15.1,M,,M,,*57
$GPRMC,041148.000,A,3113.599279,N,12131.751168,E,2.3,205.27098333400002,250122,,E,A*17
$GPGGA,041149.000,3113.596782,N,12131.752221,E,1,19,0.8,-16.3,M,,M,,*54
$GPRMC,041149.000,A,3113.596782,N,12131.752221,E,2.6,212.17691938299998,250122,,E,A*17
$GPGGA,041150.000,3113.593300,N,12131.753204,E,1,19,0.8,-17.6,M,,M,,*55
$GPRMC,041150.000,A,3113.593300,N,12131.753204,E,3.2,159.52968227600002,250122,,E,A*18
$GPGGA,041151.000,3113.592495,N,12131.753525,E,1,19,0.8,-17.6,M,,M,,*5A
$GPRMC,041151.000,A,3113.592495,N,12131.753525,E,3.2,159.91438743700002,250122,,E,A*16
$GPGGA,041152.000,3113.591683,N,12131.753839,E,1,19,0.8,-17.6,M,,M,,*5F
$GPRMC,041152.000,A,3113.591683,N,12131.753839,E,3.1,160.300039858,250122,,E,A*24
$GPGGA,041153.000,3113.591857,N,12131.753295,E,1,19,0.8,-18.8,M,,M,,*54
$GPRMC,041153.000,A,3113.591857,N,12131.753295,E,2.8,229.083522908,250122,,E,A*2B
$GPGGA,041154.000,3113.592491,N,12131.753141,E,1,19,0.8,-20.5,M,,M,,*5A
$GPRMC,041154.000,A,3113.592491,N,12131.753141,E,2.2,224.431002897,250122,,E,A*29
$GPGGA,041155.000,3113.592611,N,12131.753189,E,1,19,0.8,-21.6,M,,M,,*57
$GPRMC,041155.000,A,3113.592611,N,12131.753189,E,1.9,219.80139134,250122,,E,A*17
$GPGGA,041156.000,3113.593479,N,12131.753225,E,1,19,0.8,-22.5,M,,M,,*5C
$GPRMC,041156.000,A,3113.593479,N,12131.753225,E,1.4,221.92032095099998,250122,,E,A*11
$GPGGA,041157.000,3113.593127,N,12131.753377,E,1,19,0.8,-22.5,M,,M,,*55
$GPRMC,041157.000,A,3113.593127,N,12131.753377,E,1.4,219.19071778,250122,,E,A*1B
$GPGGA,041158.000,3113.592769,N,12131.753534,E,1,19,0.8,-22.5,M,,M,,*56
$GPRMC,041158.000,A,3113.592769,N,12131.753534,E,1.4,216.711058554,250122,,E,A*2F
$GPGGA,041159.000,3113.592428,N,12131.753686,E,1,19,0.8,-22.5,M,,M,,*5B
$GPRMC,041159.000,A,3113.592428,N,12131.753686,E,1.4,219.509168523,250122,,E,A*24
$GPGGA,041200.000,3113.593862,N,12131.754165,E,1,19,0.8,-22.6,M,,M,,*59
$GPRMC,041200.000,A,3113.593862,N,12131.754165,E,0.9,224.212327558,250122,,E,A*2F
$GPGGA,041201.000,3113.593712,N,12131.754369,E,1,19,0.8,-22.6,M,,M,,*5E
$GPRMC,041201.000,A,3113.593712,N,12131.754369,E,0.9,190.165077242,250122,,E,A*2D
$GPGGA,041202.000,3113.593518,N,12131.754582,E,1,19,0.8,-22.6,M,,M,,*56
$GPRMC,041202.000,A,3113.593518,N,12131.754582,E,0.9,219.33684284900002,250122,,E,A*1E
$GPGGA,041203.000,3113.594594,N,12131.754776,E,1,19,0.8,-22.6,M,,M,,*5D
$GPRMC,041203.000,A,3113.594594,N,12131.754776,E,0.7,306.605119043,250122,,E,A*26
$GPGGA,041204.000,3113.594559,N,12131.754964,E,1,19,0.8,-22.6,M,,M,,*56
$GPRMC,041204.000,A,3113.594559,N,12131.754964,E,0.7,73.821826053,250122,,E,A*10
$GPGGA,041205.000,3113.594510,N,12131.755072,E,1,19,0.8,-22.5,M,,M,,*56
$GPRMC,041205.000,A,3113.594510,N,12131.755072,E,0.6,333.617424696,250122,,E,A*2F
$GPGGA,041206.000,3113.594442,N,12131.755267,E,1,19,0.8,-22.5,M,,M,,*55
$GPRMC,041206.000,A,3113.594442,N,12131.755267,E,0.6,349.86669080800004,250122,,E,A*19
$GPGGA,041207.000,3113.595710,N,12131.755332,E,1,19,0.8,-22.4,M,,M,,*51
$GPRMC,041207.000,A,3113.595710,N,12131.755332,E,0.6,329.831368832,250122,,E,A*27
$GPGGA,041208.000,3113.595760,N,12131.755502,E,1,19,0.8,-22.4,M,,M,,*5C
$GPRMC,041208.000,A,3113.595760,N,12131.755502,E,0.6,351.404904068,250122,,E,A*28
$GPGGA,041209.000,3113.595829,N,12131.755643,E,1,19,0.8,-22.4,M,,M,,*59
$GPRMC,041209.000,A,3113.595829,N,12131.755643,E,0.6,15.764689798,250122,,E,A*19
$GPGGA,041210.000,3113.595791,N,12131.755838,E,1,19,0.8,-22.4,M,,M,,*5F
$GPRMC,041210.000,A,3113.595791,N,12131.755838,E,0.6,348.575129341,250122,,E,A*2B
$GPGGA,041211.000,3113.597480,N,12131.755918,E,1,19,0.8,-22.4,M,,M,,*5C
$GPRMC,041211.000,A,3113.597480,N,12131.755918,E,0.8,358.882048844,250122,,E,A*2A
$GPGGA,041212.000,3113.597239,N,12131.756138,E,1,19,0.8,-22.6,M,,M,,*50
$GPRMC,041212.000,A,3113.597239,N,12131.756138,E,0.7,358.15455172599997,250122,,E,A*1B
$GPGGA,041213.000,3113.597334,N,12131.756359,E,1,19,0.8,-22.6,M,,M,,*58
$GPRMC,041213.000,A,3113.597334,N,12131.756359,E,0.7,32.598461308000005,250122,,E,A*13
$GPGGA,041214.000,3113.597446,N,12131.756525,E,1,19,0.8,-22.6,M,,M,,*50
$GPRMC,041214.000,A,3113.597446,N,12131.756525,E,0.7,88.681380879,250122,,E,A*11
$GPGGA,041215.000,3113.597580,N,12131.756642,E,1,19,0.8,-22.6,M,,M,,*58
$GPRMC,041215.000,A,3113.597580,N,12131.756642,E,0.7,148.51428266899998,250122,,E,A*1E
$GPGGA,041216.000,3113.598924,N,12131.756577,E,1,19,0.8,-22.8,M,,M,,*5D
$GPRMC,041216.000,A,3113.598924,N,12131.756577,E,0.9,132.254621009,250122,,E,A*21
$GPGGA,041217.000,3113.599100,N,12131.756737,E,1,19,0.8,-22.8,M,,M,,*55
$GPRMC,041217.000,A,3113.599100,N,12131.756737,E,0.9,119.41680220100001,250122,,E,A*14
$GPGGA,041218.000,3113.599294,N,12131.756887,E,1,19,0.8,-22.8,M,,M,,*50
$GPRMC,041218.000,A,3113.599294,N,12131.756887,E,0.9,153.330604279,250122,,E,A*2A
$GPGGA,041219.000,3113.599420,N,12131.757120,E,1,19,0.8,-22.8,M,,M,,*5D
$GPRMC,041219.000,A,3113.599420,N,12131.757120,E,0.9,158.809071755,250122,,E,A*22
$GPGGA,041220.000,3113.600583,N,12131.756418,E,1,19,0.8,-23.0,M,,M,,*5A
$GPRMC,041220.000,A,3113.600583,N,12131.756418,E,0.9,179.865998797,250122,,E,A*25
$GPGGA,041221.000,3113.600798,N,12131.756500,E,1,19,0.8,-23.0,M,,M,,*5B
$GPRMC,041221.000,A,3113.600798,N,12131.756500,E,0.9,189.26294584599998,250122,,E,A*1E
$GPGGA,041222.000,3113.601021,N,12131.756609,E,1,19,0.8,-23.0,M,,M,,*56
$GPRMC,041222.000,A,3113.601021,N,12131.756609,E,0.9,217.319614756,250122,,E,A*24
$GPGGA,041223.000,3113.601297,N,12131.756702,E,1,19,0.8,-23.0,M,,M,,*52
$GPRMC,041223.000,A,3113.601297,N,12131.756702,E,0.9,260.05956496700003,250122,,E,A*1C
$GPGGA,041224.000,3113.622322,N,12131.745796,E,1,19,0.8,-18.6,M,,M,,*5A
$GPRMC,041224.000,A,3113.622322,N,12131.745796,E,5.0,-19.205463877,250122,,E,A*39
$GPGGA,041225.000,3113.623332,N,12131.745608,E,1,19,0.8,-18.5,M,,M,,*5E
$GPRMC,041225.000,A,3113.623332,N,12131.745608,E,3.4,-9.865518555,250122,,E,A*01
$GPGGA,041226.000,3113.623836,N,12131.745361,E,1,19,0.8,-18.5,M,,M,,*58
$GPRMC,041226.000,A,3113.623836,N,12131.745361,E,2.4,54.642671715,250122,,E,A*12
$GPGGA,041227.000,3113.623731,N,12131.745546,E,1,19,0.8,-18.3,M,,M,,*54
$GPRMC,041227.000,A,3113.623731,N,12131.745546,E,0.8,141.367500487,250122,,E,A*2C
$GPGGA,041228.000,3113.623696,N,12131.745198,E,1,19,0.8,-18.4,M,,M,,*57
$GPRMC,041228.000,A,3113.623696,N,12131.745198,E,0.6,192.073951213,250122,,E,A*2D
$GPGGA,041229.000,3113.622616,N,12131.744883,E,1,19,0.8,-17.9,M,,M,,*5F
$GPRMC,041229.000,A,3113.622616,N,12131.744883,E,0.6,216.607799753,250122,,E,A*26
$GPGGA,041230.000,3113.622254,N,12131.744720,E,1,19,0.8,-17.1,M,,M,,*5B
$GPRMC,041230.000,A,3113.622254,N,12131.744720,E,0.5,184.095443226,250122,,E,A*2F
$GPGGA,041231.000,3113.621940,N,12131.744359,E,1,19,0.8,-17.0,M,,M,,*5C
$GPRMC,041231.000,A,3113.621940,N,12131.744359,E,0.3,207.936205142,250122,,E,A*22
$GPGGA,041232.000,3113.621656,N,12131.743994,E,1,19,0.8,-16.6,M,,M,,*5C
$GPRMC,041232.000,A,3113.621656,N,12131.743994,E,0.8,138.496662662,250122,,E,A*26
$GPGGA,041233.000,3113.621594,N,12131.743979,E,1,19,0.8,-16.7,M,,M,,*52
$GPRMC,041233.000,A,3113.621594,N,12131.743979,E,0.3,135.446955842,250122,,E,A*25
$GPGGA,041234.000,3113.621014,N,12131.743733,E,1,19,0.8,-16.4,M,,M,,*5B
$GPRMC,041234.000,A,3113.621014,N,12131.743733,E,0.3,192.392347315,250122,,E,A*2C
$GPGGA,041235.000,3113.607865,N,12131.748222,E,1,19,0.8,-17.9,M,,M,,*52
$GPRMC,041235.000,A,3113.607865,N,12131.748222,E,0.4,266.69208854,250122,,E,A*15
$GPGGA,041236.000,3113.604743,N,12131.748508,E,1,19,0.8,-17.9,M,,M,,*56
$GPRMC,041236.000,A,3113.604743,N,12131.748508,E,1.0,245.75037313,250122,,E,A*1E
$GPGGA,041237.000,3113.600025,N,12131.748645,E,1,19,0.8,-20.2,M,,M,,*51
$GPRMC,041237.000,A,3113.600025,N,12131.748645,E,1.9,244.364582373,250122,,E,A*20
$GPGGA,041238.000,3113.597015,N,12131.748195,E,1,19,0.8,-22.3,M,,M,,*59
$GPRMC,041238.000,A,3113.597015,N,12131.748195,E,3.3,-172.201180472,250122,,E,A*0A
$GPGGA,041239.000,3113.594943,N,12131.748247,E,1,19,0.8,-28.0,M,,M,,*54
$GPRMC,041239.000,A,3113.594943,N,12131.748247,E,4.5,-174.694211872,250122,,E,A*06
$GPGGA,041240.000,3113.593601,N,12131.748282,E,1,19,0.8,-28.8,M,,M,,*55
$GPRMC,041240.000,A,3113.593601,N,12131.748282,E,4.4,-175.211163253,250122,,E,A*09
$GPGGA,041241.000,3113.592797,N,12131.748096,E,1,19,0.8,-28.5,M,,M,,*51
$GPRMC,041241.000,A,3113.592797,N,12131.748096,E,3.8,-173.861896639,250122,,E,A*0B
$GPGGA,041242.000,3113.593129,N,12131.747106,E,1,19,0.8,-28.0,M,,M,,*52
$GPRMC,041242.000,A,3113.593129,N,12131.747106,E,2.5,230.621121451,250122,,E,A*2B
$GPGGA,041243.000,3113.592754,N,12131.746456,E,1,19,0.8,-27.7,M,,M,,*57
$GPRMC,041243.000,A,3113.592754,N,12131.746456,E,2.8,229.55588513599997,250122,,E,A*14
$GPGGA,041244.000,3113.592261,N,12131.744084,E,1,19,0.8,-27.3,M,,M,,*5E
$GPRMC,041244.000,A,3113.592261,N,12131.744084,E,3.6,-137.444143021,250122,,E,A*06
$GPGGA,041245.000,3113.591457,N,12131.743289,E,1,19,0.8,-27.2,M,,M,,*56
$GPRMC,041245.000,A,3113.591457,N,12131.743289,E,3.7,-140.673228991,250122,,E,A*04
$GPGGA,041246.000,3113.590862,N,12131.742637,E,1,19,0.8,-26.7,M,,M,,*5A
$GPRMC,041246.000,A,3113.590862,N,12131.742637,E,3.5,-141.485492002,250122,,E,A*00
$GPGGA,041247.000,3113.590262,N,12131.741783,E,1,19,0.8,-26.7,M,,M,,*5C
$GPRMC,041247.000,A,3113.590262,N,12131.741783,E,3.5,-136.701244601,250122,,E,A*01
$GPGGA,041248.000,3113.589534,N,12131.740871,E,1,19,0.8,-26.8,M,,M,,*53
$GPRMC,041248.000,A,3113.589534,N,12131.740871,E,3.6,-135.887783893,250122,,E,A*0B
$GPGGA,041249.000,3113.588934,N,12131.739609,E,1,19,0.8,-26.9,M,,M,,*51
$GPRMC,041249.000,A,3113.588934,N,12131.739609,E,3.7,-132.105589701,250122,,E,A*01
$GPGGA,041250.000,3113.588603,N,12131.738187,E,1,19,0.8,-26.7,M,,M,,*5C
$GPRMC,041250.000,A,3113.588603,N,12131.738187,E,3.8,-127.66793397100001,250122,,E,A*3F
$GPGGA,041251.000,3113.588179,N,12131.736996,E,1,19,0.8,-26.5,M,,M,,*53
$GPRMC,041251.000,A,3113.588179,N,12131.736996,E,3.8,-125.097376737,250122,,E,A*0F
$GPGGA,041252.000,3113.587645,N,12131.736019,E,1,19,0.8,-26.5,M,,M,,*59
$GPRMC,041252.000,A,3113.587645,N,12131.736019,E,3.8,-124.59876291200001,250122,,E,A*37
$GPGGA,041253.000,3113.586649,N,12131.735547,E,1,19,0.8,-26.2,M,,M,,*5F
$GPRMC,041253.000,A,3113.586649,N,12131.735547,E,3.8,-130.114143921,250122,,E,A*07
$GPGGA,041254.000,3113.586434,N,12131.735531,E,1,19,0.8,-26.0,M,,M,,*53
$GPRMC,041254.000,A,3113.586434,N,12131.735531,E,3.3,-128.680198959,250122,,E,A*08
$GPGGA,041255.000,3113.585707,N,12131.735096,E,1,19,0.8,-26.0,M,,M,,*5A
$GPRMC,041255.000,A,3113.585707,N,12131.735096,E,3.2,-132.212968228,250122,,E,A*0E
$GPGGA,041256.000,3113.585080,N,12131.734678,E,1,19,0.8,-26.2,M,,M,,*54
$GPRMC,041256.000,A,3113.585080,N,12131.734678,E,3.0,-133.034050637,250122,,E,A*0F
$GPGGA,041257.000,3113.584358,N,12131.734832,E,1,19,0.8,-26.0,M,,M,,*50
$GPRMC,041257.000,A,3113.584358,N,12131.734832,E,2.8,189.472509713,250122,,E,A*24
$GPGGA,041258.000,3113.583511,N,12131.734408,E,1,19,0.8,-26.2,M,,M,,*54
$GPRMC,041258.000,A,3113.583511,N,12131.734408,E,2.8,188.65617915400003,250122,,E,A*12
$GPGGA,041259.000,3113.582667,N,12131.734099,E,1,19,0.8,-26.2,M,,M,,*5A
$GPRMC,041259.000,A,3113.582667,N,12131.734099,E,2.8,196.04617071400003,250122,,E,A*1F
$GPGGA,041300.000,3113.582107,N,12131.733953,E,1,19,0.8,-25.9,M,,M,,*56
$GPRMC,041300.000,A,3113.582107,N,12131.733953,E,2.6,209.020033232,250122,,E,A*24
$GPGGA,041301.000,3113.581506,N,12131.733435,E,1,19,0.8,-26.0,M,,M,,*56
$GPRMC,041301.000,A,3113.581506,N,12131.733435,E,2.6,218.953559949,250122,,E,A*2D
$GPGGA,041302.000,3113.580596,N,12131.732955,E,1,19,0.8,-26.1,M,,M,,*56
$GPRMC,041302.000,A,3113.580596,N,12131.732955,E,2.7,231.9264799,250122,,E,A*2A
$GPGGA,041303.000,3113.579979,N,12131.732568,E,1,19,0.8,-26.2,M,,M,,*5D
$GPRMC,041303.000,A,3113.579979,N,12131.732568,E,2.6,233.451743122,250122,,E,A*2E
$GPGGA,041304.000,3113.579453,N,12131.732018,E,1,19,0.8,-26.2,M,,M,,*5D
$GPRMC,041304.000,A,3113.579453,N,12131.732018,E,2.5,232.998710329,250122,,E,A*2B
$GPGGA,041305.000,3113.578794,N,12131.731513,E,1,19,0.8,-26.3,M,,M,,*59
$GPRMC,041305.000,A,3113.578794,N,12131.731513,E,2.6,230.758408255,250122,,E,A*2D
$GPGGA,041306.000,3113.578043,N,12131.731214,E,1,19,0.8,-26.4,M,,M,,*50
$GPRMC,041306.000,A,3113.578043,N,12131.731214,E,2.6,197.355053541,250122,,E,A*2C
$GPGGA,041307.000,3113.576507,N,12131.731341,E,1,19,0.8,-26.3,M,,M,,*5C
$GPRMC,041307.000,A,3113.576507,N,12131.731341,E,3.0,-153.26277848700002,250122,,E,A*37
$GPGGA,041308.000,3113.575672,N,12131.731009,E,1,19,0.8,-26.3,M,,M,,*5E
$GPRMC,041308.000,A,3113.575672,N,12131.731009,E,3.0,-154.365449226,250122,,E,A*0A
$GPGGA,041309.000,3113.574398,N,12131.730601,E,1,19,0.8,-26.4,M,,M,,*57
$GPRMC,041309.000,A,3113.574398,N,12131.730601,E,3.2,-155.770198685,250122,,E,A*03
$GPGGA,041310.000,3113.573239,N,12131.730127,E,1,19,0.8,-26.4,M,,M,,*51
$GPRMC,041310.000,A,3113.573239,N,12131.730127,E,3.5,-156.911600592,250122,,E,A*0B
$GPGGA,041311.000,3113.572210,N,12131.729546,E,1,19,0.8,-26.2,M,,M,,*57
$GPRMC,041311.000,A,3113.572210,N,12131.729546,E,3.6,-156.321088827,250122,,E,A*04
$GPGGA,041312.000,3113.570671,N,12131.729285,E,1,19,0.8,-26.3,M,,M,,*5C
$GPRMC,041312.000,A,3113.570671,N,12131.729285,E,3.8,-158.680296331,250122,,E,A*01
$GPGGA,041313.000,3113.569255,N,12131.729129,E,1,19,0.8,-26.7,M,,M,,*56
$GPRMC,041313.000,A,3113.569255,N,12131.729129,E,4.0,-160.046227698,250122,,E,A*0B
$GPGGA,041314.000,3113.568200,N,12131.728409,E,1,19,0.8,-27.1,M,,M,,*51
$GPRMC,041314.000,A,3113.568200,N,12131.728409,E,4.0,-158.5236725,250122,,E,A*00
$GPGGA,041315.000,3113.566904,N,12131.727698,E,1,19,0.8,-27.3,M,,M,,*56
$GPRMC,041315.000,A,3113.566904,N,12131.727698,E,4.2,-158.230250326,250122,,E,A*04
$GPGGA,041316.000,3113.565889,N,12131.727115,E,1,19,0.8,-27.3,M,,M,,*50
$GPRMC,041316.000,A,3113.565889,N,12131.727115,E,4.2,-157.816875343,250122,,E,A*0D
$GPGGA,041317.000,3113.564908,N,12131.726626,E,1,19,0.8,-27.3,M,,M,,*5E
$GPRMC,041317.000,A,3113.564908,N,12131.726626,E,4.1,-157.71124668299998,250122,,E,A*32
$GPGGA,041318.000,3113.564951,N,12131.724735,E,1,19,0.8,-27.8,M,,M,,*57
$GPRMC,041318.000,A,3113.564951,N,12131.724735,E,3.8,-150.769044823,250122,,E,A*0B
$GPGGA,041319.000,3113.564213,N,12131.723844,E,1,19,0.8,-27.8,M,,M,,*55
$GPRMC,041319.000,A,3113.564213,N,12131.723844,E,3.8,-148.933262834,250122,,E,A*01
$GPGGA,041320.000,3113.564152,N,12131.722110,E,1,19,0.8,-27.9,M,,M,,*51
$GPRMC,041320.000,A,3113.564152,N,12131.722110,E,3.5,-141.522084534,250122,,E,A*0B
$GPGGA,041321.000,3113.564449,N,12131.721182,E,1,19,0.8,-28.1,M,,M,,*50
$GPRMC,041321.000,A,3113.564449,N,12131.721182,E,2.8,244.120088919,250122,,E,A*23
$GPGGA,041322.000,3113.563745,N,12131.723373,E,1,19,0.8,-27.9,M,,M,,*52
$GPRMC,041322.000,A,3113.563745,N,12131.723373,E,1.7,261.72162321900004,250122,,E,A*12
$GPGGA,041323.000,3113.564122,N,12131.724781,E,1,19,0.8,-28.2,M,,M,,*59
$GPRMC,041323.000,A,3113.564122,N,12131.724781,E,1.5,255.48978586799998,250122,,E,A*1B
$GPGGA,041324.000,3113.564307,N,12131.724610,E,1,19,0.8,-28.1,M,,M,,*51
$GPRMC,041324.000,A,3113.564307,N,12131.724610,E,1.4,269.390313822,250122,,E,A*23
$GPGGA,041325.000,3113.564732,N,12131.724226,E,1,19,0.8,-28.5,M,,M,,*57
$GPRMC,041325.000,A,3113.564732,N,12131.724226,E,1.4,285.800635796,250122,,E,A*20
$GPGGA,041326.000,3113.564704,N,12131.723988,E,1,19,0.8,-28.7,M,,M,,*5B
$GPRMC,041326.000,A,3113.564704,N,12131.723988,E,1.3,223.218589663,250122,,E,A*29
$GPGGA,041327.000,3113.564437,N,12131.723828,E,1,19,0.8,-28.7,M,,M,,*52
$GPRMC,041327.000,A,3113.564437,N,12131.723828,E,1.0,223.434246059,250122,,E,A*20
$GPGGA,041328.000,3113.564071,N,12131.723500,E,1,19,0.8,-28.6,M,,M,,*5D
$GPRMC,041328.000,A,3113.564071,N,12131.723500,E,1.1,226.57200767900002,250122,,E,A*18
$GPGGA,041329.000,3113.563682,N,12131.723671,E,1,19,0.8,-28.5,M,,M,,*57
$GPRMC,041329.000,A,3113.563682,N,12131.723671,E,1.0,234.311172175,250122,,E,A*2A
$GPGGA,041330.000,3113.562069,N,12131.724723,E,1,19,0.8,-28.0,M,,M,,*59
$GPRMC,041330.000,A,3113.562069,N,12131.724723,E,1.3,246.30331793099998,250122,,E,A*14
$GPGGA,041331.000,3113.560792,N,12131.725631,E,1,19,0.8,-28.1,M,,M,,*5B
$GPRMC,041331.000,A,3113.560792,N,12131.725631,E,1.7,250.58579194900003,250122,,E,A*13
$GPGGA,041332.000,3113.559179,N,12131.727202,E,1,19,0.8,-28.0,M,,M,,*56
$GPRMC,041332.000,A,3113.559179,N,12131.727202,E,2.2,251.56029603099998,250122,,E,A*1D
$GPGGA,041333.000,3113.557639,N,12131.728817,E,1,19,0.8,-28.2,M,,M,,*59
$GPRMC,041333.000,A,3113.557639,N,12131.728817,E,2.7,251.339571635,250122,,E,A*2A
$GPGGA,041334.000,3113.556964,N,12131.729047,E,1,19,0.8,-27.8,M,,M,,*51
$GPRMC,041334.000,A,3113.556964,N,12131.729047,E,2.5,230.585167335,250122,,E,A*25
$GPGGA,041335.000,3113.555885,N,12131.728986,E,1,19,0.8,-27.7,M,,M,,*57
$GPRMC,041335.000,A,3113.555885,N,12131.728986,E,2.7,230.63139405599998,250122,,E,A*11
$GPGGA,041336.000,3113.555131,N,12131.729153,E,1,19,0.8,-27.7,M,,M,,*53
$GPRMC,041336.000,A,3113.555131,N,12131.729153,E,2.8,239.855755883,250122,,E,A*2D
$GPGGA,041337.000,3113.554400,N,12131.729274,E,1,19,0.8,-26.6,M,,M,,*52
$GPRMC,041337.000,A,3113.554400,N,12131.729274,E,2.8,247.127831057,250122,,E,A*25
$GPGGA,041338.000,3113.551392,N,12131.732841,E,1,19,0.8,-26.6,M,,M,,*52
$GPRMC,041338.000,A,3113.551392,N,12131.732841,E,4.2,157.047401752,250122,,E,A*21
$GPGGA,041339.000,3113.549651,N,12131.735149,E,1,19,0.8,-26.7,M,,M,,*57
$GPRMC,041339.000,A,3113.549651,N,12131.735149,E,4.9,150.423089583,250122,,E,A*25
$GPGGA,041340.000,3113.548386,N,12131.736008,E,1,19,0.8,-26.7,M,,M,,*50
$GPRMC,041340.000,A,3113.548386,N,12131.736008,E,5.0,150.533332235,250122,,E,A*23
$GPGGA,041341.000,3113.547074,N,12131.736879,E,1,19,0.8,-26.7,M,,M,,*5E
$GPRMC,041341.000,A,3113.547074,N,12131.736879,E,5.1,150.51888129,250122,,E,A*19
$GPGGA,041342.000,3113.545709,N,12131.737816,E,1,19,0.8,-26.8,M,,M,,*55
$GPRMC,041342.000,A,3113.545709,N,12131.737816,E,5.3,150.271214184,250122,,E,A*27
$GPGGA,041343.000,3113.544452,N,12131.738599,E,1,19,0.8,-26.8,M,,M,,*5D
$GPRMC,041343.000,A,3113.544452,N,12131.738599,E,5.2,150.541960616,250122,,E,A*2E
$GPGGA,041344.000,3113.543097,N,12131.739605,E,1,19,0.8,-26.8,M,,M,,*57
$GPRMC,041344.000,A,3113.543097,N,12131.739605,E,5.3,150.15177073799998,250122,,E,A*15
$GPGGA,041345.000,3113.541821,N,12131.740440,E,1,19,0.8,-26.9,M,,M,,*5D
$GPRMC,041345.000,A,3113.541821,N,12131.740440,E,5.3,150.21193913,250122,,E,A*13
$GPGGA,041346.000,3113.540403,N,12131.741603,E,1,19,0.8,-26.9,M,,M,,*57
$GPRMC,041346.000,A,3113.540403,N,12131.741603,E,5.4,149.525750368,250122,,E,A*28
$GPGGA,041347.000,3113.539112,N,12131.742487,E,1,19,0.8,-26.9,M,,M,,*50
$GPRMC,041347.000,A,3113.539112,N,12131.742487,E,5.4,149.525752401,250122,,E,A*25
$GPGGA,041348.000,3113.540989,N,12131.739018,E,1,19,0.8,-27.3,M,,M,,*5E
$GPRMC,041348.000,A,3113.540989,N,12131.739018,E,3.6,161.870818907,250122,,E,A*29
$GPGGA,041349.000,3113.540015,N,12131.739156,E,1,19,0.8,-27.5,M,,M,,*5E
$GPRMC,041349.000,A,3113.540015,N,12131.739156,E,3.6,170.660420512,250122,,E,A*2F
$GPGGA,041350.000,3113.539209,N,12131.738131,E,1,19,0.8,-27.5,M,,M,,*57
$GPRMC,041350.000,A,3113.539209,N,12131.738131,E,3.6,-165.149067011,250122,,E,A*02
$GPGGA,041351.000,3113.537692,N,12131.738322,E,1,19,0.8,-27.8,M,,M,,*53
$GPRMC,041351.000,A,3113.537692,N,12131.738322,E,4.1,-166.036988555,250122,,E,A*0C
$GPGGA,041352.000,3113.536016,N,12131.738675,E,1,19,0.8,-28.1,M,,M,,*5A
$GPRMC,041352.000,A,3113.536016,N,12131.738675,E,4.5,-170.321189497,250122,,E,A*03
$GPGGA,041353.000,3113.544472,N,12131.730645,E,1,19,0.8,-26.1,M,,M,,*5D
$GPRMC,041353.000,A,3113.544472,N,12131.730645,E,3.3,-161.871454291,250122,,E,A*00
$GPGGA,041354.000,3113.546179,N,12131.731213,E,1,19,0.8,-24.0,M,,M,,*53
$GPRMC,041354.000,A,3113.546179,N,12131.731213,E,2.5,182.74075715,250122,,E,A*19
$GPGGA,041355.000,3113.546064,N,12131.730870,E,1,19,0.8,-23.1,M,,M,,*57
$GPRMC,041355.000,A,3113.546064,N,12131.730870,E,1.8,188.288960859,250122,,E,A*24
$GPGGA,041356.000,3113.544931,N,12131.728927,E,1,19,0.8,-16.4,M,,M,,*56
$GPRMC,041356.000,A,3113.544931,N,12131.728927,E,1.2,188.4636771,250122,,E,A*23
$GPGGA,041357.000,3113.544680,N,12131.728369,E,1,19,0.8,-12.7,M,,M,,*55
$GPRMC,041357.000,A,3113.544680,N,12131.728369,E,1.4,201.493492528,250122,,E,A*2B
$GPGGA,041358.000,3113.544002,N,12131.727542,E,1,19,0.8,-11.9,M,,M,,*5B
$GPRMC,041358.000,A,3113.544002,N,12131.727542,E,2.2,216.19395858599998,250122,,E,A*1A
$GPGGA,041359.000,3113.543240,N,12131.727468,E,1,19,0.8,-11.6,M,,M,,*5F
$GPRMC,041359.000,A,3113.543240,N,12131.727468,E,2.5,238.816146438,250122,,E,A*26
$GPGGA,041400.000,3113.542511,N,12131.727254,E,1,19,0.8,-11.0,M,,M,,*59
$GPRMC,041400.000,A,3113.542511,N,12131.727254,E,2.7,235.69035130900002,250122,,E,A*1A
$GPGGA,041401.000,3113.541794,N,12131.726594,E,1,19,0.8,-10.7,M,,M,,*58
$GPRMC,041401.000,A,3113.541794,N,12131.726594,E,3.2,-139.465258876,250122,,E,A*0A
$GPGGA,041402.000,3113.541133,N,12131.725784,E,1,19,0.8,-10.5,M,,M,,*52
$GPRMC,041402.000,A,3113.541133,N,12131.725784,E,3.4,-136.006842517,250122,,E,A*01
$GPGGA,041403.000,3113.543030,N,12131.713490,E,1,19,0.8,-13.2,M,,M,,*54
$GPRMC,041403.000,A,3113.543030,N,12131.713490,E,4.1,-118.45691313799999,250122,,E,A*36
$GPGGA,041404.000,3113.542821,N,12131.708985,E,1,19,0.8,-8.6,M,,M,,*67
$GPRMC,041404.000,A,3113.542821,N,12131.708985,E,4.0,-126.777283536,250122,,E,A*09
$GPGGA,041405.000,3113.543884,N,12131.703734,E,1,19,0.8,-18.2,M,,M,,*52
$GPRMC,041405.000,A,3113.543884,N,12131.703734,E,3.7,-128.178376836,250122,,E,A*08
$GPGGA,041406.000,3113.543921,N,12131.701588,E,1,19,0.8,-19.8,M,,M,,*53
$GPRMC,041406.000,A,3113.543921,N,12131.701588,E,3.4,-130.062447067,250122,,E,A*0B
$GPGGA,041407.000,3113.544246,N,12131.699327,E,1,19,0.8,-20.6,M,,M,,*58
$GPRMC,041407.000,A,3113.544246,N,12131.699327,E,3.4,-126.737148268,250122,,E,A*03
$GPGGA,041408.000,3113.544695,N,12131.697306,E,1,19,0.8,-22.0,M,,M,,*54
$GPRMC,041408.000,A,3113.544695,N,12131.697306,E,3.1,-121.704654722,250122,,E,A*08
$GPGGA,041409.000,3113.543927,N,12131.695351,E,1,19,0.8,-24.5,M,,M,,*57
$GPRMC,041409.000,A,3113.543927,N,12131.695351,E,3.4,-122.134026889,250122,,E,A*06
$GPGGA,041410.000,3113.544586,N,12131.693972,E,1,19,0.8,-27.2,M,,M,,*56
$GPRMC,041410.000,A,3113.544586,N,12131.693972,E,3.1,-109.478581786,250122,,E,A*0A
$GPGGA,041411.000,3113.544850,N,12131.693046,E,1,19,0.8,-27.2,M,,M,,*5F
$GPRMC,041411.000,A,3113.544850,N,12131.693046,E,2.8,287.942146013,250122,,E,A*23
$GPGGA,041412.000,3113.545095,N,12131.692265,E,1,19,0.8,-27.5,M,,M,,*59
$GPRMC,041412.000,A,3113.545095,N,12131.692265,E,2.6,188.84152316900003,250122,,E,A*1A
$GPGGA,041413.000,3113.543692,N,12131.689503,E,1,19,0.8,-29.3,M,,M,,*5A
$GPRMC,041413.000,A,3113.543692,N,12131.689503,E,3.6,-112.29933075299999,250122,,E,A*31
$GPGGA,041414.000,3113.543216,N,12131.688526,E,1,19,0.8,-29.4,M,,M,,*54
$GPRMC,041414.000,A,3113.543216,N,12131.688526,E,3.0,-122.458886856,250122,,E,A*02
$GPGGA,041415.000,3113.542598,N,12131.687339,E,1,19,0.8,-29.6,M,,M,,*50
$GPRMC,041415.000,A,3113.542598,N,12131.687339,E,3.3,-121.918390387,250122,,E,A*06
$GPGGA,041416.000,3113.542163,N,12131.686352,E,1,19,0.8,-29.5,M,,M,,*5C
$GPRMC,041416.000,A,3113.542163,N,12131.686352,E,3.3,-119.800739098,250122,,E,A*00
$GPGGA,041417.000,3113.541792,N,12131.685252,E,1,19,0.8,-29.4,M,,M,,*55
$GPRMC,041417.000,A,3113.541792,N,12131.685252,E,3.4,-116.707792146,250122,,E,A*0B
$GPGGA,041418.000,3113.541188,N,12131.683217,E,1,19,0.8,-29.7,M,,M,,*53
$GPRMC,041418.000,A,3113.541188,N,12131.683217,E,4.0,-113.92238792299999,250122,,E,A*32
$GPGGA,041419.000,3113.540981,N,12131.681823,E,1,19,0.8,-30.1,M,,M,,*53
$GPRMC,041419.000,A,3113.540981,N,12131.681823,E,4.1,-111.52769149299999,250122,,E,A*32
$GPGGA,041420.000,3113.539995,N,12131.679712,E,1,19,0.8,-30.2,M,,M,,*5B
$GPRMC,041420.000,A,3113.539995,N,12131.679712,E,4.5,-113.226280873,250122,,E,A*07
$GPGGA,041421.000,3113.540945,N,12131.678459,E,1,19,0.8,-29.9,M,,M,,*57
$GPRMC,041421.000,A,3113.540945,N,12131.678459,E,4.5,-99.827899519,250122,,E,A*33
$GPGGA,041422.000,3113.538469,N,12131.672931,E,1,19,0.8,-29.2,M,,M,,*5A
$GPRMC,041422.000,A,3113.538469,N,12131.672931,E,6.1,-105.55464018299999,250122,,E,A*3B
$GPGGA,041423.000,3113.537638,N,12131.669648,E,1,19,0.8,-29.2,M,,M,,*59
$GPRMC,041423.000,A,3113.537638,N,12131.669648,E,6.1,-103.75859193,250122,,E,A*37
$GPGGA,041424.000,3113.537641,N,12131.667501,E,1,19,0.8,-29.0,M,,M,,*52
$GPRMC,041424.000,A,3113.537641,N,12131.667501,E,5.9,-96.520141311,250122,,E,A*35
$GPGGA,041425.000,3113.537820,N,12131.665776,E,1,19,0.8,-29.0,M,,M,,*5A
$GPRMC,041425.000,A,3113.537820,N,12131.665776,E,5.4,-87.180877879,250122,,E,A*37
$GPGGA,041426.000,3113.538023,N,12131.663870,E,1,19,0.8,-29.1,M,,M,,*53
$GPRMC,041426.000,A,3113.538023,N,12131.663870,E,5.4,-84.90290699,250122,,E,A*0F
$GPGGA,041427.000,3113.538234,N,12131.661872,E,1,19,0.8,-29.1,M,,M,,*56
$GPRMC,041427.000,A,3113.538234,N,12131.661872,E,5.6,-83.87374746,250122,,E,A*01
$GPGGA,041428.000,3113.538224,N,12131.659965,E,1,19,0.8,-29.3,M,,M,,*56
$GPRMC,041428.000,A,3113.538224,N,12131.659965,E,5.6,-82.18011282399999,250122,,E,A*03
$GPGGA,041429.000,3113.539616,N,12131.659143,E,1,19,0.8,-30.0,M,,M,,*54
$GPRMC,041429.000,A,3113.539616,N,12131.659143,E,5.3,-72.795277312,250122,,E,A*32
$GPGGA,041430.000,3113.539889,N,12131.657309,E,1,19,0.8,-30.3,M,,M,,*55
$GPRMC,041430.000,A,3113.539889,N,12131.657309,E,5.3,-75.434250584,250122,,E,A*33
$GPGGA,041431.000,3113.540358,N,12131.655602,E,1,19,0.8,-30.4,M,,M,,*56
$GPRMC,041431.000,A,3113.540358,N,12131.655602,E,5.4,-73.674059364,250122,,E,A*33
$GPGGA,041432.000,3113.540935,N,12131.654116,E,1,19,0.8,-30.5,M,,M,,*56
$GPRMC,041432.000,A,3113.540935,N,12131.654116,E,5.3,-71.329765831,250122,,E,A*39
$GPGGA,041433.000,3113.542322,N,12131.652337,E,1,19,0.8,-30.7,M,,M,,*5C
$GPRMC,041433.000,A,3113.542322,N,12131.652337,E,5.8,-63.465917276999996,250122,,E,A*3B
$GPGGA,041434.000,3113.543172,N,12131.650884,E,1,19,0.8,-30.8,M,,M,,*53
$GPRMC,041434.000,A,3113.543172,N,12131.650884,E,5.8,-61.597876147,250122,,E,A*3D
$GPGGA,041435.000,3113.544094,N,12131.649927,E,1,19,0.8,-30.6,M,,M,,*52
$GPRMC,041435.000,A,3113.544094,N,12131.649927,E,5.3,-62.133417994,250122,,E,A*3D
$GPGGA,041436.000,3113.544450,N,12131.648067,E,1,19,0.8,-30.6,M,,M,,*51
$GPRMC,041436.000,A,3113.544450,N,12131.648067,E,5.4,-66.882178585,250122,,E,A*3E
$GPGGA,041437.000,3113.545043,N,12131.646450,E,1,19,0.8,-30.6,M,,M,,*59
$GPRMC,041437.000,A,3113.545043,N,12131.646450,E,5.4,-66.883209338,250122,,E,A*32
$GPGGA,041438.000,3113.553111,N,12131.653621,E,1,19,0.8,-29.5,M,,M,,*5C
$GPRMC,041438.000,A,3113.553111,N,12131.653621,E,4.9,-30.512667391,250122,,E,A*39
$GPGGA,041439.000,3113.556492,N,12131.657033,E,1,19,0.8,-30.1,M,,M,,*5B
$GPRMC,041439.000,A,3113.556492,N,12131.657033,E,5.2,-8.670674027,250122,,E,A*08
$GPGGA,041440.000,3113.558798,N,12131.658125,E,1,19,0.8,-29.9,M,,M,,*5B
$GPRMC,041440.000,A,3113.558798,N,12131.658125,E,5.6,-3.769174308,250122,,E,A*07
$GPGGA,041441.000,3113.560502,N,12131.658374,E,1,19,0.8,-29.9,M,,M,,*56
$GPRMC,041441.000,A,3113.560502,N,12131.658374,E,5.8,-0.896929137,250122,,E,A*06
$GPGGA,041442.000,3113.562144,N,12131.658662,E,1,19,0.8,-30.4,M,,M,,*56
$GPRMC,041442.000,A,3113.562144,N,12131.658662,E,5.9,-7.200025918,250122,,E,A*00
$GPGGA,041443.000,3113.563900,N,12131.659802,E,1,19,0.8,-31.5,M,,M,,*57
$GPRMC,041443.000,A,3113.563900,N,12131.659802,E,6.1,-2.581584864,250122,,E,A*05
$GPGGA,041444.000,3113.565752,N,12131.661512,E,1,19,0.8,-30.4,M,,M,,*58
$GPRMC,041444.000,A,3113.565752,N,12131.661512,E,6.1,3.133455628,250122,,E,A*20
$GPGGA,041445.000,3113.567220,N,12131.661285,E,1,19,0.8,-30.2,M,,M,,*54
$GPRMC,041445.000,A,3113.567220,N,12131.661285,E,5.8,-1.007846002,250122,,E,A*09
$GPGGA,041446.000,3113.568509,N,12131.661049,E,1,19,0.8,-30.0,M,,M,,*54
$GPRMC,041446.000,A,3113.568509,N,12131.661049,E,5.5,-2.119496471,250122,,E,A*0A
$GPGGA,041447.000,3113.569763,N,12131.660788,E,1,19,0.8,-29.9,M,,M,,*50
$GPRMC,041447.000,A,3113.569763,N,12131.660788,E,5.3,-4.411504729,250122,,E,A*06
$GPGGA,041448.000,3113.571038,N,12131.660773,E,1,19,0.8,-29.9,M,,M,,*5B
$GPRMC,041448.000,A,3113.571038,N,12131.660773,E,5.2,-4.191871247,250122,,E,A*03
$GPGGA,041449.000,3113.571767,N,12131.660624,E,1,19,0.8,-30.5,M,,M,,*50
$GPRMC,041449.000,A,3113.571767,N,12131.660624,E,5.1,-7.665267984,250122,,E,A*09
$GPGGA,041450.000,3113.571764,N,12131.660329,E,1,19,0.8,-30.5,M,,M,,*53
$GPRMC,041450.000,A,3113.571764,N,12131.660329,E,4.0,-4.83561162,250122,,E,A*36
$GPGGA,041451.000,3113.572300,N,12131.660123,E,1,19,0.8,-30.3,M,,M,,*59
$GPRMC,041451.000,A,3113.572300,N,12131.660123,E,3.9,-6.1529790360000005,250122,,E,A*3B
$GPGGA,041452.000,3113.572298,N,12131.659129,E,1,19,0.8,-29.6,M,,M,,*57
$GPRMC,041452.000,A,3113.572298,N,12131.659129,E,4.1,-11.740932227,250122,,E,A*3C
$GPGGA,041453.000,3113.572057,N,12131.658710,E,1,19,0.8,-28.9,M,,M,,*54
$GPRMC,041453.000,A,3113.572057,N,12131.658710,E,3.8,-12.760696538,250122,,E,A*36
$GPGGA,041454.000,3113.572337,N,12131.659764,E,1,19,0.8,-28.5,M,,M,,*58
$GPRMC,041454.000,A,3113.572337,N,12131.659764,E,3.2,16.608551617,250122,,E,A*1C
$GPGGA,041455.000,3113.572397,N,12131.660501,E,1,19,0.8,-27.3,M,,M,,*51
$GPRMC,041455.000,A,3113.572397,N,12131.660501,E,2.6,9.158360001,250122,,E,A*20
$GPGGA,041456.000,3113.572645,N,12131.661214,E,1,19,0.8,-27.5,M,,M,,*5C
$GPRMC,041456.000,A,3113.572645,N,12131.661214,E,2.7,35.222449263,250122,,E,A*11
$GPGGA,041457.000,3113.572255,N,12131.663173,E,1,19,0.8,-28.0,M,,M,,*52
$GPRMC,041457.000,A,3113.572255,N,12131.663173,E,2.9,25.157859751999997,250122,,E,A*1C
$GPGGA,041458.000,3113.571649,N,12131.665008,E,1,19,0.8,-26.7,M,,M,,*55
$GPRMC,041458.000,A,3113.571649,N,12131.665008,E,3.3,80.504616521,250122,,E,A*1A
