$GPGGA,130109.000,2217.967019,N,11410.115445,E,1,19,0.8,76.0,M,,M,,*7A
$GPRMC,130109.000,A,2217.967019,N,11410.115445,E,0.9,88.84461557200001,120921,,E,A*29
$GPGGA,130110.000,2217.966918,N,11410.115399,E,1,19,0.8,76.1,M,,M,,*7C
$GPRMC,130110.000,A,2217.966918,N,11410.115399,E,0.6,88.857073837,120921,,E,A*18
$GPGGA,130111.000,2217.966860,N,11410.115433,E,1,19,0.8,75.9,M,,M,,*7F
$GPRMC,130111.000,A,2217.966860,N,11410.115433,E,0.3,0.0,120921,,E,A*27
$GPGGA,130112.000,2217.966894,N,11410.115261,E,1,19,0.8,75.4,M,,M,,*7B
$GPRMC,130112.000,A,2217.966894,N,11410.115261,E,0.9,81.115416322,120921,,E,A*18
$GPGGA,130113.000,2217.966824,N,11410.115030,E,1,19,0.8,74.9,M,,M,,*7B
$GPRMC,130113.000,A,2217.966824,N,11410.115030,E,0.6,0.0,120921,,E,A*27
$GPGGA,130114.000,2217.966829,N,11410.114950,E,1,19,0.8,74.8,M,,M,,*7E
$GPRMC,130114.000,A,2217.966829,N,11410.114950,E,0.2,96.505062136,120921,,E,A*18
$GPGGA,130115.000,2217.966771,N,11410.114125,E,1,19,0.8,67.3,M,,M,,*7E
$GPRMC,130115.000,A,2217.966771,N,11410.114125,E,0.4,79.856318746,120921,,E,A*12
$GPGGA,130116.000,2217.966689,N,11410.114188,E,1,19,0.8,67.3,M,,M,,*7C
$GPRMC,130116.000,A,2217.966689,N,11410.114188,E,0.3,107.79253726799999,120921,,E,A*1C
$GPGGA,130117.000,2217.966557,N,11410.114222,E,1,19,0.8,67.6,M,,M,,*7B
$GPRMC,130117.000,A,2217.966557,N,11410.114222,E,0.5,0.0,120921,,E,A*29
$GPGGA,130118.000,2217.966501,N,11410.114258,E,1,19,0.8,67.8,M,,M,,*74
$GPRMC,130118.000,A,2217.966501,N,11410.114258,E,0.3,79.896391466,120921,,E,A*18
$GPGGA,130119.000,2217.966510,N,11410.114300,E,1,19,0.8,67.6,M,,M,,*77
$GPRMC,130119.000,A,2217.966510,N,11410.114300,E,0.1,0.0,120921,,E,A*21
$GPGGA,130120.000,2217.966504,N,11410.114392,E,1,19,0.8,67.8,M,,M,,*7D
$GPRMC,130120.000,A,2217.966504,N,11410.114392,E,0.3,93.47652207200001,120921,,E,A*29
$GPGGA,130121.000,2217.966478,N,11410.114465,E,1,19,0.8,68.0,M,,M,,*7E
$GPRMC,130121.000,A,2217.966478,N,11410.114465,E,0.3,0.0,120921,,E,A*23
$GPGGA,130122.000,2217.966457,N,11410.114540,E,1,19,0.8,68.1,M,,M,,*77
$GPRMC,130122.000,A,2217.966457,N,11410.114540,E,0.3,0.0,120921,,E,A*2B
$GPGGA,130123.000,2217.966086,N,11410.114071,E,1,19,0.8,59.8,M,,M,,*72
$GPRMC,130123.000,A,2217.966086,N,11410.114071,E,0.6,0.0,120921,,E,A*20
$GPGGA,130124.000,2217.965926,N,11410.114255,E,1,19,0.8,59.3,M,,M,,*7A
$GPRMC,130124.000,A,2217.965926,N,11410.114255,E,0.7,61.977601705,120921,,E,A*19
$GPGGA,130125.000,2217.965978,N,11410.114561,E,1,19,0.8,58.8,M,,M,,*7A
$GPRMC,130125.000,A,2217.965978,N,11410.114561,E,0.9,70.699309415,120921,,E,A*1D
$GPGGA,130126.000,2217.965987,N,11410.114827,E,1,19,0.8,58.4,M,,M,,*7A
$GPRMC,130126.000,A,2217.965987,N,11410.114827,E,0.9,70.699309415,120921,,E,A*11
$GPGGA,130127.000,2217.965988,N,11410.115089,E,1,19,0.8,58.4,M,,M,,*79
$GPRMC,130127.000,A,2217.965988,N,11410.115089,E,0.9,70.699309415,120921,,E,A*12
$GPGGA,130128.000,2217.965989,N,11410.115351,E,1,19,0.8,58.4,M,,M,,*71
$GPRMC,130128.000,A,2217.965989,N,11410.115351,E,0.9,70.699309415,120921,,E,A*1A
$GPGGA,130129.000,2217.965832,N,11410.114570,E,1,19,0.8,58.6,M,,M,,*77
$GPRMC,130129.000,A,2217.965832,N,11410.114570,E,0.3,97.33628933799999,120921,,E,A*2A
$GPGGA,130211.000,2217.988967,N,11410.112319,E,1,19,0.8,129.4,M,,M,,*47
$GPRMC,130211.000,A,2217.988967,N,11410.112319,E,0.2,89.48107992700001,120921,,E,A*24
$GPGGA,130212.000,2217.989020,N,11410.112321,E,1,19,0.8,129.7,M,,M,,*47
$GPRMC,130212.000,A,2217.989020,N,11410.112321,E,0.2,89.527265666,120921,,E,A*1E
$GPGGA,130213.000,2217.989044,N,11410.112294,E,1,19,0.8,129.9,M,,M,,*45
$GPRMC,130213.000,A,2217.989044,N,11410.112294,E,0.1,89.540885064,120921,,E,A*10
$GPGGA,130214.000,2217.989034,N,11410.112240,E,1,19,0.8,130.0,M,,M,,*4D
$GPRMC,130214.000,A,2217.989034,N,11410.112240,E,0.1,142.765134792,120921,,E,A*27
$GPGGA,130215.000,2217.988830,N,11410.112086,E,1,19,0.8,129.8,M,,M,,*49
$GPRMC,130215.000,A,2217.988830,N,11410.112086,E,0.5,78.26270582,120921,,E,A*2F
$GPGGA,130216.000,2217.988379,N,11410.111644,E,1,19,0.8,129.9,M,,M,,*46
$GPRMC,130216.000,A,2217.988379,N,11410.111644,E,1.7,89.59118940799999,120921,,E,A*25
$GPGGA,130217.000,2217.988083,N,11410.111292,E,1,19,0.8,130.2,M,,M,,*4D
$GPRMC,130217.000,A,2217.988083,N,11410.111292,E,1.5,89.59118940799999,120921,,E,A*2F
$GPGGA,130218.000,2217.988207,N,11410.111311,E,1,19,0.8,130.1,M,,M,,*45
$GPRMC,130218.000,A,2217.988207,N,11410.111311,E,0.5,142.823655854,120921,,E,A*22
$GPGGA,130219.000,2217.988263,N,11410.111256,E,1,19,0.8,130.4,M,,M,,*41
$GPRMC,130219.000,A,2217.988263,N,11410.111256,E,0.1,78.361777715,120921,,E,A*19
$GPGGA,130220.000,2217.988302,N,11410.111221,E,1,19,0.8,130.8,M,,M,,*41
$GPRMC,130220.000,A,2217.988302,N,11410.111221,E,0.2,78.385123302,120921,,E,A*19
$GPGGA,130221.000,2217.988349,N,11410.111268,E,1,19,0.8,130.7,M,,M,,*4D
$GPRMC,130221.000,A,2217.988349,N,11410.111268,E,0.2,229.136894007,120921,,E,A*25
$GPGGA,130222.000,2217.988382,N,11410.111372,E,1,19,0.8,130.5,M,,M,,*41
$GPRMC,130222.000,A,2217.988382,N,11410.111372,E,0.4,229.144516498,120921,,E,A*2D
$GPGGA,131606.000,2217.978821,N,11410.022859,E,1,19,0.8,1284.6,M,,M,,*72
$GPRMC,131606.000,A,2217.978821,N,11410.022859,E,0.7,65.935805658,120921,,E,A*16
$GPGGA,131607.000,2217.978688,N,11410.022982,E,1,19,0.8,1283.6,M,,M,,*7E
$GPRMC,131607.000,A,2217.978688,N,11410.022982,E,0.6,86.154839234,120921,,E,A*1F
$GPGGA,131608.000,2217.978610,N,11410.023011,E,1,19,0.8,1282.6,M,,M,,*73
$GPRMC,131608.000,A,2217.978610,N,11410.023011,E,0.3,78.02558897,120921,,E,A*2C
$GPGGA,131609.000,2217.978675,N,11410.023034,E,1,19,0.8,1281.6,M,,M,,*75
$GPRMC,131609.000,A,2217.978675,N,11410.023034,E,0.3,217.999177605,120921,,E,A*25
$GPGGA,131610.000,2217.978815,N,11410.023041,E,1,19,0.8,1280.5,M,,M,,*75
$GPRMC,131610.000,A,2217.978815,N,11410.023041,E,0.7,86.218407805,120921,,E,A*17
$GPGGA,131611.000,2217.978961,N,11410.023041,E,1,19,0.8,1279.9,M,,M,,*7C
$GPRMC,131611.000,A,2217.978961,N,11410.023041,E,0.5,311.475890922,120921,,E,A*20
$GPGGA,131612.000,2217.978889,N,11410.023155,E,1,19,0.8,1280.1,M,,M,,*72
$GPRMC,131612.000,A,2217.978889,N,11410.023155,E,0.3,122.262942061,120921,,E,A*24
$GPGGA,131613.000,2217.979040,N,11410.022974,E,1,19,0.8,1280.3,M,,M,,*77
$GPRMC,131613.000,A,2217.979040,N,11410.022974,E,1.1,0.0,120921,,E,A*2F
$GPGGA,131614.000,2217.979184,N,11410.022970,E,1,19,0.8,1280.1,M,,M,,*7F
$GPRMC,131614.000,A,2217.979184,N,11410.022970,E,0.3,80.975629669,120921,,E,A*11
$GPGGA,131615.000,2217.979282,N,11410.023116,E,1,19,0.8,1279.7,M,,M,,*72
$GPRMC,131615.000,A,2217.979282,N,11410.023116,E,0.9,86.277147433,120921,,E,A*1B
$GPGGA,131616.000,2217.979417,N,11410.023197,E,1,19,0.8,1279.6,M,,M,,*73
$GPRMC,131616.000,A,2217.979417,N,11410.023197,E,0.4,66.052226234,120921,,E,A*18
$GPGGA,131617.000,2217.979542,N,11410.023224,E,1,19,0.8,1279.7,M,,M,,*79
$GPRMC,131617.000,A,2217.979542,N,11410.023224,E,0.5,122.368850976,120921,,E,A*2F
$GPGGA,131618.000,2217.979604,N,11410.023349,E,1,19,0.8,1279.5,M,,M,,*7F
$GPRMC,131618.000,A,2217.979604,N,11410.023349,E,0.5,86.30850483200001,120921,,E,A*2E
$GPGGA,131619.000,2217.979704,N,11410.023433,E,1,19,0.8,1279.0,M,,M,,*70
$GPRMC,131619.000,A,2217.979704,N,11410.023433,E,0.4,86.32334683299999,120921,,E,A*24
$GPGGA,131620.000,2217.979690,N,11410.023496,E,1,19,0.8,1278.9,M,,M,,*71
$GPRMC,131620.000,A,2217.979690,N,11410.023496,E,0.2,86.313108379,120921,,E,A*1D
$GPGGA,131621.000,2217.979664,N,11410.023510,E,1,19,0.8,1278.8,M,,M,,*75
$GPRMC,131621.000,A,2217.979664,N,11410.023510,E,0.1,86.32902955,120921,,E,A*2D
$GPGGA,131622.000,2217.979666,N,11410.023526,E,1,19,0.8,1278.8,M,,M,,*71
$GPRMC,131622.000,A,2217.979666,N,11410.023526,E,0.1,86.340073966,120921,,E,A*10
$GPGGA,131623.000,2217.979717,N,11410.023580,E,1,19,0.8,1278.2,M,,M,,*71
$GPRMC,131623.000,A,2217.979717,N,11410.023580,E,0.2,213.441993375,120921,,E,A*2E
$GPGGA,131624.000,2217.979759,N,11410.023632,E,1,19,0.8,1277.8,M,,M,,*73
$GPRMC,131624.000,A,2217.979759,N,11410.023632,E,0.2,213.441993375,120921,,E,A*29
$GPGGA,131625.000,2217.979797,N,11410.023678,E,1,19,0.8,1277.8,M,,M,,*7E
$GPRMC,131625.000,A,2217.979797,N,11410.023678,E,0.2,213.441993375,120921,,E,A*24
$GPGGA,131626.000,2217.979693,N,11410.024115,E,1,19,0.8,1277.8,M,,M,,*73
$GPRMC,131626.000,A,2217.979693,N,11410.024115,E,0.8,78.217428495,120921,,E,A*1D
$GPGGA,131627.000,2217.979586,N,11410.024234,E,1,19,0.8,1277.7,M,,M,,*7A
$GPRMC,131627.000,A,2217.979586,N,11410.024234,E,0.6,320.739567318,120921,,E,A*2A
$GPGGA,131628.000,2217.979499,N,11410.024371,E,1,19,0.8,1277.6,M,,M,,*7B
$GPRMC,131628.000,A,2217.979499,N,11410.024371,E,0.6,320.739567318,120921,,E,A*2A
$GPGGA,131629.000,2217.979732,N,11410.024779,E,1,19,0.8,1277.1,M,,M,,*73
$GPRMC,131629.000,A,2217.979732,N,11410.024779,E,0.9,238.839095874,120921,,E,A*24
$GPGGA,131630.000,2217.979913,N,11410.025150,E,1,19,0.8,1276.4,M,,M,,*7E
$GPRMC,131630.000,A,2217.979913,N,11410.025150,E,1.2,219.264087673,120921,,E,A*2C
$GPGGA,131631.000,2217.980108,N,11410.025494,E,1,19,0.8,1276.0,M,,M,,*72
$GPRMC,131631.000,A,2217.980108,N,11410.025494,E,1.3,219.264087673,120921,,E,A*25
$GPGGA,131632.000,2217.980297,N,11410.025821,E,1,19,0.8,1276.0,M,,M,,*76
$GPRMC,131632.000,A,2217.980297,N,11410.025821,E,1.3,219.264087673,120921,,E,A*21
$GPGGA,131633.000,2217.980485,N,11410.026148,E,1,19,0.8,1276.0,M,,M,,*77
$GPRMC,131633.000,A,2217.980485,N,11410.026148,E,1.3,219.264087673,120921,,E,A*20
$GPGGA,132352.000,2217.774568,N,11410.176634,E,1,19,0.8,-153.1,M,,M,,*60
$GPRMC,132352.000,A,2217.774568,N,11410.176634,E,2.1,70.73904745600001,120921,,E,A*27
$GPGGA,132353.000,2217.773966,N,11410.176768,E,1,19,0.8,-153.3,M,,M,,*6E
$GPRMC,132353.000,A,2217.773966,N,11410.176768,E,2.3,70.746806551,120921,,E,A*1B
$GPGGA,132354.000,2217.773294,N,11410.176827,E,1,19,0.8,-153.1,M,,M,,*69
$GPRMC,132354.000,A,2217.773294,N,11410.176827,E,2.4,70.75412168300001,120921,,E,A*2B
$GPGGA,132355.000,2217.772667,N,11410.176864,E,1,19,0.8,-152.7,M,,M,,*61
$GPRMC,132355.000,A,2217.772667,N,11410.176864,E,2.3,46.712620505,120921,,E,A*1E
$GPGGA,132356.000,2217.772158,N,11410.176862,E,1,19,0.8,-152.8,M,,M,,*60
$GPRMC,132356.000,A,2217.772158,N,11410.176862,E,1.9,70.7926098,120921,,E,A*17
$GPGGA,132357.000,2217.771713,N,11410.176831,E,1,19,0.8,-153.1,M,,M,,*65
$GPRMC,132357.000,A,2217.771713,N,11410.176831,E,1.5,70.810204367,120921,,E,A*10
$GPGGA,132358.000,2217.771528,N,11410.176762,E,1,19,0.8,-154.0,M,,M,,*6F
$GPRMC,132358.000,A,2217.771528,N,11410.176762,E,0.3,46.792448342,120921,,E,A*12
$GPGGA,132359.000,2217.771246,N,11410.176497,E,1,19,0.8,-153.0,M,,M,,*6F
$GPRMC,132359.000,A,2217.771246,N,11410.176497,E,1.7,336.449139196,120921,,E,A*29
$GPGGA,132400.000,2217.770688,N,11410.176273,E,1,19,0.8,-151.9,M,,M,,*64
$GPRMC,132400.000,A,2217.770688,N,11410.176273,E,2.5,336.449139196,120921,,E,A*28
$GPGGA,132401.000,2217.770614,N,11410.176527,E,1,19,0.8,-151.6,M,,M,,*69
$GPRMC,132401.000,A,2217.770614,N,11410.176527,E,0.3,336.380509455,120921,,E,A*21
$GPGGA,132402.000,2217.770589,N,11410.176618,E,1,19,0.8,-151.8,M,,M,,*6C
$GPRMC,132402.000,A,2217.770589,N,11410.176618,E,0.3,336.380509455,120921,,E,A*2A
$GPGGA,132403.000,2217.770748,N,11410.176358,E,1,19,0.8,-151.7,M,,M,,*6C
$GPRMC,132403.000,A,2217.770748,N,11410.176358,E,0.5,70.909296753,120921,,E,A*1D
$GPGGA,132404.000,2217.772127,N,11410.181930,E,1,19,0.8,-203.1,M,,M,,*68
$GPRMC,132404.000,A,2217.772127,N,11410.181930,E,0.7,70.89512411,120921,,E,A*26
$GPGGA,132405.000,2217.772016,N,11410.181943,E,1,19,0.8,-202.4,M,,M,,*6A
$GPRMC,132405.000,A,2217.772016,N,11410.181943,E,0.3,336.431025535,120921,,E,A*24
$GPGGA,132406.000,2217.771809,N,11410.182042,E,1,19,0.8,-201.7,M,,M,,*67
$GPRMC,132406.000,A,2217.771809,N,11410.182042,E,0.8,336.431025535,120921,,E,A*22
$GPGGA,132407.000,2217.771679,N,11410.182180,E,1,19,0.8,-201.5,M,,M,,*62
$GPRMC,132407.000,A,2217.771679,N,11410.182180,E,0.7,76.426990006,120921,,E,A*19
$GPGGA,132408.000,2217.771677,N,11410.182394,E,1,19,0.8,-200.6,M,,M,,*66
$GPRMC,132408.000,A,2217.771677,N,11410.182394,E,0.8,71.059021331,120921,,E,A*1F
$GPGGA,132409.000,2217.771727,N,11410.182568,E,1,19,0.8,-199.9,M,,M,,*6A
$GPRMC,132409.000,A,2217.771727,N,11410.182568,E,0.6,226.780861206,120921,,E,A*2B
$GPGGA,132410.000,2217.771727,N,11410.182677,E,1,19,0.8,-199.5,M,,M,,*63
$GPRMC,132410.000,A,2217.771727,N,11410.182677,E,0.4,90.413093401,120921,,E,A*1E
$GPGGA,132411.000,2217.771722,N,11410.182790,E,1,19,0.8,-199.4,M,,M,,*6E
$GPRMC,132411.000,A,2217.771722,N,11410.182790,E,0.4,90.413093401,120921,,E,A*12
$GPGGA,132412.000,2217.771781,N,11410.182876,E,1,19,0.8,-199.2,M,,M,,*65
$GPRMC,132412.000,A,2217.771781,N,11410.182876,E,0.4,79.164673292,120921,,E,A*19
$GPGGA,132413.000,2217.771799,N,11410.182768,E,1,19,0.8,-199.1,M,,M,,*6E
$GPRMC,132413.000,A,2217.771799,N,11410.182768,E,0.3,64.202638306,120921,,E,A*1A
$GPGGA,132414.000,2217.771837,N,11410.182734,E,1,19,0.8,-198.9,M,,M,,*62
$GPRMC,132414.000,A,2217.771837,N,11410.182734,E,0.1,0.0,120921,,E,A*27
$GPGGA,132415.000,2217.804373,N,11410.176541,E,1,19,0.8,-12.1,M,,M,,*55
$GPRMC,132415.000,A,2217.804373,N,11410.176541,E,0.3,343.65149179800005,120921,,E,A*10
$GPGGA,132416.000,2217.804427,N,11410.176540,E,1,19,0.8,-12.2,M,,M,,*52
$GPRMC,132416.000,A,2217.804427,N,11410.176540,E,0.2,81.64306893199999,120921,,E,A*28
$GPGGA,132417.000,2217.804465,N,11410.176483,E,1,19,0.8,-12.7,M,,M,,*5E
$GPRMC,132417.000,A,2217.804465,N,11410.176483,E,0.2,336.534216034,120921,,E,A*23
$GPGGA,132418.000,2217.804543,N,11410.176404,E,1,19,0.8,-12.9,M,,M,,*55
$GPRMC,132418.000,A,2217.804543,N,11410.176404,E,0.3,340.90034621,120921,,E,A*1D
$GPGGA,132419.000,2217.804464,N,11410.176554,E,1,19,0.8,-12.8,M,,M,,*55
$GPRMC,132419.000,A,2217.804464,N,11410.176554,E,0.2,0.0,120921,,E,A*21
$GPGGA,132420.000,2217.804617,N,11410.176470,E,1,19,0.8,-12.3,M,,M,,*55
$GPRMC,132420.000,A,2217.804617,N,11410.176470,E,0.9,0.0,120921,,E,A*21
$GPGGA,132421.000,2217.804730,N,11410.176397,E,1,19,0.8,-12.1,M,,M,,*5C
$GPRMC,132421.000,A,2217.804730,N,11410.176397,E,0.2,225.278219571,120921,,E,A*20
$GPGGA,132422.000,2217.804801,N,11410.176303,E,1,19,0.8,-11.8,M,,M,,*55
$GPRMC,132422.000,A,2217.804801,N,11410.176303,E,0.7,0.0,120921,,E,A*27
$GPGGA,132423.000,2217.804809,N,11410.176175,E,1,19,0.8,-11.2,M,,M,,*55
$GPRMC,132423.000,A,2217.804809,N,11410.176175,E,0.5,71.108437751,120921,,E,A*13
$GPGGA,132424.000,2217.797833,N,11410.177261,E,1,19,0.8,-38.6,M,,M,,*56
$GPRMC,132424.000,A,2217.797833,N,11410.177261,E,0.8,71.141065565,120921,,E,A*19
$GPGGA,132425.000,2217.797969,N,11410.177170,E,1,19,0.8,-38.5,M,,M,,*59
$GPRMC,132425.000,A,2217.797969,N,11410.177170,E,0.4,225.26655360799998,120921,,E,A*13
$GPGGA,132426.000,2217.798032,N,11410.176978,E,1,19,0.8,-38.5,M,,M,,*53
$GPRMC,132426.000,A,2217.798032,N,11410.176978,E,0.7,47.181813526000006,120921,,E,A*11
$GPGGA,132427.000,2217.798213,N,11410.176809,E,1,19,0.8,-38.7,M,,M,,*56
$GPRMC,132427.000,A,2217.798213,N,11410.176809,E,0.9,225.58781839,120921,,E,A*1A
$GPGGA,132428.000,2217.798232,N,11410.176615,E,1,19,0.8,-38.4,M,,M,,*5A
$GPRMC,132428.000,A,2217.798232,N,11410.176615,E,0.6,0.0,120921,,E,A*2E
$GPGGA,132429.000,2217.798450,N,11410.176654,E,1,19,0.8,-39.0,M,,M,,*59
$GPRMC,132429.000,A,2217.798450,N,11410.176654,E,1.0,225.301373913,120921,,E,A*24
$GPGGA,132430.000,2217.798733,N,11410.176617,E,1,19,0.8,-39.8,M,,M,,*58
$GPRMC,132430.000,A,2217.798733,N,11410.176617,E,1.0,225.301373913,120921,,E,A*2D
$GPGGA,132431.000,2217.798589,N,11410.176651,E,1,19,0.8,-39.4,M,,M,,*54
$GPRMC,132431.000,A,2217.798589,N,11410.176651,E,0.0,225.340715803,120921,,E,A*2D
$GPGGA,132432.000,2217.798334,N,11410.176130,E,1,19,0.8,-38.9,M,,M,,*5B
$GPRMC,132432.000,A,2217.798334,N,11410.176130,E,0.8,105.837982991,120921,,E,A*26
$GPGGA,132433.000,2217.798246,N,11410.175964,E,1,19,0.8,-38.4,M,,M,,*59
$GPRMC,132433.000,A,2217.798246,N,11410.175964,E,0.5,81.742796526,120921,,E,A*1F
$GPGGA,132434.000,2217.798137,N,11410.175931,E,1,19,0.8,-38.0,M,,M,,*5F
$GPRMC,132434.000,A,2217.798137,N,11410.175931,E,0.4,88.353395191,120921,,E,A*1E
$GPGGA,132435.000,2217.779315,N,11410.182832,E,1,19,0.8,8.2,M,,M,,*45
$GPRMC,132435.000,A,2217.779315,N,11410.182832,E,0.2,81.820940721,120921,,E,A*17
$GPGGA,132436.000,2217.779356,N,11410.182827,E,1,19,0.8,8.5,M,,M,,*42
$GPRMC,132436.000,A,2217.779356,N,11410.182827,E,0.3,81.24092788,120921,,E,A*2F
$GPGGA,132437.000,2217.779446,N,11410.182885,E,1,19,0.8,8.4,M,,M,,*4C
$GPRMC,132437.000,A,2217.779446,N,11410.182885,E,0.4,58.70322946899999,120921,,E,A*27
$GPGGA,132438.000,2217.779457,N,11410.182943,E,1,19,0.8,8.5,M,,M,,*49
$GPRMC,132438.000,A,2217.779457,N,11410.182943,E,0.2,58.710203092,120921,,E,A*17
$GPGGA,132439.000,2217.779594,N,11410.183065,E,1,19,0.8,7.9,M,,M,,*49
$GPRMC,132439.000,A,2217.779594,N,11410.183065,E,0.8,60.389309497,120921,,E,A*1B
$GPGGA,132440.000,2217.779668,N,11410.183229,E,1,19,0.8,7.9,M,,M,,*4D
$GPRMC,132440.000,A,2217.779668,N,11410.183229,E,0.6,69.33730820699999,120921,,E,A*2B
$GPGGA,132441.000,2217.777421,N,11410.181498,E,1,19,0.8,22.7,M,,M,,*7A
$GPRMC,132441.000,A,2217.777421,N,11410.181498,E,0.5,81.74005762,120921,,E,A*24
$GPGGA,132442.000,2217.777458,N,11410.181648,E,1,19,0.8,23.0,M,,M,,*7E
$GPRMC,132442.000,A,2217.777458,N,11410.181648,E,0.5,133.557220061,120921,,E,A*2B
$GPGGA,132443.000,2217.777553,N,11410.181700,E,1,19,0.8,23.2,M,,M,,*7A
$GPRMC,132443.000,A,2217.777553,N,11410.181700,E,0.4,133.13960863,120921,,E,A*1C
$GPGGA,132444.000,2217.777542,N,11410.181704,E,1,19,0.8,23.0,M,,M,,*7B
$GPRMC,132444.000,A,2217.777542,N,11410.181704,E,0.1,80.128173938,120921,,E,A*1F
$GPGGA,132445.000,2217.777568,N,11410.181684,E,1,19,0.8,23.0,M,,M,,*7B
$GPRMC,132445.000,A,2217.777568,N,11410.181684,E,0.2,38.945585423000004,120921,,E,A*12
$GPGGA,132446.000,2217.777579,N,11410.181620,E,1,19,0.8,23.0,M,,M,,*76
$GPRMC,132446.000,A,2217.777579,N,11410.181620,E,0.3,42.827704483000005,120921,,E,A*16
$GPGGA,132447.000,2217.776926,N,11410.181209,E,1,19,0.8,36.7,M,,M,,*7C
$GPRMC,132447.000,A,2217.776926,N,11410.181209,E,0.1,0.0,120921,,E,A*2F
$GPGGA,132448.000,2217.776900,N,11410.181212,E,1,19,0.8,36.4,M,,M,,*7E
$GPRMC,132448.000,A,2217.776900,N,11410.181212,E,0.1,72.413024388,120921,,E,A*18
$GPGGA,132449.000,2217.776872,N,11410.181222,E,1,19,0.8,36.3,M,,M,,*7F
$GPRMC,132449.000,A,2217.776872,N,11410.181222,E,0.2,102.473780106,120921,,E,A*20
$GPGGA,132450.000,2217.776823,N,11410.181239,E,1,19,0.8,36.3,M,,M,,*79
$GPRMC,132450.000,A,2217.776823,N,11410.181239,E,0.2,106.063830029,120921,,E,A*2F
$GPGGA,132451.000,2217.776912,N,11410.181167,E,1,19,0.8,36.5,M,,M,,*75
$GPRMC,132451.000,A,2217.776912,N,11410.181167,E,0.3,0.0,120921,,E,A*26
$GPGGA,132452.000,2217.776946,N,11410.181129,E,1,19,0.8,36.6,M,,M,,*7E
$GPRMC,132452.000,A,2217.776946,N,11410.181129,E,0.1,133.404087218,120921,,E,A*29
$GPGGA,132453.000,2217.777023,N,11410.180979,E,1,19,0.8,36.4,M,,M,,*7A
$GPRMC,132453.000,A,2217.777023,N,11410.180979,E,0.5,72.552653947,120921,,E,A*13
$GPGGA,132454.000,2217.777073,N,11410.180887,E,1,19,0.8,36.4,M,,M,,*78
$GPRMC,132454.000,A,2217.777073,N,11410.180887,E,0.3,106.09001014399999,120921,,E,A*1A
$GPGGA,132455.000,2217.776905,N,11410.180926,E,1,19,0.8,37.2,M,,M,,*7D
$GPRMC,132455.000,A,2217.776905,N,11410.180926,E,0.3,106.10336999399999,120921,,E,A*1B
$GPGGA,132456.000,2217.776868,N,11410.180900,E,1,19,0.8,38.0,M,,M,,*7D
$GPRMC,132456.000,A,2217.776868,N,11410.180900,E,0.2,0.0,120921,,E,A*24
$GPGGA,132457.000,2217.776850,N,11410.180876,E,1,19,0.8,38.1,M,,M,,*76
$GPRMC,132457.000,A,2217.776850,N,11410.180876,E,0.1,0.0,120921,,E,A*2D
$GPGGA,132458.000,2217.776763,N,11410.180876,E,1,19,0.8,38.1,M,,M,,*76
$GPRMC,132458.000,A,2217.776763,N,11410.180876,E,0.4,50.893454477,120921,,E,A*1E
$GPGGA,132459.000,2217.776677,N,11410.180930,E,1,19,0.8,38.3,M,,M,,*72
$GPRMC,132459.000,A,2217.776677,N,11410.180930,E,0.3,0.0,120921,,E,A*29
$GPGGA,132500.000,2217.776674,N,11410.181002,E,1,19,0.8,38.2,M,,M,,*74
$GPRMC,132500.000,A,2217.776674,N,11410.181002,E,0.2,0.0,120921,,E,A*2F
$GPGGA,132501.000,2217.776621,N,11410.181073,E,1,19,0.8,38.3,M,,M,,*72
$GPRMC,132501.000,A,2217.776621,N,11410.181073,E,0.4,0.0,120921,,E,A*2E
$GPGGA,132502.000,2217.776569,N,11410.181130,E,1,19,0.8,38.5,M,,M,,*7E
$GPRMC,132502.000,A,2217.776569,N,11410.181130,E,0.2,0.0,120921,,E,A*22
$GPGGA,132503.000,2217.776734,N,11410.181095,E,1,19,0.8,36.5,M,,M,,*75
$GPRMC,132503.000,A,2217.776734,N,11410.181095,E,0.2,77.075133985,120921,,E,A*10
$GPGGA,132504.000,2217.776758,N,11410.181154,E,1,19,0.8,36.2,M,,M,,*73
$GPRMC,132504.000,A,2217.776758,N,11410.181154,E,0.2,77.076568325,120921,,E,A*18
$GPGGA,132505.000,2217.776734,N,11410.181203,E,1,19,0.8,35.8,M,,M,,*70
$GPRMC,132505.000,A,2217.776734,N,11410.181203,E,0.2,80.617727753,120921,,E,A*17
$GPGGA,132506.000,2217.776700,N,11410.181210,E,1,19,0.8,35.9,M,,M,,*77
$GPRMC,132506.000,A,2217.776700,N,11410.181210,E,0.1,85.31249248399999,120921,,E,A*2D
$GPGGA,132507.000,2217.776743,N,11410.181186,E,1,19,0.8,35.6,M,,M,,*72
$GPRMC,132507.000,A,2217.776743,N,11410.181186,E,0.2,0.0,120921,,E,A*20
$GPGGA,132508.000,2217.776843,N,11410.181138,E,1,19,0.8,35.5,M,,M,,*74
$GPRMC,132508.000,A,2217.776843,N,11410.181138,E,0.5,0.0,120921,,E,A*22
$GPGGA,132509.000,2217.777943,N,11410.180611,E,1,19,0.8,32.6,M,,M,,*7C
$GPRMC,132509.000,A,2217.777943,N,11410.180611,E,0.4,73.332265408,120921,,E,A*14
$GPGGA,132510.000,2217.778056,N,11410.180565,E,1,19,0.8,32.7,M,,M,,*77
$GPRMC,132510.000,A,2217.778056,N,11410.180565,E,0.4,69.946308371,120921,,E,A*1F
$GPGGA,132511.000,2217.778073,N,11410.180635,E,1,19,0.8,33.0,M,,M,,*71
$GPRMC,132511.000,A,2217.778073,N,11410.180635,E,0.2,78.219942005,120921,,E,A*1C
$GPGGA,132512.000,2217.778188,N,11410.180714,E,1,19,0.8,33.3,M,,M,,*76
$GPRMC,132512.000,A,2217.778188,N,11410.180714,E,0.6,78.301016351,120921,,E,A*1E
$GPGGA,132513.000,2217.778326,N,11410.180801,E,1,19,0.8,33.5,M,,M,,*7C
$GPRMC,132513.000,A,2217.778326,N,11410.180801,E,0.6,73.407219905,120921,,E,A*1E
$GPGGA,132514.000,2217.778325,N,11410.180783,E,1,19,0.8,33.5,M,,M,,*7D
$GPRMC,132514.000,A,2217.778325,N,11410.180783,E,0.1,85.435135362,120921,,E,A*16
$GPGGA,132515.000,2217.778444,N,11410.180540,E,1,19,0.8,33.9,M,,M,,*7D
$GPRMC,132515.000,A,2217.778444,N,11410.180540,E,0.5,80.796794824,120921,,E,A*15
$GPGGA,132516.000,2217.778601,N,11410.180418,E,1,19,0.8,34.0,M,,M,,*7F
$GPRMC,132516.000,A,2217.778601,N,11410.180418,E,0.7,0.0,120921,,E,A*2F
$GPGGA,132517.000,2217.778572,N,11410.180323,E,1,19,0.8,34.0,M,,M,,*76
$GPRMC,132517.000,A,2217.778572,N,11410.180323,E,0.4,70.792350253,120921,,E,A*1C
$GPGGA,132518.000,2217.778502,N,11410.180229,E,1,19,0.8,34.0,M,,M,,*75
$GPRMC,132518.000,A,2217.778502,N,11410.180229,E,0.5,70.809862858,120921,,E,A*18
$GPGGA,132519.000,2217.778705,N,11410.180171,E,1,19,0.8,33.2,M,,M,,*7A
$GPRMC,132519.000,A,2217.778705,N,11410.180171,E,0.9,0.0,120921,,E,A*21
$GPGGA,132520.000,2217.778956,N,11410.180171,E,1,19,0.8,32.6,M,,M,,*7D
$GPRMC,132520.000,A,2217.778956,N,11410.180171,E,1.0,81.968950922,120921,,E,A*10
$GPGGA,132521.000,2217.779092,N,11410.180125,E,1,19,0.8,30.0,M,,M,,*79
$GPRMC,132521.000,A,2217.779092,N,11410.180125,E,0.9,89.816715427,120921,,E,A*1F
$GPGGA,132522.000,2217.779121,N,11410.180216,E,1,19,0.8,30.3,M,,M,,*73
$GPRMC,132522.000,A,2217.779121,N,11410.180216,E,0.3,0.0,120921,,E,A*20
$GPGGA,132523.000,2217.779205,N,11410.180234,E,1,19,0.8,30.0,M,,M,,*74
$GPRMC,132523.000,A,2217.779205,N,11410.180234,E,0.3,0.0,120921,,E,A*24
$GPGGA,132524.000,2217.779236,N,11410.180224,E,1,19,0.8,30.1,M,,M,,*73
$GPRMC,132524.000,A,2217.779236,N,11410.180224,E,0.1,91.582879423,120921,,E,A*14
$GPGGA,132525.000,2217.779236,N,11410.180224,E,1,19,0.8,30.1,M,,M,,*72
$GPRMC,132525.000,A,2217.779236,N,11410.180224,E,0.0,91.606853387,120921,,E,A*1A
$GPGGA,132526.000,2217.779277,N,11410.180213,E,1,19,0.8,29.8,M,,M,,*71
$GPRMC,132526.000,A,2217.779277,N,11410.180213,E,0.1,0.0,120921,,E,A*23
$GPGGA,132527.000,2217.779356,N,11410.180330,E,1,19,0.8,27.6,M,,M,,*72
$GPRMC,132527.000,A,2217.779356,N,11410.180330,E,0.4,0.0,120921,,E,A*25
$GPGGA,132528.000,2217.779441,N,11410.180378,E,1,19,0.8,27.4,M,,M,,*72
$GPRMC,132528.000,A,2217.779441,N,11410.180378,E,0.3,0.0,120921,,E,A*20
$GPGGA,132529.000,2217.779521,N,11410.180426,E,1,19,0.8,27.4,M,,M,,*78
$GPRMC,132529.000,A,2217.779521,N,11410.180426,E,0.3,64.067892332,120921,,E,A*18
$GPGGA,132530.000,2217.779699,N,11410.180323,E,1,19,0.8,26.6,M,,M,,*71
$GPRMC,132530.000,A,2217.779699,N,11410.180323,E,0.5,32.248885392,120921,,E,A*14
$GPGGA,132531.000,2217.779697,N,11410.180358,E,1,19,0.8,26.1,M,,M,,*75
$GPRMC,132531.000,A,2217.779697,N,11410.180358,E,0.1,0.0,120921,,E,A*21
$GPGGA,132532.000,2217.779651,N,11410.180280,E,1,19,0.8,27.5,M,,M,,*7D
$GPRMC,132532.000,A,2217.779651,N,11410.180280,E,0.1,98.448059732,120921,,E,A*1F
$GPGGA,132533.000,2217.779679,N,11410.180246,E,1,19,0.8,27.3,M,,M,,*7A
$GPRMC,132533.000,A,2217.779679,N,11410.180246,E,0.1,0.0,120921,,E,A*2D
$GPGGA,132534.000,2217.779656,N,11410.180345,E,1,19,0.8,27.2,M,,M,,*73
$GPRMC,132534.000,A,2217.779656,N,11410.180345,E,0.4,0.0,120921,,E,A*20
$GPGGA,132535.000,2217.779633,N,11410.180475,E,1,19,0.8,27.1,M,,M,,*76
$GPRMC,132535.000,A,2217.779633,N,11410.180475,E,0.5,0.0,120921,,E,A*27
$GPGGA,132536.000,2217.779584,N,11410.180611,E,1,19,0.8,27.1,M,,M,,*7A
$GPRMC,132536.000,A,2217.779584,N,11410.180611,E,0.5,0.0,120921,,E,A*2B
$GPGGA,132537.000,2217.779610,N,11410.180639,E,1,19,0.8,27.0,M,,M,,*7E
$GPRMC,132537.000,A,2217.779610,N,11410.180639,E,0.2,82.024500851,120921,,E,A*1C
$GPGGA,132538.000,2217.780017,N,11410.179835,E,1,19,0.8,24.4,M,,M,,*75
$GPRMC,132538.000,A,2217.780017,N,11410.179835,E,0.3,85.2795095,120921,,E,A*1C
$GPGGA,132539.000,2217.780135,N,11410.179813,E,1,19,0.8,24.2,M,,M,,*77
$GPRMC,132539.000,A,2217.780135,N,11410.179813,E,0.4,86.998715946,120921,,E,A*19
$GPGGA,132540.000,2217.780221,N,11410.179892,E,1,19,0.8,24.5,M,,M,,*71
$GPRMC,132540.000,A,2217.780221,N,11410.179892,E,0.4,79.236690807,120921,,E,A*1F
$GPGGA,132541.000,2217.780348,N,11410.180008,E,1,19,0.8,25.1,M,,M,,*76
$GPRMC,132541.000,A,2217.780348,N,11410.180008,E,0.6,86.976374397,120921,,E,A*1D
$GPGGA,132542.000,2217.780443,N,11410.180124,E,1,19,0.8,25.5,M,,M,,*72
$GPRMC,132542.000,A,2217.780443,N,11410.180124,E,0.5,324.931418385,120921,,E,A*28
$GPGGA,132543.000,2217.780473,N,11410.180248,E,1,19,0.8,26.1,M,,M,,*7E
$GPRMC,132543.000,A,2217.780473,N,11410.180248,E,0.4,0.0,120921,,E,A*2F
$GPGGA,132544.000,2217.780358,N,11410.180226,E,1,19,0.8,28.2,M,,M,,*72
$GPRMC,132544.000,A,2217.780358,N,11410.180226,E,0.2,86.992814662,120921,,E,A*1B
$GPGGA,132545.000,2217.780293,N,11410.180302,E,1,19,0.8,28.4,M,,M,,*74
$GPRMC,132545.000,A,2217.780293,N,11410.180302,E,0.4,86.992814662,120921,,E,A*1D
$GPGGA,132546.000,2217.780211,N,11410.180375,E,1,19,0.8,28.5,M,,M,,*7C
$GPRMC,132546.000,A,2217.780211,N,11410.180375,E,0.4,0.0,120921,,E,A*27
$GPGGA,132547.000,2217.780201,N,11410.180435,E,1,19,0.8,28.7,M,,M,,*7D
$GPRMC,132547.000,A,2217.780201,N,11410.180435,E,0.2,92.332957146,120921,,E,A*13
$GPGGA,132548.000,2217.780247,N,11410.180487,E,1,19,0.8,28.7,M,,M,,*79
$GPRMC,132548.000,A,2217.780247,N,11410.180487,E,0.2,358.63766467199997,120921,,E,A*19
$GPGGA,132549.000,2217.780189,N,11410.180459,E,1,19,0.8,29.1,M,,M,,*7D
$GPRMC,132549.000,A,2217.780189,N,11410.180459,E,0.2,0.0,120921,,E,A*25
$GPGGA,132550.000,2217.780057,N,11410.180535,E,1,19,0.8,28.8,M,,M,,*74
$GPRMC,132550.000,A,2217.780057,N,11410.180535,E,0.4,0.0,120921,,E,A*22
$GPGGA,132551.000,2217.780040,N,11410.180606,E,1,19,0.8,28.9,M,,M,,*71
$GPRMC,132551.000,A,2217.780040,N,11410.180606,E,0.3,338.33481784400004,120921,,E,A*1F
$GPGGA,132552.000,2217.780042,N,11410.180695,E,1,19,0.8,28.4,M,,M,,*77
$GPRMC,132552.000,A,2217.780042,N,11410.180695,E,0.3,119.970539304,120921,,E,A*25
$GPGGA,132553.000,2217.779941,N,11410.180851,E,1,19,0.8,27.8,M,,M,,*7F
$GPRMC,132553.000,A,2217.779941,N,11410.180851,E,0.5,24.619140528000003,120921,,E,A*16
$GPGGA,132554.000,2217.779890,N,11410.180892,E,1,19,0.8,27.7,M,,M,,*75
$GPRMC,132554.000,A,2217.779890,N,11410.180892,E,0.2,0.0,120921,,E,A*25
$GPGGA,132555.000,2217.779817,N,11410.180979,E,1,19,0.8,28.0,M,,M,,*77
$GPRMC,132555.000,A,2217.779817,N,11410.180979,E,0.5,87.89347073799999,120921,,E,A*2C
$GPGGA,132556.000,2217.779663,N,11410.180899,E,1,19,0.8,32.2,M,,M,,*7F
$GPRMC,132556.000,A,2217.779663,N,11410.180899,E,0.4,82.460048359,120921,,E,A*13
$GPGGA,132557.000,2217.779655,N,11410.181007,E,1,19,0.8,32.4,M,,M,,*73
$GPRMC,132557.000,A,2217.779655,N,11410.181007,E,0.4,82.460048359,120921,,E,A*19
$GPGGA,132558.000,2217.779571,N,11410.180988,E,1,19,0.8,32.1,M,,M,,*73
$GPRMC,132558.000,A,2217.779571,N,11410.180988,E,0.2,0.0,120921,,E,A*21
$GPGGA,132559.000,2217.779521,N,11410.181031,E,1,19,0.8,31.7,M,,M,,*78
$GPRMC,132559.000,A,2217.779521,N,11410.181031,E,0.2,0.0,120921,,E,A*2F
$GPGGA,132600.000,2217.779580,N,11410.181178,E,1,19,0.8,31.4,M,,M,,*73
$GPRMC,132600.000,A,2217.779580,N,11410.181178,E,0.5,0.0,120921,,E,A*20
$GPGGA,132601.000,2217.779657,N,11410.181311,E,1,19,0.8,31.1,M,,M,,*73
$GPRMC,132601.000,A,2217.779657,N,11410.181311,E,0.6,0.0,120921,,E,A*26
$GPGGA,132602.000,2217.779619,N,11410.180778,E,1,19,0.8,34.2,M,,M,,*76
$GPRMC,132602.000,A,2217.779619,N,11410.180778,E,0.4,0.0,120921,,E,A*27
$GPGGA,132603.000,2217.779677,N,11410.180860,E,1,19,0.8,34.3,M,,M,,*78
$GPRMC,132603.000,A,2217.779677,N,11410.180860,E,0.3,218.33212201,120921,,E,A*16
$GPGGA,132604.000,2217.779721,N,11410.180864,E,1,19,0.8,34.4,M,,M,,*7E
$GPRMC,132604.000,A,2217.779721,N,11410.180864,E,0.2,0.0,120921,,E,A*2F
$GPGGA,132605.000,2217.779731,N,11410.180912,E,1,19,0.8,34.4,M,,M,,*7E
$GPRMC,132605.000,A,2217.779731,N,11410.180912,E,0.2,0.0,120921,,E,A*2F
$GPGGA,132606.000,2217.779738,N,11410.180959,E,1,19,0.8,34.3,M,,M,,*7C
$GPRMC,132606.000,A,2217.779738,N,11410.180959,E,0.2,0.0,120921,,E,A*2A
$GPGGA,132607.000,2217.779854,N,11410.180975,E,1,19,0.8,34.4,M,,M,,*71
$GPRMC,132607.000,A,2217.779854,N,11410.180975,E,0.3,0.0,120921,,E,A*21
$GPGGA,132608.000,2217.779676,N,11410.180968,E,1,19,0.8,36.8,M,,M,,*72
$GPRMC,132608.000,A,2217.779676,N,11410.180968,E,0.6,0.0,120921,,E,A*29
$GPGGA,132609.000,2217.779570,N,11410.181090,E,1,19,0.8,36.8,M,,M,,*79
$GPRMC,132609.000,A,2217.779570,N,11410.181090,E,0.5,0.0,120921,,E,A*21
$GPGGA,132610.000,2217.779500,N,11410.181177,E,1,19,0.8,36.5,M,,M,,*73
$GPRMC,132610.000,A,2217.779500,N,11410.181177,E,0.4,0.0,120921,,E,A*27
$GPGGA,132611.000,2217.779416,N,11410.181254,E,1,19,0.8,36.7,M,,M,,*74
$GPRMC,132611.000,A,2217.779416,N,11410.181254,E,0.4,0.0,120921,,E,A*22
$GPGGA,132612.000,2217.779507,N,11410.181242,E,1,19,0.8,36.5,M,,M,,*73
$GPRMC,132612.000,A,2217.779507,N,11410.181242,E,0.2,0.0,120921,,E,A*21
$GPGGA,132613.000,2217.779525,N,11410.181261,E,1,19,0.8,36.4,M,,M,,*72
$GPRMC,132613.000,A,2217.779525,N,11410.181261,E,0.1,0.0,120921,,E,A*22
$GPGGA,132614.000,2217.779476,N,11410.180558,E,1,19,0.8,40.5,M,,M,,*7E
$GPRMC,132614.000,A,2217.779476,N,11410.180558,E,0.1,0.0,120921,,E,A*2E
$GPGGA,132615.000,2217.779479,N,11410.180582,E,1,19,0.8,40.5,M,,M,,*77
$GPRMC,132615.000,A,2217.779479,N,11410.180582,E,0.1,0.0,120921,,E,A*27
$GPGGA,132616.000,2217.779109,N,11410.180791,E,1,19,0.8,40.7,M,,M,,*74
$GPRMC,132616.000,A,2217.779109,N,11410.180791,E,0.8,0.0,120921,,E,A*2F
$GPGGA,132617.000,2217.779032,N,11410.180814,E,1,19,0.8,40.8,M,,M,,*71
$GPRMC,132617.000,A,2217.779032,N,11410.180814,E,0.1,0.0,120921,,E,A*2C
$GPGGA,132618.000,2217.778963,N,11410.180898,E,1,19,0.8,40.4,M,,M,,*7A
$GPRMC,132618.000,A,2217.778963,N,11410.180898,E,0.6,0.0,120921,,E,A*2C
$GPGGA,132619.000,2217.778846,N,11410.181089,E,1,19,0.8,40.4,M,,M,,*74
$GPRMC,132619.000,A,2217.778846,N,11410.181089,E,0.9,67.27955660100001,120921,,E,A*20
$GPGGA,132620.000,2217.778885,N,11410.181004,E,1,19,0.8,41.7,M,,M,,*76
$GPRMC,132620.000,A,2217.778885,N,11410.181004,E,0.2,0.0,120921,,E,A*26
$GPGGA,132621.000,2217.778869,N,11410.181001,E,1,19,0.8,42.5,M,,M,,*71
$GPRMC,132621.000,A,2217.778869,N,11410.181001,E,0.3,0.0,120921,,E,A*21
$GPGGA,132622.000,2217.778862,N,11410.181016,E,1,19,0.8,42.8,M,,M,,*72
$GPRMC,132622.000,A,2217.778862,N,11410.181016,E,0.2,80.955016158,120921,,E,A*14
$GPGGA,132623.000,2217.778830,N,11410.181088,E,1,19,0.8,43.3,M,,M,,*79
$GPRMC,132623.000,A,2217.778830,N,11410.181088,E,0.3,0.0,120921,,E,A*2E
$GPGGA,132624.000,2217.778786,N,11410.181173,E,1,19,0.8,43.4,M,,M,,*7E
$GPRMC,132624.000,A,2217.778786,N,11410.181173,E,0.3,42.820771840999996,120921,,E,A*10
$GPGGA,132625.000,2217.778750,N,11410.181259,E,1,19,0.8,43.2,M,,M,,*79
$GPRMC,132625.000,A,2217.778750,N,11410.181259,E,0.3,0.0,120921,,E,A*2F
$GPGGA,132626.000,2217.778705,N,11410.181090,E,1,19,0.8,44.9,M,,M,,*71
$GPRMC,132626.000,A,2217.778705,N,11410.181090,E,0.3,0.0,120921,,E,A*2B
$GPGGA,132627.000,2217.778778,N,11410.181168,E,1,19,0.8,45.2,M,,M,,*76
$GPRMC,132627.000,A,2217.778778,N,11410.181168,E,0.3,346.8585935,120921,,E,A*28
$GPGGA,132628.000,2217.778758,N,11410.181005,E,1,19,0.8,45.3,M,,M,,*70
$GPRMC,132628.000,A,2217.778758,N,11410.181005,E,0.2,0.0,120921,,E,A*20
$GPGGA,132629.000,2217.778727,N,11410.180993,E,1,19,0.8,45.2,M,,M,,*7F
$GPRMC,132629.000,A,2217.778727,N,11410.180993,E,0.1,0.0,120921,,E,A*2D
$GPGGA,132630.000,2217.778593,N,11410.181047,E,1,19,0.8,44.7,M,,M,,*7F
$GPRMC,132630.000,A,2217.778593,N,11410.181047,E,0.4,120.420648775,120921,,E,A*26
$GPGGA,132631.000,2217.778519,N,11410.181040,E,1,19,0.8,44.2,M,,M,,*7E
$GPRMC,132631.000,A,2217.778519,N,11410.181040,E,0.2,89.348301048,120921,,E,A*1E
$GPGGA,132632.000,2217.778636,N,11410.179979,E,1,19,0.8,47.0,M,,M,,*76
$GPRMC,132632.000,A,2217.778636,N,11410.179979,E,0.4,58.854948463,120921,,E,A*11
$GPGGA,132633.000,2217.778534,N,11410.180006,E,1,19,0.8,47.2,M,,M,,*73
$GPRMC,132633.000,A,2217.778534,N,11410.180006,E,0.4,0.0,120921,,E,A*26
$GPGGA,132634.000,2217.778595,N,11410.179826,E,1,19,0.8,46.6,M,,M,,*76
$GPRMC,132634.000,A,2217.778595,N,11410.179826,E,0.4,0.0,120921,,E,A*26
$GPGGA,132635.000,2217.778628,N,11410.179748,E,1,19,0.8,46.2,M,,M,,*71
$GPRMC,132635.000,A,2217.778628,N,11410.179748,E,0.3,68.00299658600001,120921,,E,A*22
$GPGGA,132636.000,2217.778727,N,11410.179633,E,1,19,0.8,46.1,M,,M,,*72
$GPRMC,132636.000,A,2217.778727,N,11410.179633,E,0.5,313.303649565,120921,,E,A*28
$GPGGA,132637.000,2217.778736,N,11410.179544,E,1,19,0.8,46.5,M,,M,,*74
$GPRMC,132637.000,A,2217.778736,N,11410.179544,E,0.3,79.911834524,120921,,E,A*1B
$GPGGA,132638.000,2217.778740,N,11410.179467,E,1,19,0.8,46.5,M,,M,,*7A
$GPRMC,132638.000,A,2217.778740,N,11410.179467,E,0.3,60.77738719,120921,,E,A*2B
$GPGGA,132639.000,2217.779054,N,11410.179020,E,1,19,0.8,46.8,M,,M,,*72
$GPRMC,132639.000,A,2217.779054,N,11410.179020,E,1.2,59.363449223,120921,,E,A*1B
$GPGGA,132640.000,2217.779125,N,11410.178740,E,1,19,0.8,47.2,M,,M,,*70
$GPRMC,132640.000,A,2217.779125,N,11410.178740,E,0.9,0.0,120921,,E,A*28
$GPGGA,132641.000,2217.779225,N,11410.178574,E,1,19,0.8,47.7,M,,M,,*72
$GPRMC,132641.000,A,2217.779225,N,11410.178574,E,0.8,17.008241864000002,120921,,E,A*1F
$GPGGA,132642.000,2217.779384,N,11410.178387,E,1,19,0.8,48.2,M,,M,,*7B
$GPRMC,132642.000,A,2217.779384,N,11410.178387,E,0.8,26.040420949,120921,,E,A*1F
$GPGGA,132643.000,2217.779548,N,11410.178205,E,1,19,0.8,48.5,M,,M,,*70
$GPRMC,132643.000,A,2217.779548,N,11410.178205,E,0.9,0.0,120921,,E,A*20
$GPGGA,132644.000,2217.779711,N,11410.178020,E,1,19,0.8,48.6,M,,M,,*7F
$GPRMC,132644.000,A,2217.779711,N,11410.178020,E,0.9,82.663089395,120921,,E,A*1B
$GPGGA,132645.000,2217.779875,N,11410.177834,E,1,19,0.8,48.6,M,,M,,*71
$GPRMC,132645.000,A,2217.779875,N,11410.177834,E,0.9,64.973035842,120921,,E,A*15
$GPGGA,132646.000,2217.779859,N,11410.176946,E,1,19,0.8,46.3,M,,M,,*72
$GPRMC,132646.000,A,2217.779859,N,11410.176946,E,0.8,61.860962563,120921,,E,A*1F
$GPGGA,132647.000,2217.779674,N,11410.176994,E,1,19,0.8,46.4,M,,M,,*7A
$GPRMC,132647.000,A,2217.779674,N,11410.176994,E,0.4,0.0,120921,,E,A*28
$GPGGA,132648.000,2217.779606,N,11410.176957,E,1,19,0.8,46.4,M,,M,,*7F
$GPRMC,132648.000,A,2217.779606,N,11410.176957,E,0.4,0.0,120921,,E,A*2D
$GPGGA,132649.000,2217.779743,N,11410.176622,E,1,19,0.8,46.4,M,,M,,*73
$GPRMC,132649.000,A,2217.779743,N,11410.176622,E,0.6,82.473954625,120921,,E,A*10
$GPGGA,132650.000,2217.779734,N,11410.176492,E,1,19,0.8,46.4,M,,M,,*72
$GPRMC,132650.000,A,2217.779734,N,11410.176492,E,0.5,209.713707252,120921,,E,A*2A
$GPGGA,132651.000,2217.779774,N,11410.176387,E,1,19,0.8,46.4,M,,M,,*74
$GPRMC,132651.000,A,2217.779774,N,11410.176387,E,0.5,82.743938345,120921,,E,A*1D
$GPGGA,132652.000,2217.779858,N,11410.176342,E,1,19,0.8,46.4,M,,M,,*7F
$GPRMC,132652.000,A,2217.779858,N,11410.176342,E,0.4,82.757742158,120921,,E,A*1F
$GPGGA,132653.000,2217.780140,N,11410.176040,E,1,19,0.8,45.7,M,,M,,*79
$GPRMC,132653.000,A,2217.780140,N,11410.176040,E,0.3,0.0,120921,,E,A*2C
$GPGGA,132654.000,2217.780038,N,11410.176014,E,1,19,0.8,45.6,M,,M,,*70
$GPRMC,132654.000,A,2217.780038,N,11410.176014,E,0.3,0.0,120921,,E,A*24
$GPGGA,132655.000,2217.780042,N,11410.176001,E,1,19,0.8,45.6,M,,M,,*78
$GPRMC,132655.000,A,2217.780042,N,11410.176001,E,0.2,0.0,120921,,E,A*2D
$GPGGA,132656.000,2217.780048,N,11410.176000,E,1,19,0.8,45.6,M,,M,,*70
$GPRMC,132656.000,A,2217.780048,N,11410.176000,E,0.1,349.609247314,120921,,E,A*20
$GPGGA,132657.000,2217.780025,N,11410.176005,E,1,19,0.8,45.6,M,,M,,*7F
$GPRMC,132657.000,A,2217.780025,N,11410.176005,E,0.1,349.57154467,120921,,E,A*10
$GPGGA,132658.000,2217.779968,N,11410.175927,E,1,19,0.8,45.6,M,,M,,*7C
$GPRMC,132658.000,A,2217.779968,N,11410.175927,E,0.2,59.007200212,120921,,E,A*11
$GPGGA,132659.000,2217.779880,N,11410.175937,E,1,19,0.8,45.6,M,,M,,*7B
$GPRMC,132659.000,A,2217.779880,N,11410.175937,E,0.2,130.88897931,120921,,E,A*11
$GPGGA,132700.000,2217.779847,N,11410.175989,E,1,19,0.8,45.6,M,,M,,*78
$GPRMC,132700.000,A,2217.779847,N,11410.175989,E,0.1,58.989612474,120921,,E,A*19
$GPGGA,132701.000,2217.779828,N,11410.176013,E,1,19,0.8,45.6,M,,M,,*79
$GPRMC,132701.000,A,2217.779828,N,11410.176013,E,0.1,26.697273419000002,120921,,E,A*1B
$GPGGA,132702.000,2217.779594,N,11410.176030,E,1,19,0.8,45.6,M,,M,,*71
$GPRMC,132702.000,A,2217.779594,N,11410.176030,E,0.3,68.47772888899999,120921,,E,A*23
$GPGGA,132703.000,2217.778606,N,11410.177512,E,1,19,0.8,63.1,M,,M,,*7E
$GPRMC,132703.000,A,2217.778606,N,11410.177512,E,0.3,58.994311645,120921,,E,A*14
$GPGGA,132704.000,2217.778633,N,11410.177430,E,1,19,0.8,63.1,M,,M,,*7E
$GPRMC,132704.000,A,2217.778633,N,11410.177430,E,0.2,85.19930258800001,120921,,E,A*21
$GPGGA,132705.000,2217.778642,N,11410.177350,E,1,19,0.8,63.1,M,,M,,*78
$GPRMC,132705.000,A,2217.778642,N,11410.177350,E,0.2,68.524986969,120921,,E,A*12
$GPGGA,132706.000,2217.778612,N,11410.177375,E,1,19,0.8,63.1,M,,M,,*79
$GPRMC,132706.000,A,2217.778612,N,11410.177375,E,0.1,0.0,120921,,E,A*2C
$GPGGA,132707.000,2217.778330,N,11410.177627,E,1,19,0.8,63.1,M,,M,,*7F
$GPRMC,132707.000,A,2217.778330,N,11410.177627,E,0.4,0.0,120921,,E,A*2F
$GPGGA,132708.000,2217.777873,N,11410.178092,E,1,19,0.8,63.1,M,,M,,*74
$GPRMC,132708.000,A,2217.777873,N,11410.178092,E,0.9,68.324056462,120921,,E,A*11
$GPGGA,132709.000,2217.777522,N,11410.178374,E,1,19,0.8,63.0,M,,M,,*76
$GPRMC,132709.000,A,2217.777522,N,11410.178374,E,1.1,68.50228342,120921,,E,A*25
$GPGGA,132710.000,2217.777261,N,11410.178564,E,1,19,0.8,63.0,M,,M,,*79
$GPRMC,132710.000,A,2217.777261,N,11410.178564,E,1.1,4.208887267,120921,,E,A*26
